$GPGGA,210002.000,4651.0420,N,12414.0069,W,2,11,0.76,-4.3,M,-19.2,M,0000,0000*7D
$GPRMC,210002.000,A,4651.0420,N,12414.0069,W,1.26,121.23,120721,,,D*74
$GPVTG,121.23,T,,M,1.26,N,2.33,K,D*3C
$GPGGA,210002.250,4651.0419,N,12414.0068,W,2,11,0.76,-4.3,M,-19.2,M,0000,0000*71
$GPVTG,121.52,T,,M,1.27,N,2.36,K,D*3E
$GPGGA,210002.500,4651.0419,N,12414.0066,W,2,11,0.76,-4.3,M,-19.2,M,0000,0000*7D
$GPVTG,120.38,T,,M,1.27,N,2.35,K,D*30
$GPGGA,210002.750,4651.0419,N,12414.0065,W,2,11,0.76,-4.3,M,-19.2,M,0000,0000*79
$GPVTG,119.92,T,,M,1.23,N,2.28,K,D*32
$GPGGA,210003.000,4651.0419,N,12414.0065,W,2,11,0.76,-4.3,M,-19.2,M,0000,0000*7A
$GPRMC,210003.000,A,4651.0419,N,12414.0065,W,1.13,118.89,120721,,,D*7F
$GPVTG,118.89,T,,M,1.13,N,2.10,K,D*31
$GPGGA,210003.250,4651.0419,N,12414.0064,W,2,11,0.76,-4.3,M,-19.2,M,0000,0000*7C
$GPVTG,118.89,T,,M,1.04,N,1.93,K,D*3F
$GPGGA,210003.500,4651.0418,N,12414.0063,W,2,11,0.76,-4.3,M,-19.2,M,0000,0000*78
$GPVTG,124.28,T,,M,1.02,N,1.90,K,D*3E
$GPGGA,210003.750,4651.0417,N,12414.0062,W,2,11,0.76,-4.3,M,-19.2,M,0000,0000*71
$GPVTG,127.21,T,,M,1.08,N,2.01,K,D*35
$GPGGA,210004.000,4651.0416,N,12414.0061,W,2,11,0.76,-4.3,M,-19.2,M,0000,0000*76
$GPRMC,210004.000,A,4651.0416,N,12414.0061,W,1.11,128.08,120721,,,D*7B
$GPVTG,128.08,T,,M,1.11,N,2.06,K,D*3E
$GPGGA,210004.250,4651.0416,N,12414.0060,W,2,11,0.76,-4.3,M,-19.2,M,0000,0000*70
$GPVTG,128.86,T,,M,1.11,N,2.06,K,D*38
$GPGGA,210004.500,4651.0415,N,12414.0059,W,2,11,0.76,-4.3,M,-19.2,M,0000,0000*7B
$GPVTG,130.32,T,,M,1.11,N,2.06,K,D*3E
$GPGGA,210004.750,4651.0415,N,12414.0059,W,2,11,0.76,-4.3,M,-19.2,M,0000,0000*7C
$GPVTG,131.88,T,,M,1.00,N,1.85,K,D*36
$GPGGA,210005.000,4651.0415,N,12414.0059,W,2,11,0.76,-4.3,M,-19.2,M,0000,0000*7F
$GPRMC,210005.000,A,4651.0415,N,12414.0059,W,0.87,134.54,120721,,,D*78
$GPVTG,134.54,T,,M,0.87,N,1.62,K,D*35
$GPGGA,210005.250,4651.0414,N,12414.0059,W,2,11,0.76,-4.3,M,-19.2,M,0000,0000*79
$GPVTG,140.27,T,,M,0.82,N,1.52,K,D*34
$GPGGA,210005.500,4651.0414,N,12414.0060,W,2,11,0.76,-4.3,M,-19.2,M,0000,0000*71
$GPVTG,146.37,T,,M,0.71,N,1.31,K,D*3A
$GPGGA,210005.750,4651.0414,N,12414.0060,W,2,11,0.76,-4.3,M,-19.2,M,0000,0000*76
$GPVTG,153.83,T,,M,0.59,N,1.10,K,D*38
$GPGGA,210006.000,4651.0414,N,12414.0061,W,2,11,0.76,-4.3,M,-19.2,M,0000,0000*76
$GPRMC,210006.000,A,4651.0414,N,12414.0061,W,0.53,164.14,120721,,,D*79
$GPVTG,164.14,T,,M,0.53,N,0.98,K,D*39
$GPGGA,210006.250,4651.0414,N,12414.0061,W,2,11,0.76,-4.3,M,-19.2,M,0000,0000*71
$GPVTG,174.32,T,,M,0.51,N,0.94,K,D*32
$GPGGA,210006.500,4651.0414,N,12414.0062,W,2,11,0.76,-4.3,M,-19.2,M,0000,0000*70
$GPVTG,188.55,T,,M,0.46,N,0.86,K,D*35
$GPGGA,210006.750,4651.0413,N,12414.0062,W,2,11,0.76,-4.3,M,-19.2,M,0000,0000*70
$GPVTG,187.42,T,,M,0.48,N,0.90,K,D*35
$GPGGA,210007.000,4651.0413,N,12414.0061,W,2,11,0.76,-4.3,M,-19.2,M,0000,0000*70
$GPRMC,210007.000,A,4651.0413,N,12414.0061,W,0.50,175.62,120721,,,D*7D
$GPVTG,175.62,T,,M,0.50,N,0.93,K,D*30
$GPGGA,210007.250,4651.0412,N,12414.0060,W,2,11,0.76,-4.3,M,-19.2,M,0000,0000*77
$GPVTG,160.38,T,,M,0.56,N,1.04,K,D*32
$GPGGA,210007.500,4651.0412,N,12414.0058,W,2,11,0.76,-4.3,M,-19.2,M,0000,0000*7E
$GPVTG,142.84,T,,M,0.72,N,1.33,K,D*37
$GPGGA,210007.750,4651.0411,N,12414.0057,W,2,11,0.76,-4.3,M,-19.2,M,0000,0000*75
$GPVTG,138.22,T,,M,0.80,N,1.48,K,D*37
$GPGGA,210008.000,4651.0411,N,12414.0056,W,2,11,0.76,-4.3,M,-19.2,M,0000,0000*79
$GPRMC,210008.000,A,4651.0411,N,12414.0056,W,0.81,134.29,120721,,,D*72
$GPVTG,134.29,T,,M,0.81,N,1.50,K,D*38
$GPGGA,210008.250,4651.0411,N,12414.0056,W,2,11,0.76,-4.3,M,-19.2,M,0000,0000*7E
$GPVTG,130.30,T,,M,0.79,N,1.46,K,D*34
$GPGGA,210008.500,4651.0411,N,12414.0055,W,2,11,0.76,-4.3,M,-19.2,M,0000,0000*7F
$GPVTG,128.17,T,,M,0.72,N,1.33,K,D*31
$GPGGA,210008.750,4651.0411,N,12414.0055,W,2,11,0.76,-4.3,M,-19.2,M,0000,0000*78
$GPVTG,128.66,T,,M,0.61,N,1.12,K,D*36
$GPGGA,210009.000,4651.0411,N,12414.0055,W,2,11,0.76,-4.3,M,-19.2,M,0000,0000*7B
$GPRMC,210009.000,A,4651.0411,N,12414.0055,W,0.55,126.55,120721,,,D*71
$GPVTG,126.55,T,,M,0.55,N,1.01,K,D*3D
$GPGGA,210009.250,4651.0411,N,12414.0054,W,2,11,0.76,-4.3,M,-19.2,M,0000,0000*7D
$GPVTG,128.29,T,,M,0.56,N,1.04,K,D*3E
$GPGGA,210009.500,4651.0410,N,12414.0054,W,2,11,0.76,-4.3,M,-19.2,M,0000,0000*7E
$GPVTG,130.66,T,,M,0.51,N,0.94,K,D*33
$GPGGA,210009.750,4651.0411,N,12414.0054,W,2,11,0.76,-4.3,M,-19.2,M,0000,0000*78
$GPVTG,128.11,T,,M,0.44,N,0.81,K,D*3A
$GPGGA,210010.000,4651.0410,N,12414.0054,W,2,11,0.76,-4.3,M,-19.2,M,0000,0000*73
$GPRMC,210010.000,A,4651.0410,N,12414.0054,W,0.44,132.68,120721,,,D*72
$GPVTG,132.68,T,,M,0.44,N,0.81,K,D*3F
$GPGGA,210010.250,4651.0409,N,12414.0054,W,2,11,0.76,-4.3,M,-19.2,M,0000,0000*7C
$GPVTG,143.43,T,,M,0.55,N,1.03,K,D*3B
$GPGGA,210010.500,4651.0407,N,12414.0053,W,2,11,0.76,-4.3,M,-19.2,M,0000,0000*77
$GPVTG,147.08,T,,M,0.81,N,1.50,K,D*3F
$GPGGA,210010.750,4651.0407,N,12414.0052,W,2,11,0.76,-4.3,M,-19.2,M,0000,0000*71
$GPVTG,147.71,T,,M,0.89,N,1.64,K,D*3E
$GPGGA,210011.000,4651.0406,N,12414.0051,W,2,11,0.76,-4.3,M,-19.2,M,0000,0000*70
$GPRMC,210011.000,A,4651.0406,N,12414.0051,W,0.92,144.00,120721,,,D*75
$GPVTG,144.00,T,,M,0.92,N,1.71,K,D*35
$GPGGA,210011.250,4651.0406,N,12414.0049,W,2,11,0.76,-4.3,M,-19.2,M,0000,0000*7E
$GPVTG,136.90,T,,M,0.96,N,1.78,K,D*34
$GPGGA,210011.500,4651.0406,N,12414.0048,W,2,11,0.76,-4.3,M,-19.2,M,0000,0000*7D
$GPVTG,130.49,T,,M,1.03,N,1.91,K,D*3C
$GPGGA,210011.750,4651.0406,N,12414.0046,W,2,11,0.76,-4.3,M,-19.2,M,0000,0000*74
$GPVTG,127.68,T,,M,1.08,N,2.00,K,D*39
$GPGGA,210012.000,4651.0405,N,12414.0045,W,2,11,0.76,-4.3,M,-19.2,M,0000,0000*75
$GPRMC,210012.000,A,4651.0405,N,12414.0045,W,1.16,124.89,120721,,,D*7A
$GPVTG,124.89,T,,M,1.16,N,2.15,K,D*3E
$GPGGA,210012.250,4651.0405,N,12414.0043,W,2,11,0.76,-4.3,M,-19.2,M,0000,0000*74
$GPVTG,121.03,T,,M,1.27,N,2.35,K,D*39
$GPGGA,210012.500,4651.0405,N,12414.0041,W,2,11,0.76,-4.3,M,-19.2,M,0000,0000*74
$GPVTG,118.76,T,,M,1.28,N,2.37,K,D*3C
$GPGGA,210012.750,4651.0405,N,12414.0041,W,2,11,0.76,-4.3,M,-19.2,M,0000,0000*73
$GPVTG,119.16,T,,M,1.16,N,2.15,K,D*36
$GPGGA,210013.000,4651.0405,N,12414.0040,W,2,11,0.76,-4.3,M,-19.2,M,0000,0000*71
$GPRMC,210013.000,A,4651.0405,N,12414.0040,W,1.00,119.91,120721,,,D*7E
$GPVTG,119.91,T,,M,1.00,N,1.85,K,D*34
$GPGGA,210013.250,4651.0405,N,12414.0040,W,2,11,0.76,-4.3,M,-19.2,M,0000,0000*76
$GPVTG,121.89,T,,M,0.80,N,1.48,K,D*3E
$GPGGA,210013.500,4651.0405,N,12414.0040,W,2,11,0.76,-4.3,M,-19.2,M,0000,0000*74
$GPVTG,123.83,T,,M,0.66,N,1.22,K,D*32
$GPGGA,210013.750,4651.0405,N,12414.0040,W,2,11,0.76,-4.3,M,-19.2,M,0000,0000*73
$GPVTG,122.23,T,,M,0.59,N,1.09,K,D*3C
$GPGGA,210014.000,4651.0405,N,12414.0039,W,2,11,0.76,-4.3,M,-19.2,M,0000,0000*78
$GPRMC,210014.000,A,4651.0405,N,12414.0039,W,0.57,120.12,120721,,,D*75
$GPVTG,120.12,T,,M,0.57,N,1.06,K,D*3D
$GPGGA,210014.250,4651.0405,N,12414.0039,W,2,11,0.76,-4.3,M,-19.2,M,0000,0000*7F
$GPVTG,119.51,T,,M,0.58,N,1.07,K,D*3E
$GPGGA,210014.500,4651.0404,N,12414.0038,W,2,11,0.76,-4.3,M,-19.2,M,0000,0000*7D
$GPVTG,122.82,T,,M,0.59,N,1.09,K,D*37
$GPGGA,210014.750,4651.0404,N,12414.0037,W,2,11,0.76,-4.3,M,-19.2,M,0000,0000*75
$GPVTG,119.69,T,,M,0.61,N,1.13,K,D*3A
$GPGGA,210015.000,4651.0404,N,12414.0036,W,2,11,0.76,-4.3,M,-19.2,M,0000,0000*77
$GPRMC,210015.000,A,4651.0404,N,12414.0036,W,0.63,115.02,120721,,,D*7A
$GPVTG,115.02,T,,M,0.63,N,1.16,K,D*3C
$GPGGA,210015.250,4651.0405,N,12414.0036,W,2,11,0.76,-4.3,M,-19.2,M,0000,0000*71
$GPVTG,112.56,T,,M,0.59,N,1.09,K,D*3D
$GPGGA,210015.500,4651.0404,N,12414.0035,W,2,11,0.76,-4.3,M,-19.2,M,0000,0000*71
$GPVTG,116.39,T,,M,0.52,N,0.96,K,D*3C
$GPGGA,210015.750,4651.0404,N,12414.0036,W,2,11,0.76,-4.3,M,-19.2,M,0000,0000*75
$GPVTG,133.08,T,,M,0.40,N,0.75,K,D*37
$GPGGA,210016.000,4651.0403,N,12414.0036,W,2,11,0.76,-4.3,M,-19.2,M,0000,0000*73
$GPRMC,210016.000,A,4651.0403,N,12414.0036,W,0.38,149.28,120721,,,D*71
$GPVTG,149.28,T,,M,0.38,N,0.71,K,D*33
$GPGGA,210016.250,4651.0403,N,12414.0035,W,2,11,0.76,-4.3,M,-19.2,M,0000,0000*77
$GPVTG,153.56,T,,M,0.39,N,0.73,K,D*32
$GPGGA,210016.500,4651.0403,N,12414.0035,W,2,11,0.76,-4.3,M,-19.2,M,0000,0000*75
$GPVTG,139.54,T,,M,0.34,N,0.63,K,D*30
$GPGGA,210016.750,4651.0403,N,12414.0034,W,2,11,0.76,-4.3,M,-19.2,M,0000,0000*73
$GPVTG,121.48,T,,M,0.35,N,0.64,K,D*32
$GPGGA,210017.000,4651.0404,N,12414.0034,W,2,11,0.76,-4.3,M,-19.2,M,0000,0000*77
$GPRMC,210017.000,A,4651.0404,N,12414.0034,W,0.33,116.38,120721,,,D*75
$GPVTG,116.38,T,,M,0.33,N,0.62,K,D*31
$GPGGA,210017.250,4651.0404,N,12414.0033,W,2,11,0.76,-4.3,M,-19.2,M,0000,0000*77
$GPVTG,112.57,T,,M,0.32,N,0.59,K,D*35
$GPGGA,210017.500,4651.0404,N,12414.0033,W,2,11,0.76,-4.3,M,-19.2,M,0000,0000*75
$GPVTG,110.59,T,,M,0.27,N,0.50,K,D*34
$GPGGA,210017.750,4651.0403,N,12414.0033,W,2,11,0.76,-4.3,M,-19.2,M,0000,0000*75
$GPVTG,114.14,T,,M,0.26,N,0.48,K,D*31
$GPGGA,210018.000,4651.0403,N,12414.0033,W,2,11,0.76,-4.3,M,-19.2,M,0000,0000*78
$GPRMC,210018.000,A,4651.0403,N,12414.0033,W,0.25,115.93,120721,,,D*7F
$GPVTG,115.93,T,,M,0.25,N,0.46,K,D*32
$GPGGA,210018.250,4651.0403,N,12414.0033,W,2,11,0.76,-4.4,M,-19.2,M,0000,0000*78
$GPVTG,114.64,T,,M,0.21,N,0.40,K,D*39
$GPGGA,210018.500,4651.0403,N,12414.0032,W,2,11,0.76,-4.4,M,-19.2,M,0000,0000*7B
$GPVTG,108.29,T,,M,0.23,N,0.43,K,D*3C
$GPGGA,210018.750,4651.0403,N,12414.0032,W,2,11,0.76,-4.4,M,-19.2,M,0000,0000*7C
$GPVTG,108.06,T,,M,0.23,N,0.42,K,D*30
$GPGGA,210019.000,4651.0403,N,12414.0032,W,2,11,0.76,-4.4,M,-19.2,M,0000,0000*7F
$GPRMC,210019.000,A,4651.0403,N,12414.0032,W,0.21,114.63,120721,,,D*75
$GPVTG,114.63,T,,M,0.21,N,0.39,K,D*30
$GPGGA,210019.250,4651.0403,N,12414.0032,W,2,11,0.76,-4.4,M,-19.2,M,0000,0000*78
$GPVTG,118.46,T,,M,0.24,N,0.44,K,D*34
$GPGGA,210019.500,4651.0403,N,12414.0031,W,2,11,0.76,-4.4,M,-19.2,M,0000,0000*79
$GPVTG,121.13,T,,M,0.32,N,0.59,K,D*35
$GPGGA,210019.750,4651.0403,N,12414.0031,W,2,11,0.76,-4.4,M,-19.2,M,0000,0000*7E
$GPVTG,114.80,T,,M,0.44,N,0.82,K,D*3E
$GPGGA,210020.000,4651.0403,N,12414.0031,W,2,11,0.76,-4.4,M,-19.2,M,0000,0000*76
$GPRMC,210020.000,A,4651.0403,N,12414.0031,W,0.56,109.29,120721,,,D*7E
$GPVTG,109.29,T,,M,0.56,N,1.05,K,D*3C
$GPGGA,210020.250,4651.0403,N,12414.0030,W,2,11,0.76,-4.4,M,-19.2,M,0000,0000*70
$GPVTG,109.07,T,,M,0.75,N,1.40,K,D*30
$GPGGA,210020.500,4651.0401,N,12414.0028,W,2,11,0.76,-4.4,M,-19.2,M,0000,0000*79
$GPVTG,113.32,T,,M,0.95,N,1.77,K,D*37
$GPGGA,210020.750,4651.0401,N,12414.0027,W,2,11,0.76,-4.4,M,-19.2,M,0000,0000*71
$GPVTG,116.55,T,,M,1.08,N,2.00,K,D*35
$GPGGA,210021.000,4651.0400,N,12414.0025,W,2,11,0.76,-4.4,M,-19.2,M,0000,0000*71
$GPRMC,210021.000,A,4651.0400,N,12414.0025,W,1.19,116.47,120721,,,D*75
$GPVTG,116.47,T,,M,1.19,N,2.20,K,D*34
$GPGGA,210021.250,4651.0399,N,12414.0024,W,2,11,0.76,-4.3,M,-19.2,M,0000,0000*77
$GPVTG,116.50,T,,M,1.20,N,2.23,K,D*3B
$GPGGA,210021.500,4651.0399,N,12414.0023,W,2,11,0.76,-4.3,M,-19.2,M,0000,0000*72
$GPVTG,118.18,T,,M,1.14,N,2.12,K,D*3C
$GPGGA,210021.750,4651.0398,N,12414.0023,W,2,11,0.76,-4.3,M,-19.2,M,0000,0000*74
$GPVTG,120.60,T,,M,1.07,N,1.99,K,D*3A
$GPGGA,210022.000,4651.0398,N,12414.0022,W,2,11,0.76,-4.3,M,-19.2,M,0000,0000*74
$GPRMC,210022.000,A,4651.0398,N,12414.0022,W,1.03,122.47,120721,,,D*7B
$GPVTG,122.47,T,,M,1.03,N,1.91,K,D*31
$GPGGA,210022.250,4651.0398,N,12414.0021,W,2,11,0.76,-4.3,M,-19.2,M,0000,0000*70
$GPVTG,122.61,T,,M,0.99,N,1.84,K,D*33
$GPGGA,210022.500,4651.0397,N,12414.0021,W,2,11,0.76,-4.3,M,-19.2,M,0000,0000*7D
$GPVTG,124.27,T,,M,0.93,N,1.72,K,D*34
$GPGGA,210022.750,4651.0397,N,12414.0020,W,2,11,0.76,-4.4,M,-19.2,M,0000,0000*7C
$GPVTG,123.39,T,,M,0.90,N,1.67,K,D*3B
$GPGGA,210023.000,4651.0397,N,12414.0019,W,2,11,0.76,-4.4,M,-19.2,M,0000,0000*75
$GPRMC,210023.000,A,4651.0397,N,12414.0019,W,0.84,123.38,120721,,,D*7A
$GPVTG,123.38,T,,M,0.84,N,1.56,K,D*3D
$GPGGA,210023.250,4651.0397,N,12414.0019,W,2,11,0.77,-4.4,M,-19.2,M,0000,0000*73
$GPVTG,124.65,T,,M,0.70,N,1.29,K,D*31
$GPGGA,210023.500,4651.0397,N,12414.0021,W,2,11,0.77,-4.4,M,-19.2,M,0000,0000*7A
$GPVTG,134.27,T,,M,0.50,N,0.93,K,D*34
$GPGGA,210023.750,4651.0396,N,12414.0022,W,2,11,0.77,-4.4,M,-19.2,M,0000,0000*7F
$GPVTG,153.37,T,,M,0.37,N,0.68,K,D*31
$GPGGA,210024.000,4651.0396,N,12414.0022,W,2,11,0.76,-4.4,M,-19.2,M,0000,0000*7B
$GPRMC,210024.000,A,4651.0396,N,12414.0022,W,0.31,159.48,120721,,,D*70
$GPVTG,159.48,T,,M,0.31,N,0.58,K,D*36
$GPGGA,210024.250,4651.0397,N,12414.0021,W,2,11,0.76,-4.4,M,-19.2,M,0000,0000*7E
$GPVTG,154.01,T,,M,0.27,N,0.51,K,D*38
$GPGGA,210024.500,4651.0397,N,12414.0020,W,2,11,0.76,-4.4,M,-19.2,M,0000,0000*7D
$GPVTG,133.85,T,,M,0.29,N,0.54,K,D*3E
$GPGGA,210024.750,4651.0397,N,12414.0019,W,2,11,0.76,-4.4,M,-19.2,M,0000,0000*70
$GPVTG,124.01,T,,M,0.31,N,0.57,K,D*3E
$GPGGA,210025.000,4651.0396,N,12414.0018,W,2,11,0.76,-4.4,M,-19.2,M,0000,0000*73
$GPRMC,210025.000,A,4651.0396,N,12414.0018,W,0.34,121.40,120721,,,D*7A
$GPVTG,121.40,T,,M,0.34,N,0.63,K,D*3C
$GPGGA,210025.250,4651.0396,N,12414.0018,W,2,11,0.76,-4.4,M,-19.2,M,0000,0000*74
$GPVTG,126.26,T,,M,0.38,N,0.71,K,D*34
$GPGGA,210025.500,4651.0396,N,12414.0017,W,2,11,0.76,-4.4,M,-19.2,M,0000,0000*79
$GPVTG,130.74,T,,M,0.38,N,0.71,K,D*34
$GPGGA,210025.750,4651.0395,N,12414.0017,W,2,11,0.76,-4.4,M,-19.2,M,0000,0000*7D
$GPVTG,139.83,T,,M,0.38,N,0.70,K,D*34
$GPGGA,210026.000,4651.0395,N,12414.0017,W,2,11,0.76,-4.4,M,-19.2,M,0000,0000*7C
$GPRMC,210026.000,A,4651.0395,N,12414.0017,W,0.37,142.69,120721,,,D*78
$GPVTG,142.69,T,,M,0.37,N,0.68,K,D*3A
$GPGGA,210026.250,4651.0395,N,12414.0017,W,2,11,0.76,-4.4,M,-19.2,M,0000,0000*7B
$GPVTG,148.50,T,,M,0.29,N,0.54,K,D*3A
$GPGGA,210026.500,4651.0396,N,12414.0017,W,2,11,0.76,-4.4,M,-19.2,M,0000,0000*7A
$GPVTG,141.22,T,,M,0.24,N,0.44,K,D*3A
$GPGGA,210026.750,4651.0395,N,12414.0016,W,2,11,0.76,-4.4,M,-19.2,M,0000,0000*7F
$GPVTG,134.77,T,,M,0.33,N,0.62,K,D*3A
$GPGGA,210027.000,4651.0395,N,12414.0016,W,2,11,0.76,-4.4,M,-19.2,M,0000,0000*7C
$GPRMC,210027.000,A,4651.0395,N,12414.0016,W,0.45,136.82,120721,,,D*7B
$GPVTG,136.82,T,,M,0.45,N,0.84,K,D*3B
$GPGGA,210027.250,4651.0395,N,12414.0015,W,2,11,0.76,-4.4,M,-19.2,M,0000,0000*78
$GPVTG,134.49,T,,M,0.59,N,1.09,K,D*37
$GPGGA,210027.500,4651.0394,N,12414.0014,W,2,11,0.76,-4.4,M,-19.2,M,0000,0000*7A
$GPVTG,127.39,T,,M,0.73,N,1.35,K,D*35
$GPGGA,210027.750,4651.0394,N,12414.0012,W,2,11,0.76,-4.4,M,-19.2,M,0000,0000*7B
$GPVTG,116.26,T,,M,0.84,N,1.56,K,D*34
$GPGGA,210028.000,4651.0394,N,12414.0011,W,2,11,0.76,-4.4,M,-19.2,M,0000,0000*75
$GPRMC,210028.000,A,4651.0394,N,12414.0011,W,0.88,116.34,120721,,,D*7C
$GPVTG,116.34,T,,M,0.88,N,1.63,K,D*3D
$GPGGA,210028.250,4651.0393,N,12414.0009,W,2,11,0.76,-4.3,M,-19.2,M,0000,0000*7B
$GPVTG,115.24,T,,M,0.95,N,1.76,K,D*37
$GPGGA,210028.500,4651.0393,N,12414.0008,W,2,11,0.76,-4.3,M,-19.2,M,0000,0000*78
$GPVTG,113.85,T,,M,1.08,N,2.00,K,D*3D
$GPGGA,210028.750,4651.0392,N,12414.0005,W,2,11,0.76,-4.3,M,-19.2,M,0000,0000*73
$GPVTG,114.27,T,,M,1.29,N,2.39,K,D*3B
$GPGGA,210029.000,4651.0391,N,12414.0004,W,2,11,0.76,-4.3,M,-19.2,M,0000,0000*72
$GPRMC,210029.000,A,4651.0391,N,12414.0004,W,1.39,115.45,120721,,,D*72
$GPVTG,115.45,T,,M,1.39,N,2.57,K,D*37
$GPGGA,210029.250,4651.0390,N,12414.0002,W,2,11,0.76,-4.3,M,-19.2,M,0000,0000*72
$GPVTG,116.02,T,,M,1.44,N,2.66,K,D*3F
$GPGGA,210029.500,4651.0389,N,12414.0001,W,2,11,0.76,-4.3,M,-19.2,M,0000,0000*7B
$GPVTG,114.35,T,,M,1.36,N,2.52,K,D*3B
$GPGGA,210029.750,4651.0389,N,12414.0000,W,2,11,0.76,-4.4,M,-19.2,M,0000,0000*7A
$GPVTG,107.92,T,,M,1.07,N,1.99,K,D*32
$GPGGA,210030.000,4651.0389,N,12414.0000,W,2,11,0.76,-4.4,M,-19.2,M,0000,0000*70
$GPRMC,210030.000,A,4651.0389,N,12414.0000,W,0.90,110.11,120721,,,D*71
$GPVTG,110.11,T,,M,0.90,N,1.67,K,D*31
$GPGGA,210030.250,4651.0389,N,12414.0000,W,2,11,0.76,-4.4,M,-19.2,M,0000,0000*77
$GPVTG,115.20,T,,M,0.80,N,1.48,K,D*3A
$GPGGA,210030.500,4651.0388,N,12413.9999,W,2,11,0.76,-4.4,M,-19.2,M,0000,0000*73
$GPVTG,122.51,T,,M,0.88,N,1.62,K,D*38
$GPGGA,210030.750,4651.0387,N,12413.9998,W,2,11,0.76,-4.4,M,-19.2,M,0000,0000*7A
$GPVTG,122.07,T,,M,0.95,N,1.77,K,D*33
$GPGGA,210031.000,4651.0386,N,12413.9997,W,2,11,0.76,-4.4,M,-19.2,M,0000,0000*77
$GPRMC,210031.000,A,4651.0386,N,12413.9997,W,1.00,122.65,120721,,,D*7C
$GPVTG,122.65,T,,M,1.00,N,1.85,K,D*37
$GPGGA,210031.250,4651.0385,N,12413.9996,W,2,11,0.76,-4.4,M,-19.2,M,0000,0000*72
$GPVTG,126.94,T,,M,1.10,N,2.04,K,D*36
$GPGGA,210031.500,4651.0384,N,12413.9995,W,2,11,0.76,-4.4,M,-19.2,M,0000,0000*72
$GPVTG,130.00,T,,M,1.18,N,2.18,K,D*39
$GPGGA,210031.750,4651.0384,N,12413.9994,W,2,11,0.76,-4.4,M,-19.2,M,0000,0000*74
$GPVTG,128.68,T,,M,1.19,N,2.21,K,D*35
$GPGGA,210032.000,4651.0384,N,12413.9992,W,2,11,0.76,-4.4,M,-19.2,M,0000,0000*73
$GPRMC,210032.000,A,4651.0384,N,12413.9992,W,1.16,124.28,120721,,,D*70
$GPVTG,124.28,T,,M,1.16,N,2.16,K,D*36
$GPGGA,210032.250,4651.0384,N,12413.9992,W,2,11,0.76,-4.4,M,-19.2,M,0000,0000*74
$GPVTG,119.98,T,,M,0.97,N,1.80,K,D*37
$GPGGA,210032.500,4651.0384,N,12413.9992,W,2,11,0.76,-4.4,M,-19.2,M,0000,0000*76
$GPVTG,120.50,T,,M,0.76,N,1.41,K,D*3B
$GPGGA,210032.750,4651.0384,N,12413.9993,W,2,11,0.76,-4.4,M,-19.2,M,0000,0000*70
$GPVTG,128.64,T,,M,0.57,N,1.06,K,D*34
$GPGGA,210033.000,4651.0383,N,12413.9993,W,2,11,0.76,-4.4,M,-19.2,M,0000,0000*74
$GPRMC,210033.000,A,4651.0383,N,12413.9993,W,0.47,135.35,120721,,,D*7E
$GPVTG,135.35,T,,M,0.47,N,0.88,K,D*3A
$GPGGA,210033.250,4651.0383,N,12413.9994,W,2,11,0.76,-4.4,M,-19.2,M,0000,0000*74
$GPVTG,158.24,T,,M,0.30,N,0.56,K,D*32
$GPGGA,210033.500,4651.0383,N,12413.9994,W,2,11,0.76,-4.4,M,-19.2,M,0000,0000*76
$GPVTG,186.68,T,,M,0.21,N,0.39,K,D*30
$GPGGA,210033.750,4651.0383,N,12413.9996,W,2,11,0.76,-4.4,M,-19.2,M,0000,0000*73
$GPVTG,241.75,T,,M,0.30,N,0.56,K,D*3D
$GPGGA,210034.000,4651.0383,N,12413.9997,W,2,11,0.76,-4.4,M,-19.2,M,0000,0000*77
$GPRMC,210034.000,A,4651.0383,N,12413.9997,W,0.42,255.07,120721,,,D*7C
$GPVTG,255.07,T,,M,0.42,N,0.77,K,D*3B
$GPGGA,210034.250,4651.0383,N,12413.9998,W,2,11,0.76,-4.4,M,-19.2,M,0000,0000*7F
$GPVTG,261.56,T,,M,0.54,N,1.01,K,D*3F
$GPGGA,210034.500,4651.0383,N,12413.9998,W,2,11,0.76,-4.4,M,-19.2,M,0000,0000*7D
$GPVTG,258.13,T,,M,0.48,N,0.89,K,D*38
$GPGGA,210034.750,4651.0382,N,12413.9997,W,2,11,0.76,-4.4,M,-19.2,M,0000,0000*74
$GPVTG,229.65,T,,M,0.31,N,0.58,K,D*3D
$GPGGA,210035.000,4651.0381,N,12413.9996,W,2,11,0.76,-4.4,M,-19.2,M,0000,0000*75
$GPRMC,210035.000,A,4651.0381,N,12413.9996,W,0.27,195.60,120721,,,D*73
$GPVTG,195.60,T,,M,0.27,N,0.49,K,D*3B
$GPGGA,210035.250,4651.0381,N,12413.9995,W,2,11,0.76,-4.4,M,-19.2,M,0000,0000*71
$GPVTG,155.49,T,,M,0.30,N,0.56,K,D*34
$GPGGA,210035.500,4651.0380,N,12413.9995,W,2,11,0.76,-4.4,M,-19.2,M,0000,0000*72
$GPVTG,137.73,T,,M,0.36,N,0.67,K,D*3D
$GPGGA,210035.750,4651.0379,N,12413.9994,W,2,11,0.76,-4.3,M,-19.2,M,0000,0000*75
$GPVTG,144.35,T,,M,0.48,N,0.89,K,D*32
$GPGGA,210036.000,4651.0378,N,12413.9994,W,2,11,0.76,-4.3,M,-19.2,M,0000,0000*75
$GPRMC,210036.000,A,4651.0378,N,12413.9994,W,0.57,145.97,120721,,,D*76
$GPVTG,145.97,T,,M,0.57,N,1.06,K,D*33
$GPGGA,210036.250,4651.0378,N,12413.9993,W,2,11,0.76,-4.3,M,-19.2,M,0000,0000*75
$GPVTG,144.79,T,,M,0.71,N,1.31,K,D*32
$GPGGA,210036.500,4651.0377,N,12413.9992,W,2,11,0.76,-4.3,M,-19.2,M,0000,0000*79
$GPVTG,139.47,T,,M,0.78,N,1.45,K,D*3F
$GPGGA,210036.750,4651.0377,N,12413.9991,W,2,11,0.76,-4.3,M,-19.2,M,0000,0000*7D
$GPVTG,131.59,T,,M,0.87,N,1.62,K,D*3D
$GPGGA,210037.000,4651.0377,N,12413.9989,W,2,11,0.76,-4.3,M,-19.2,M,0000,0000*77
$GPRMC,210037.000,A,4651.0377,N,12413.9989,W,0.93,128.13,120721,,,D*7B
$GPVTG,128.13,T,,M,0.93,N,1.71,K,D*3C
$GPGGA,210037.250,4651.0376,N,12413.9988,W,2,11,0.76,-4.3,M,-19.2,M,0000,0000*70
$GPVTG,121.55,T,,M,1.03,N,1.91,K,D*31
$GPGGA,210037.500,4651.0376,N,12413.9985,W,2,11,0.76,-4.3,M,-19.2,M,0000,0000*7F
$GPVTG,117.30,T,,M,1.22,N,2.25,K,D*38
$GPGGA,210037.750,4651.0375,N,12413.9983,W,2,11,0.76,-4.3,M,-19.2,M,0000,0000*7D
$GPVTG,118.28,T,,M,1.38,N,2.57,K,D*30
$GPGGA,210038.000,4651.0374,N,12413.9982,W,2,11,0.76,-4.3,M,-19.2,M,0000,0000*70
$GPRMC,210038.000,A,4651.0374,N,12413.9982,W,1.46,122.23,120721,,,D*7C
$GPVTG,122.23,T,,M,1.46,N,2.70,K,D*3E
$GPGGA,210038.250,4651.0373,N,12413.9981,W,2,11,0.76,-4.3,M,-19.2,M,0000,0000*73
$GPVTG,129.14,T,,M,1.46,N,2.71,K,D*30
$GPGGA,210038.500,4651.0372,N,12413.9980,W,2,11,0.76,-4.3,M,-19.2,M,0000,0000*71
$GPVTG,134.71,T,,M,1.34,N,2.49,K,D*31
$GPGGA,210038.750,4651.0371,N,12413.9979,W,2,11,0.76,-4.3,M,-19.2,M,0000,0000*73
$GPVTG,138.04,T,,M,1.40,N,2.60,K,D*37
$GPGGA,210039.000,4651.0370,N,12413.9978,W,2,11,0.76,-4.3,M,-19.2,M,0000,0000*70
$GPRMC,210039.000,A,4651.0370,N,12413.9978,W,1.44,138.96,120721,,,D*7B
$GPVTG,138.96,T,,M,1.44,N,2.66,K,D*3E
$GPGGA,210039.250,4651.0369,N,12413.9977,W,2,11,0.76,-4.3,M,-19.2,M,0000,0000*70
$GPVTG,137.25,T,,M,1.40,N,2.59,K,D*31
$GPGGA,210039.500,4651.0369,N,12413.9976,W,2,11,0.76,-4.3,M,-19.2,M,0000,0000*73
$GPVTG,135.40,T,,M,1.36,N,2.52,K,D*3A
$GPGGA,210039.750,4651.0368,N,12413.9975,W,2,11,0.76,-4.3,M,-19.2,M,0000,0000*76
$GPVTG,130.57,T,,M,1.23,N,2.28,K,D*30
$GPGGA,210040.000,4651.0368,N,12413.9975,W,2,11,0.76,-4.4,M,-19.2,M,0000,0000*7D
$GPRMC,210040.000,A,4651.0368,N,12413.9975,W,1.14,130.37,120721,,,D*77
$GPVTG,130.37,T,,M,1.14,N,2.12,K,D*3B
$GPGGA,210040.250,4651.0368,N,12413.9974,W,2,11,0.76,-4.4,M,-19.2,M,0000,0000*7B
$GPVTG,129.62,T,,M,1.03,N,1.90,K,D*3C
$GPGGA,210040.500,4651.0367,N,12413.9974,W,2,11,0.76,-4.4,M,-19.2,M,0000,0000*76
$GPVTG,132.14,T,,M,0.92,N,1.70,K,D*30
$GPGGA,210040.750,4651.0367,N,12413.9974,W,2,11,0.76,-4.4,M,-19.2,M,0000,0000*71
$GPVTG,138.36,T,,M,0.78,N,1.44,K,D*39
$GPGGA,210041.000,4651.0367,N,12413.9974,W,2,11,0.76,-4.4,M,-19.2,M,0000,0000*72
$GPRMC,210041.000,A,4651.0367,N,12413.9974,W,0.75,139.06,120721,,,D*75
$GPVTG,139.06,T,,M,0.75,N,1.40,K,D*32
$GPGGA,210041.250,4651.0366,N,12413.9974,W,2,11,0.76,-4.4,M,-19.2,M,0000,0000*74
$GPVTG,139.36,T,,M,0.71,N,1.31,K,D*33
$GPGGA,210041.500,4651.0366,N,12413.9974,W,2,11,0.76,-4.4,M,-19.2,M,0000,0000*76
$GPVTG,141.37,T,,M,0.61,N,1.14,K,D*3B
$GPGGA,210041.750,4651.0366,N,12413.9974,W,2,11,0.76,-4.4,M,-19.2,M,0000,0000*71
$GPVTG,144.32,T,,M,0.51,N,0.95,K,D*30
$GPGGA,210042.000,4651.0366,N,12413.9974,W,2,11,0.76,-4.4,M,-19.2,M,0000,0000*70
$GPRMC,210042.000,A,4651.0366,N,12413.9974,W,0.44,144.11,120721,,,D*79
$GPVTG,144.11,T,,M,0.44,N,0.81,K,D*30
$GPGGA,210042.250,4651.0366,N,12413.9974,W,2,11,0.76,-4.4,M,-19.2,M,0000,0000*77
$GPVTG,148.81,T,,M,0.38,N,0.70,K,D*30
$GPGGA,210042.500,4651.0366,N,12413.9974,W,2,11,0.76,-4.4,M,-19.2,M,0000,0000*75
$GPVTG,161.75,T,,M,0.32,N,0.59,K,D*31
$GPGGA,210042.750,4651.0366,N,12413.9976,W,2,11,0.76,-4.4,M,-19.2,M,0000,0000*70
$GPVTG,214.63,T,,M,0.34,N,0.63,K,D*38
$GPGGA,210043.000,4651.0366,N,12413.9976,W,2,11,0.76,-4.4,M,-19.2,M,0000,0000*73
$GPRMC,210043.000,A,4651.0366,N,12413.9976,W,0.42,226.03,120721,,,D*78
$GPVTG,226.03,T,,M,0.42,N,0.79,K,D*35
$GPGGA,210043.250,4651.0365,N,12413.9976,W,2,11,0.76,-4.4,M,-19.2,M,0000,0000*77
$GPVTG,215.07,T,,M,0.49,N,0.91,K,D*3C
$GPGGA,210043.500,4651.0365,N,12413.9976,W,2,11,0.76,-4.4,M,-19.2,M,0000,0000*75
$GPVTG,199.79,T,,M,0.50,N,0.93,K,D*38
$GPGGA,210043.750,4651.0364,N,12413.9975,W,2,11,0.76,-4.4,M,-19.2,M,0000,0000*70
$GPVTG,180.87,T,,M,0.58,N,1.07,K,D*35
$GPGGA,210044.000,4651.0363,N,12413.9975,W,2,11,0.76,-4.4,M,-19.2,M,0000,0000*72
$GPRMC,210044.000,A,4651.0363,N,12413.9975,W,0.69,171.99,120721,,,D*72
$GPVTG,171.99,T,,M,0.69,N,1.28,K,D*3B
$GPGGA,210044.250,4651.0362,N,12413.9974,W,2,11,0.76,-4.4,M,-19.2,M,0000,0000*75
$GPVTG,162.05,T,,M,0.79,N,1.46,K,D*35
$GPGGA,210044.500,4651.0362,N,12413.9973,W,2,11,0.76,-4.4,M,-19.2,M,0000,0000*70
$GPVTG,154.77,T,,M,0.86,N,1.60,K,D*31
$GPGGA,210044.750,4651.0361,N,12413.9973,W,2,11,0.76,-4.4,M,-19.2,M,0000,0000*74
$GPVTG,152.40,T,,M,0.90,N,1.67,K,D*33
$GPGGA,210045.000,4651.0361,N,12413.9972,W,2,11,0.76,-4.4,M,-19.2,M,0000,0000*76
$GPRMC,210045.000,A,4651.0361,N,12413.9972,W,0.89,149.52,120721,,,D*74
$GPVTG,149.52,T,,M,0.89,N,1.65,K,D*30
$GPGGA,210045.250,4651.0361,N,12413.9972,W,2,11,0.76,-4.4,M,-19.2,M,0000,0000*71
$GPVTG,146.13,T,,M,0.88,N,1.63,K,D*3D
$GPGGA,210045.500,4651.0360,N,12413.9971,W,2,11,0.76,-4.3,M,-19.2,M,0000,0000*76
$GPVTG,141.92,T,,M,0.90,N,1.66,K,D*3F
$GPGGA,210045.750,4651.0360,N,12413.9970,W,2,11,0.76,-4.3,M,-19.2,M,0000,0000*70
$GPVTG,137.65,T,,M,0.92,N,1.71,K,D*32
$GPGGA,210046.000,4651.0359,N,12413.9969,W,2,11,0.76,-4.4,M,-19.2,M,0000,0000*74
$GPRMC,210046.000,A,4651.0359,N,12413.9969,W,0.94,134.68,120721,,,D*79
$GPVTG,134.68,T,,M,0.94,N,1.73,K,D*38
$GPGGA,210046.250,4651.0359,N,12413.9968,W,2,11,0.76,-4.4,M,-19.2,M,0000,0000*72
$GPVTG,128.49,T,,M,0.98,N,1.82,K,D*34
$GPGGA,210046.500,4651.0359,N,12413.9967,W,2,11,0.76,-4.3,M,-19.2,M,0000,0000*78
$GPVTG,125.05,T,,M,1.07,N,1.98,K,D*3D
$GPGGA,210046.750,4651.0358,N,12413.9965,W,2,11,0.76,-4.3,M,-19.2,M,0000,0000*7C
$GPVTG,123.18,T,,M,1.11,N,2.06,K,D*34
$GPGGA,210047.000,4651.0357,N,12413.9964,W,2,11,0.76,-4.3,M,-19.2,M,0000,0000*71
$GPRMC,210047.000,A,4651.0357,N,12413.9964,W,1.17,124.03,120721,,,D*7D
$GPVTG,124.03,T,,M,1.17,N,2.17,K,D*3F
$GPGGA,210047.250,4651.0357,N,12413.9963,W,2,11,0.76,-4.4,M,-19.2,M,0000,0000*76
$GPVTG,124.92,T,,M,1.24,N,2.31,K,D*33
$GPGGA,210047.500,4651.0356,N,12413.9962,W,2,11,0.76,-4.4,M,-19.2,M,0000,0000*74
$GPVTG,127.36,T,,M,1.29,N,2.40,K,D*35
$GPGGA,210047.750,4651.0355,N,12413.9961,W,2,11,0.76,-4.4,M,-19.2,M,0000,0000*73
$GPVTG,126.03,T,,M,1.27,N,2.34,K,D*3F
$GPGGA,210048.000,4651.0355,N,12413.9960,W,2,11,0.76,-4.4,M,-19.2,M,0000,0000*7F
$GPRMC,210048.000,A,4651.0355,N,12413.9960,W,1.25,124.55,120721,,,D*76
$GPVTG,124.55,T,,M,1.25,N,2.32,K,D*3A
$GPGGA,210048.250,4651.0355,N,12413.9959,W,2,11,0.76,-4.4,M,-19.2,M,0000,0000*72
$GPVTG,120.48,T,,M,1.17,N,2.18,K,D*3B
$GPGGA,210048.500,4651.0355,N,12413.9958,W,2,11,0.76,-4.4,M,-19.2,M,0000,0000*71
$GPVTG,117.97,T,,M,1.10,N,2.04,K,D*37
$GPGGA,210048.750,4651.0355,N,12413.9958,W,2,11,0.76,-4.4,M,-19.2,M,0000,0000*76
$GPVTG,117.73,T,,M,0.98,N,1.82,K,D*31
$GPGGA,210049.000,4651.0355,N,12413.9958,W,2,11,0.76,-4.4,M,-19.2,M,0000,0000*75
$GPRMC,210049.000,A,4651.0355,N,12413.9958,W,0.89,118.76,120721,,,D*75
$GPVTG,118.76,T,,M,0.89,N,1.65,K,D*32
$GPGGA,210049.250,4651.0355,N,12413.9958,W,2,11,0.76,-4.4,M,-19.2,M,0000,0000*72
$GPVTG,124.16,T,,M,0.72,N,1.33,K,D*3C
$GPGGA,210049.500,4651.0355,N,12413.9959,W,2,11,0.76,-4.4,M,-19.2,M,0000,0000*71
$GPVTG,133.33,T,,M,0.61,N,1.13,K,D*3D
$GPGGA,210049.750,4651.0354,N,12413.9959,W,2,11,0.76,-4.4,M,-19.2,M,0000,0000*77
$GPVTG,142.70,T,,M,0.62,N,1.15,K,D*39
$GPGGA,210050.000,4651.0354,N,12413.9959,W,2,11,0.76,-4.4,M,-19.2,M,0000,0000*7D
$GPRMC,210050.000,A,4651.0354,N,12413.9959,W,0.61,147.85,120721,,,D*7D
$GPVTG,147.85,T,,M,0.61,N,1.13,K,D*33
$GPGGA,210050.250,4651.0353,N,12413.9959,W,2,11,0.76,-4.4,M,-19.2,M,0000,0000*7D
$GPVTG,154.08,T,,M,0.62,N,1.15,K,D*31
$GPGGA,210050.500,4651.0353,N,12413.9959,W,2,11,0.76,-4.4,M,-19.2,M,0000,0000*7F
$GPVTG,153.90,T,,M,0.63,N,1.16,K,D*35
$GPGGA,210050.750,4651.0352,N,12413.9959,W,2,11,0.76,-4.4,M,-19.2,M,0000,0000*79
$GPVTG,151.05,T,,M,0.66,N,1.22,K,D*39
$GPGGA,210051.000,4651.0352,N,12413.9959,W,2,11,0.76,-4.4,M,-19.2,M,0000,0000*7A
$GPRMC,210051.000,A,4651.0352,N,12413.9959,W,0.65,149.90,120721,,,D*74
$GPVTG,149.90,T,,M,0.65,N,1.21,K,D*3C
$GPGGA,210051.250,4651.0352,N,12413.9959,W,2,11,0.76,-4.4,M,-19.2,M,0000,0000*7D
$GPVTG,148.03,T,,M,0.59,N,1.09,K,D*32
$GPGGA,210051.500,4651.0352,N,12413.9959,W,2,11,0.76,-4.4,M,-19.2,M,0000,0000*7F
$GPVTG,154.55,T,,M,0.44,N,0.82,K,D*32
$GPGGA,210051.750,4651.0352,N,12413.9960,W,2,11,0.76,-4.4,M,-19.2,M,0000,0000*72
$GPVTG,173.52,T,,M,0.34,N,0.62,K,D*39
$GPGGA,210052.000,4651.0352,N,12413.9960,W,2,11,0.76,-4.4,M,-19.2,M,0000,0000*73
$GPRMC,210052.000,A,4651.0352,N,12413.9960,W,0.35,167.88,120721,,,D*7D
$GPVTG,167.88,T,,M,0.35,N,0.64,K,D*3C
$GPGGA,210052.250,4651.0352,N,12413.9960,W,2,11,0.76,-4.4,M,-19.2,M,0000,0000*74
$GPVTG,167.41,T,,M,0.40,N,0.75,K,D*3B
$GPGGA,210052.500,4651.0351,N,12413.9959,W,2,11,0.76,-4.4,M,-19.2,M,0000,0000*7F
$GPVTG,157.27,T,,M,0.46,N,0.84,K,D*30
$GPGGA,210052.750,4651.0350,N,12413.9958,W,2,11,0.76,-4.4,M,-19.2,M,0000,0000*78
$GPVTG,138.84,T,,M,0.71,N,1.32,K,D*38
$GPGGA,210053.000,4651.0350,N,12413.9956,W,2,11,0.76,-4.4,M,-19.2,M,0000,0000*75
$GPRMC,210053.000,A,4651.0350,N,12413.9956,W,0.87,131.07,120721,,,D*76
$GPVTG,131.07,T,,M,0.87,N,1.62,K,D*36
$GPGGA,210053.250,4651.0350,N,12413.9954,W,2,11,0.76,-4.4,M,-19.2,M,0000,0000*70
$GPVTG,124.85,T,,M,1.00,N,1.85,K,D*3F
$GPGGA,210053.500,4651.0349,N,12413.9953,W,2,11,0.76,-4.4,M,-19.2,M,0000,0000*7D
$GPVTG,121.29,T,,M,1.04,N,1.94,K,D*38
$GPGGA,210053.750,4651.0349,N,12413.9952,W,2,11,0.76,-4.4,M,-19.2,M,0000,0000*7B
$GPVTG,122.59,T,,M,0.99,N,1.83,K,D*3F
$GPGGA,210054.000,4651.0348,N,12413.9952,W,2,11,0.76,-4.4,M,-19.2,M,0000,0000*7F
$GPRMC,210054.000,A,4651.0348,N,12413.9952,W,0.97,124.76,120721,,,D*7F
$GPVTG,124.76,T,,M,0.97,N,1.79,K,D*3F
$GPGGA,210054.250,4651.0348,N,12413.9951,W,2,11,0.76,-4.4,M,-19.2,M,0000,0000*7B
$GPVTG,126.60,T,,M,0.88,N,1.62,K,D*3E
$GPGGA,210054.500,4651.0348,N,12413.9951,W,2,11,0.76,-4.4,M,-19.2,M,0000,0000*79
$GPVTG,128.33,T,,M,0.77,N,1.42,K,D*34
$GPGGA,210054.750,4651.0347,N,12413.9951,W,2,11,0.76,-4.4,M,-19.2,M,0000,0000*71
$GPVTG,131.98,T,,M,0.74,N,1.37,K,D*3C
$GPGGA,210055.000,4651.0347,N,12413.9951,W,2,11,0.76,-4.4,M,-19.2,M,0000,0000*72
$GPRMC,210055.000,A,4651.0347,N,12413.9951,W,0.70,138.22,120721,,,D*77
$GPVTG,138.22,T,,M,0.70,N,1.30,K,D*37
$GPGGA,210055.250,4651.0347,N,12413.9951,W,2,11,0.76,-4.4,M,-19.2,M,0000,0000*75
$GPVTG,138.56,T,,M,0.71,N,1.31,K,D*34
$GPGGA,210055.500,4651.0346,N,12413.9950,W,2,11,0.76,-4.4,M,-19.2,M,0000,0000*77
$GPVTG,139.27,T,,M,0.74,N,1.36,K,D*31
$GPGGA,210055.750,4651.0346,N,12413.9951,W,2,11,0.76,-4.4,M,-19.2,M,0000,0000*71
$GPVTG,144.66,T,,M,0.65,N,1.21,K,D*38
$GPGGA,210056.000,4651.0346,N,12413.9951,W,2,11,0.76,-4.4,M,-19.2,M,0000,0000*70
$GPRMC,210056.000,A,4651.0346,N,12413.9951,W,0.64,152.93,120721,,,D*76
$GPVTG,152.93,T,,M,0.64,N,1.19,K,D*3F
$GPGGA,210056.250,4651.0345,N,12413.9952,W,2,11,0.76,-4.4,M,-19.2,M,0000,0000*77
$GPVTG,159.48,T,,M,0.63,N,1.17,K,D*3B
$GPGGA,210056.500,4651.0345,N,12413.9951,W,2,11,0.76,-4.4,M,-19.2,M,0000,0000*76
$GPVTG,158.42,T,,M,0.66,N,1.23,K,D*32
$GPGGA,210056.750,4651.0344,N,12413.9951,W,2,11,0.76,-4.4,M,-19.2,M,0000,0000*70
$GPVTG,155.36,T,,M,0.75,N,1.39,K,D*35
$GPGGA,210057.000,4651.0344,N,12413.9951,W,2,11,0.76,-4.4,M,-19.2,M,0000,0000*73
$GPRMC,210057.000,A,4651.0344,N,12413.9951,W,0.72,156.68,120721,,,D*72
$GPVTG,156.68,T,,M,0.72,N,1.34,K,D*37
$GPGGA,210057.250,4651.0344,N,12413.9951,W,2,11,0.76,-4.4,M,-19.2,M,0000,0000*74
$GPVTG,159.22,T,,M,0.64,N,1.19,K,D*3E
$GPGGA,210057.500,4651.0344,N,12413.9951,W,2,11,0.76,-4.4,M,-19.2,M,0000,0000*76
$GPVTG,163.63,T,,M,0.49,N,0.91,K,D*3C
$GPGGA,210057.750,4651.0344,N,12413.9952,W,2,11,0.76,-4.4,M,-19.2,M,0000,0000*72
$GPVTG,176.24,T,,M,0.40,N,0.74,K,D*39
$GPGGA,210058.000,4651.0344,N,12413.9952,W,2,11,0.76,-4.4,M,-19.2,M,0000,0000*7F
$GPRMC,210058.000,A,4651.0344,N,12413.9952,W,0.39,188.97,120721,,,D*72
$GPVTG,188.97,T,,M,0.39,N,0.72,K,D*38
$GPGGA,210058.250,4651.0343,N,12413.9952,W,2,11,0.76,-4.4,M,-19.2,M,0000,0000*7F
$GPVTG,196.38,T,,M,0.45,N,0.83,K,D*37
$GPGGA,210058.500,4651.0343,N,12413.9952,W,2,11,0.76,-4.4,M,-19.2,M,0000,0000*7D
$GPVTG,186.90,T,,M,0.52,N,0.97,K,D*37
$GPGGA,210058.750,4651.0341,N,12413.9951,W,2,11,0.76,-4.4,M,-19.2,M,0000,0000*7B
$GPVTG,167.94,T,,M,0.67,N,1.25,K,D*32
$GPGGA,210059.000,4651.0341,N,12413.9950,W,2,11,0.76,-4.4,M,-19.2,M,0000,0000*79
$GPRMC,210059.000,A,4651.0341,N,12413.9950,W,0.68,161.66,120721,,,D*79
$GPVTG,161.66,T,,M,0.68,N,1.25,K,D*36
$GPGGA,210059.250,4651.0341,N,12413.9949,W,2,11,0.76,-4.4,M,-19.2,M,0000,0000*76
$GPVTG,145.38,T,,M,0.77,N,1.42,K,D*34
$GPGGA,210059.500,4651.0341,N,12413.9947,W,2,11,0.76,-4.4,M,-19.2,M,0000,0000*7A
$GPVTG,135.20,T,,M,0.89,N,1.66,K,D*3D
$GPGGA,210059.750,4651.0340,N,12413.9946,W,2,11,0.76,-4.4,M,-19.2,M,0000,0000*7D
$GPVTG,129.97,T,,M,0.99,N,1.84,K,D*31
$GPGGA,210100.000,4651.0340,N,12413.9945,W,2,11,0.76,-4.4,M,-19.2,M,0000,0000*71
$GPRMC,210100.000,A,4651.0340,N,12413.9945,W,1.04,125.95,120721,,,D*76
$GPVTG,125.95,T,,M,1.04,N,1.92,K,D*3D
$GPGGA,210100.250,4651.0340,N,12413.9943,W,2,11,0.76,-4.4,M,-19.2,M,0000,0000*70
$GPVTG,121.73,T,,M,1.09,N,2.01,K,D*35
$GPGGA,210100.500,4651.0340,N,12413.9942,W,2,11,0.76,-4.4,M,-19.2,M,0000,0000*73
$GPVTG,117.32,T,,M,1.18,N,2.19,K,D*3C
$GPGGA,210100.750,4651.0340,N,12413.9940,W,2,11,0.76,-4.4,M,-19.2,M,0000,0000*76
$GPVTG,115.30,T,,M,1.27,N,2.36,K,D*3D
$GPGGA,210101.000,4651.0340,N,12413.9939,W,2,11,0.76,-4.4,M,-19.2,M,0000,0000*7B
$GPRMC,210101.000,A,4651.0340,N,12413.9939,W,1.38,114.88,120721,,,D*7D
$GPVTG,114.88,T,,M,1.38,N,2.55,K,D*34
$GPGGA,210101.250,4651.0339,N,12413.9937,W,2,11,0.76,-4.4,M,-19.2,M,0000,0000*7C
$GPVTG,114.99,T,,M,1.44,N,2.68,K,D*31
$GPGGA,210101.500,4651.0339,N,12413.9936,W,2,11,0.76,-4.4,M,-19.2,M,0000,0000*7F
$GPVTG,113.03,T,,M,1.40,N,2.60,K,D*39
$GPGGA,210101.750,4651.0339,N,12413.9935,W,2,11,0.76,-4.4,M,-19.2,M,0000,0000*7B
$GPVTG,106.38,T,,M,1.11,N,2.06,K,D*31
$GPGGA,210102.000,4651.0339,N,12413.9935,W,2,11,0.76,-4.4,M,-19.2,M,0000,0000*7A
$GPRMC,210102.000,A,4651.0339,N,12413.9935,W,0.96,106.05,120721,,,D*7F
$GPVTG,106.05,T,,M,0.96,N,1.78,K,D*3B
$GPGGA,210102.250,4651.0339,N,12413.9935,W,2,11,0.76,-4.4,M,-19.2,M,0000,0000*7D
$GPVTG,112.27,T,,M,0.76,N,1.41,K,D*3A
$GPGGA,210102.500,4651.0339,N,12413.9935,W,2,11,0.76,-4.4,M,-19.2,M,0000,0000*7F
$GPVTG,110.00,T,,M,0.57,N,1.05,K,D*3E
$GPGGA,210102.750,4651.0340,N,12413.9935,W,2,11,0.76,-4.4,M,-19.2,M,0000,0000*76
$GPVTG,101.20,T,,M,0.45,N,0.83,K,D*30
$GPGGA,210103.000,4651.0340,N,12413.9935,W,2,11,0.76,-4.4,M,-19.2,M,0000,0000*75
$GPRMC,210103.000,A,4651.0340,N,12413.9935,W,0.30,95.90,120721,,,D*4B
$GPVTG,95.90,T,,M,0.30,N,0.55,K,D*0E
$GPGGA,210103.250,4651.0341,N,12413.9936,W,2,11,0.76,-4.4,M,-19.2,M,0000,0000*70
$GPVTG,23.63,T,,M,0.15,N,0.28,K,D*02
$GPGGA,210103.500,4651.0341,N,12413.9936,W,2,11,0.76,-4.4,M,-19.2,M,0000,0000*72
$GPVTG,336.59,T,,M,0.26,N,0.48,K,D*3A
$GPGGA,210103.750,4651.0342,N,12413.9937,W,2,11,0.76,-4.4,M,-19.2,M,0000,0000*77
$GPVTG,323.25,T,,M,0.35,N,0.65,K,D*38
$GPGGA,210104.000,4651.0342,N,12413.9937,W,2,11,0.76,-4.4,M,-19.2,M,0000,0000*72
$GPRMC,210104.000,A,4651.0342,N,12413.9937,W,0.42,315.61,120721,,,D*7C
$GPVTG,315.61,T,,M,0.42,N,0.77,K,D*3E
$GPGGA,210104.250,4651.0342,N,12413.9938,W,2,11,0.76,-4.4,M,-19.2,M,0000,0000*7A
$GPVTG,301.80,T,,M,0.54,N,0.99,K,D*33
$GPGGA,210104.500,4651.0343,N,12413.9940,W,2,11,0.76,-4.4,M,-19.2,M,0000,0000*76
$GPVTG,294.62,T,,M,0.67,N,1.25,K,D*34
$GPGGA,210104.750,4651.0343,N,12413.9940,W,2,11,0.76,-4.4,M,-19.2,M,0000,0000*71
$GPVTG,290.38,T,,M,0.69,N,1.28,K,D*3C
$GPGGA,210105.000,4651.0343,N,12413.9940,W,2,11,0.76,-4.4,M,-19.2,M,0000,0000*72
$GPRMC,210105.000,A,4651.0343,N,12413.9940,W,0.63,290.72,120721,,,D*71
$GPVTG,290.72,T,,M,0.63,N,1.17,K,D*34
$GPGGA,210105.250,4651.0343,N,12413.9940,W,2,11,0.76,-4.4,M,-19.2,M,0000,0000*75
$GPVTG,292.66,T,,M,0.46,N,0.85,K,D*3E
$GPGGA,210105.500,4651.0343,N,12413.9939,W,2,11,0.76,-4.4,M,-19.2,M,0000,0000*79
$GPVTG,292.29,T,,M,0.29,N,0.54,K,D*30
$GPGGA,210105.750,4651.0342,N,12413.9938,W,2,11,0.76,-4.4,M,-19.2,M,0000,0000*7E
$GPVTG,228.62,T,,M,0.10,N,0.19,K,D*3D
$GPGGA,210106.000,4651.0341,N,12413.9937,W,2,11,0.76,-4.4,M,-19.2,M,0000,0000*73
$GPRMC,210106.000,A,4651.0341,N,12413.9937,W,0.23,166.04,120721,,,D*7F
$GPVTG,166.04,T,,M,0.23,N,0.43,K,D*3B
$GPGGA,210106.250,4651.0340,N,12413.9936,W,2,11,0.76,-4.4,M,-19.2,M,0000,0000*74
$GPVTG,146.78,T,,M,0.49,N,0.92,K,D*32
$GPGGA,210106.500,4651.0339,N,12413.9935,W,2,11,0.76,-4.4,M,-19.2,M,0000,0000*7B
$GPVTG,142.45,T,,M,0.60,N,1.11,K,D*39
$GPGGA,210106.750,4651.0339,N,12413.9934,W,2,11,0.76,-4.4,M,-19.2,M,0000,0000*7D
$GPVTG,139.69,T,,M,0.69,N,1.28,K,D*38
$GPGGA,210107.000,4651.0338,N,12413.9933,W,2,11,0.76,-4.4,M,-19.2,M,0000,0000*78
$GPRMC,210107.000,A,4651.0338,N,12413.9933,W,0.79,140.84,120721,,,D*77
$GPVTG,140.84,T,,M,0.79,N,1.46,K,D*3C
$GPGGA,210107.250,4651.0337,N,12413.9932,W,2,11,0.76,-4.4,M,-19.2,M,0000,0000*71
$GPVTG,136.21,T,,M,0.99,N,1.84,K,D*32
$GPGGA,210107.500,4651.0335,N,12413.9930,W,2,11,0.76,-4.4,M,-19.2,M,0000,0000*73
$GPVTG,132.61,T,,M,1.22,N,2.26,K,D*38
$GPGGA,210107.750,4651.0335,N,12413.9927,W,2,11,0.76,-4.4,M,-19.2,M,0000,0000*72
$GPVTG,126.23,T,,M,1.45,N,2.68,K,D*30
$GPGGA,210108.000,4651.0335,N,12413.9925,W,2,11,0.76,-4.4,M,-19.2,M,0000,0000*7D
$GPRMC,210108.000,A,4651.0335,N,12413.9925,W,1.66,114.66,120721,,,D*70
$GPVTG,114.66,T,,M,1.66,N,3.07,K,D*39
$GPGGA,210108.250,4651.0335,N,12413.9924,W,2,11,0.76,-4.4,M,-19.2,M,0000,0000*7B
$GPVTG,98.26,T,,M,1.30,N,2.41,K,D*08
$GPGGA,210108.500,4651.0335,N,12413.9924,W,2,11,0.76,-4.4,M,-19.2,M,0000,0000*79
$GPVTG,93.23,T,,M,0.86,N,1.60,K,D*0A
$GPGGA,210108.750,4651.0335,N,12413.9924,W,2,11,0.76,-4.4,M,-19.2,M,0000,0000*7E
$GPVTG,90.51,T,,M,0.61,N,1.13,K,D*01
$GPGGA,210109.000,4651.0335,N,12413.9923,W,2,11,0.76,-4.4,M,-19.2,M,0000,0000*7A
$GPRMC,210109.000,A,4651.0335,N,12413.9923,W,0.47,87.23,120721,,,D*4F
$GPVTG,87.23,T,,M,0.47,N,0.88,K,D*05
$GPGGA,210109.250,4651.0336,N,12413.9923,W,2,11,0.76,-4.4,M,-19.2,M,0000,0000*7E
$GPVTG,79.60,T,,M,0.37,N,0.68,K,D*0A
$GPGGA,210109.500,4651.0336,N,12413.9923,W,2,11,0.76,-4.4,M,-19.2,M,0000,0000*7C
$GPVTG,76.41,T,,M,0.32,N,0.60,K,D*0B
$GPGGA,210109.750,4651.0336,N,12413.9923,W,2,11,0.76,-4.4,M,-19.2,M,0000,0000*7B
$GPVTG,51.05,T,,M,0.23,N,0.43,K,D*0F
$GPGGA,210110.000,4651.0336,N,12413.9923,W,2,11,0.76,-4.4,M,-19.2,M,0000,0000*71
$GPRMC,210110.000,A,4651.0336,N,12413.9923,W,0.16,36.86,120721,,,D*45
$GPVTG,36.86,T,,M,0.16,N,0.29,K,D*0F
$GPGGA,210110.250,4651.0336,N,12413.9924,W,2,11,0.76,-4.4,M,-19.2,M,0000,0000*71
$GPVTG,11.42,T,,M,0.16,N,0.29,K,D*02
$GPGGA,210110.500,4651.0336,N,12413.9924,W,2,11,0.77,-4.4,M,-19.2,M,0000,0000*72
$GPVTG,1.27,T,,M,0.13,N,0.25,K,D*39
$GPGGA,210110.750,4651.0336,N,12413.9923,W,2,11,0.77,-4.4,M,-19.2,M,0000,0000*72
$GPVTG,41.92,T,,M,0.13,N,0.23,K,D*05
$GPGGA,210111.000,4651.0335,N,12413.9923,W,2,11,0.76,-4.4,M,-19.2,M,0000,0000*73
$GPRMC,210111.000,A,4651.0335,N,12413.9923,W,0.17,83.98,120721,,,D*47
$GPVTG,83.98,T,,M,0.17,N,0.32,K,D*05
$GPGGA,210111.250,4651.0335,N,12413.9922,W,2,11,0.76,-4.4,M,-19.2,M,0000,0000*75
$GPVTG,108.30,T,,M,0.31,N,0.58,K,D*3D
$GPGGA,210111.500,4651.0334,N,12413.9922,W,2,11,0.76,-4.4,M,-19.2,M,0000,0000*76
$GPVTG,121.54,T,,M,0.42,N,0.77,K,D*3D
$GPGGA,210111.750,4651.0333,N,12413.9922,W,2,11,0.76,-4.4,M,-19.2,M,0000,0000*76
$GPVTG,135.13,T,,M,0.42,N,0.78,K,D*34
$GPGGA,210112.000,4651.0332,N,12413.9922,W,2,11,0.76,-4.4,M,-19.2,M,0000,0000*76
$GPRMC,210112.000,A,4651.0332,N,12413.9922,W,0.44,141.44,120721,,,D*7A
$GPVTG,141.44,T,,M,0.44,N,0.82,K,D*36
$GPGGA,210112.250,4651.0331,N,12413.9922,W,2,11,0.76,-4.4,M,-19.2,M,0000,0000*72
$GPVTG,153.91,T,,M,0.49,N,0.91,K,D*32
$GPGGA,210112.500,4651.0331,N,12413.9922,W,2,11,0.76,-4.4,M,-19.2,M,0000,0000*70
$GPVTG,154.82,T,,M,0.55,N,1.02,K,D*31
$GPGGA,210112.750,4651.0331,N,12413.9922,W,2,11,0.76,-4.4,M,-19.2,M,0000,0000*77
$GPVTG,148.04,T,,M,0.60,N,1.10,K,D*37
$GPGGA,210113.000,4651.0330,N,12413.9921,W,2,11,0.76,-4.4,M,-19.2,M,0000,0000*76
$GPRMC,210113.000,A,4651.0330,N,12413.9921,W,0.63,147.21,120721,,,D*7A
$GPVTG,147.21,T,,M,0.63,N,1.17,K,D*3B
$GPGGA,210113.250,4651.0329,N,12413.9921,W,2,11,0.76,-4.4,M,-19.2,M,0000,0000*79
$GPVTG,148.47,T,,M,0.65,N,1.20,K,D*36
$GPGGA,210113.500,4651.0329,N,12413.9921,W,2,11,0.76,-4.4,M,-19.2,M,0000,0000*7B
$GPVTG,150.46,T,,M,0.65,N,1.20,K,D*3E
$GPGGA,210113.750,4651.0328,N,12413.9921,W,2,11,0.76,-4.4,M,-19.2,M,0000,0000*7D
$GPVTG,147.21,T,,M,0.66,N,1.23,K,D*39
$GPGGA,210114.000,4651.0328,N,12413.9921,W,2,11,0.76,-4.4,M,-19.2,M,0000,0000*78
$GPRMC,210114.000,A,4651.0328,N,12413.9921,W,0.67,150.04,120721,,,D*71
$GPVTG,150.04,T,,M,0.67,N,1.23,K,D*39
$GPGGA,210114.250,4651.0327,N,12413.9921,W,2,11,0.76,-4.4,M,-19.2,M,0000,0000*70
$GPVTG,151.62,T,,M,0.65,N,1.20,K,D*39
$GPGGA,210114.500,4651.0327,N,12413.9921,W,2,11,0.76,-4.4,M,-19.2,M,0000,0000*72
$GPVTG,155.93,T,,M,0.60,N,1.12,K,D*37
$GPGGA,210114.750,4651.0327,N,12413.9921,W,2,11,0.76,-4.4,M,-19.2,M,0000,0000*75
$GPVTG,158.83,T,,M,0.51,N,0.95,K,D*37
$GPGGA,210115.000,4651.0327,N,12413.9921,W,2,11,0.76,-4.4,M,-19.2,M,0000,0000*76
$GPRMC,210115.000,A,4651.0327,N,12413.9921,W,0.45,152.42,120721,,,D*7F
$GPVTG,152.42,T,,M,0.45,N,0.83,K,D*32
$GPGGA,210115.250,4651.0328,N,12413.9920,W,2,11,0.76,-4.3,M,-19.2,M,0000,0000*78
$GPVTG,140.02,T,,M,0.38,N,0.70,K,D*33
$GPGGA,210115.500,4651.0328,N,12413.9920,W,2,11,0.76,-4.3,M,-19.2,M,0000,0000*7A
$GPVTG,138.15,T,,M,0.34,N,0.62,K,D*35
$GPGGA,210115.750,4651.0328,N,12413.9920,W,2,11,0.76,-4.3,M,-19.2,M,0000,0000*7D
$GPVTG,141.30,T,,M,0.32,N,0.60,K,D*38
$GPGGA,210116.000,4651.0328,N,12413.9920,W,2,11,0.76,-4.3,M,-19.2,M,0000,0000*7C
$GPRMC,210116.000,A,4651.0328,N,12413.9920,W,0.31,144.37,120721,,,D*74
$GPVTG,144.37,T,,M,0.31,N,0.58,K,D*32
$GPGGA,210116.250,4651.0327,N,12413.9920,W,2,11,0.76,-4.3,M,-19.2,M,0000,0000*74
$GPVTG,146.32,T,,M,0.31,N,0.57,K,D*3A
$GPGGA,210116.500,4651.0328,N,12413.9919,W,2,11,0.76,-4.3,M,-19.2,M,0000,0000*73
$GPVTG,137.22,T,,M,0.30,N,0.55,K,D*3E
$GPGGA,210116.750,4651.0328,N,12413.9918,W,2,11,0.76,-4.3,M,-19.2,M,0000,0000*75
$GPVTG,125.26,T,,M,0.33,N,0.61,K,D*3D
$GPGGA,210117.000,4651.0328,N,12413.9917,W,2,11,0.76,-4.3,M,-19.2,M,0000,0000*79
$GPRMC,210117.000,A,4651.0328,N,12413.9917,W,0.36,121.68,120721,,,D*7F
$GPVTG,121.68,T,,M,0.36,N,0.67,K,D*30
$GPGGA,210117.250,4651.0328,N,12413.9916,W,2,11,0.76,-4.3,M,-19.2,M,0000,0000*7F
$GPVTG,116.51,T,,M,0.47,N,0.87,K,D*36
$GPGGA,210117.500,4651.0327,N,12413.9915,W,2,11,0.76,-4.3,M,-19.2,M,0000,0000*71
$GPVTG,116.63,T,,M,0.66,N,1.22,K,D*3A
$GPGGA,210117.750,4651.0326,N,12413.9913,W,2,11,0.76,-4.3,M,-19.2,M,0000,0000*71
$GPVTG,117.02,T,,M,0.89,N,1.64,K,D*3F
$GPGGA,210118.000,4651.0325,N,12413.9910,W,2,11,0.76,-4.3,M,-19.2,M,0000,0000*7C
$GPRMC,210118.000,A,4651.0325,N,12413.9910,W,1.11,117.75,120721,,,D*77
$GPVTG,117.75,T,,M,1.11,N,2.06,K,D*38
$GPGGA,210118.250,4651.0324,N,12413.9908,W,2,11,0.76,-4.3,M,-19.2,M,0000,0000*73
$GPVTG,118.33,T,,M,1.33,N,2.46,K,D*31
$GPGGA,210118.500,4651.0322,N,12413.9906,W,2,11,0.76,-4.3,M,-19.2,M,0000,0000*79
$GPVTG,120.46,T,,M,1.55,N,2.87,K,D*35
$GPGGA,210118.750,4651.0321,N,12413.9905,W,2,11,0.76,-4.3,M,-19.2,M,0000,0000*7E
$GPVTG,124.70,T,,M,1.76,N,3.25,K,D*3C
$GPGGA,210119.000,4651.0321,N,12413.9904,W,2,11,0.76,-4.3,M,-19.2,M,0000,0000*7C
$GPRMC,210119.000,A,4651.0321,N,12413.9904,W,1.27,125.79,120721,,,D*7F
$GPVTG,125.79,T,,M,1.27,N,2.36,K,D*33
$GPGGA,210119.250,4651.0321,N,12413.9904,W,2,11,0.76,-4.3,M,-19.2,M,0000,0000*7B
$GPVTG,128.55,T,,M,0.68,N,1.26,K,D*38
$GPGGA,210119.500,4651.0321,N,12413.9905,W,2,11,0.76,-4.3,M,-19.2,M,0000,0000*78
$GPVTG,155.26,T,,M,0.32,N,0.60,K,D*3A
$GPGGA,210119.750,4651.0321,N,12413.9905,W,2,11,0.76,-4.3,M,-19.2,M,0000,0000*7F
$GPVTG,171.15,T,,M,0.19,N,0.34,K,D*34
$GPGGA,210120.000,4651.0321,N,12413.9906,W,2,11,0.76,-4.3,M,-19.2,M,0000,0000*74
$GPRMC,210120.000,A,4651.0321,N,12413.9906,W,0.17,192.02,120721,,,D*75
$GPVTG,192.02,T,,M,0.17,N,0.31,K,D*34
$GPGGA,210120.250,4651.0321,N,12413.9906,W,2,11,0.76,-4.3,M,-19.2,M,0000,0000*73
$GPVTG,215.84,T,,M,0.14,N,0.26,K,D*33
$GPGGA,210120.500,4651.0321,N,12413.9906,W,2,11,0.76,-4.3,M,-19.2,M,0000,0000*71
$GPVTG,255.78,T,,M,0.13,N,0.24,K,D*31
$GPGGA,210120.750,4651.0321,N,12413.9906,W,2,11,0.76,-4.3,M,-19.2,M,0000,0000*76
$GPVTG,270.60,T,,M,0.07,N,0.13,K,D*3E
$GPGGA,210121.000,4651.0321,N,12413.9906,W,2,11,0.76,-4.3,M,-19.2,M,0000,0000*75
$GPRMC,210121.000,A,4651.0321,N,12413.9906,W,0.02,41.55,120721,,,D*4D
$GPVTG,41.55,T,,M,0.02,N,0.04,K,D*0B
$GPGGA,210121.250,4651.0321,N,12413.9905,W,2,11,0.76,-4.3,M,-19.2,M,0000,0000*71
$GPVTG,103.75,T,,M,0.12,N,0.23,K,D*3A
$GPGGA,210121.500,4651.0321,N,12413.9905,W,2,11,0.76,-4.3,M,-19.2,M,0000,0000*73
$GPVTG,126.18,T,,M,0.24,N,0.44,K,D*32
$GPGGA,210121.750,4651.0320,N,12413.9904,W,2,11,0.76,-4.3,M,-19.2,M,0000,0000*74
$GPVTG,139.46,T,,M,0.35,N,0.64,K,D*35
$GPGGA,210122.000,4651.0319,N,12413.9904,W,2,11,0.76,-4.3,M,-19.2,M,0000,0000*7F
$GPRMC,210122.000,A,4651.0319,N,12413.9904,W,0.37,143.63,120721,,,D*77
$GPVTG,143.63,T,,M,0.37,N,0.69,K,D*30
$GPGGA,210122.250,4651.0319,N,12413.9904,W,2,11,0.76,-4.3,M,-19.2,M,0000,0000*78
$GPVTG,145.37,T,,M,0.36,N,0.67,K,D*38
$GPGGA,210122.500,4651.0319,N,12413.9903,W,2,11,0.76,-4.3,M,-19.2,M,0000,0000*7D
$GPVTG,145.56,T,,M,0.42,N,0.77,K,D*3D
$GPGGA,210122.750,4651.0318,N,12413.9902,W,2,11,0.76,-4.3,M,-19.2,M,0000,0000*7A
$GPVTG,136.00,T,,M,0.53,N,0.98,K,D*3B
$GPGGA,210123.000,4651.0318,N,12413.9902,W,2,11,0.76,-4.3,M,-19.2,M,0000,0000*79
$GPRMC,210123.000,A,4651.0318,N,12413.9902,W,0.56,138.08,120721,,,D*77
$GPVTG,138.08,T,,M,0.56,N,1.03,K,D*3B
$GPGGA,210123.250,4651.0318,N,12413.9902,W,2,11,0.76,-4.3,M,-19.2,M,0000,0000*7E
$GPVTG,147.25,T,,M,0.55,N,1.02,K,D*3E
$GPGGA,210123.500,4651.0317,N,12413.9901,W,2,11,0.76,-4.3,M,-19.2,M,0000,0000*70
$GPVTG,158.35,T,,M,0.57,N,1.06,K,D*37
$GPGGA,210123.750,4651.0317,N,12413.9901,W,2,11,0.76,-4.3,M,-19.2,M,0000,0000*77
$GPVTG,163.37,T,,M,0.64,N,1.18,K,D*32
$GPGGA,210124.000,4651.0317,N,12413.9901,W,2,11,0.76,-4.3,M,-19.2,M,0000,0000*72
$GPRMC,210124.000,A,4651.0317,N,12413.9901,W,0.67,161.57,120721,,,D*78
$GPVTG,161.57,T,,M,0.67,N,1.24,K,D*3A
$GPGGA,210124.250,4651.0316,N,12413.9900,W,2,11,0.76,-4.3,M,-19.2,M,0000,0000*75
$GPVTG,153.10,T,,M,0.71,N,1.31,K,D*3B
$GPGGA,210124.500,4651.0316,N,12413.9899,W,2,11,0.76,-4.3,M,-19.2,M,0000,0000*76
$GPVTG,144.88,T,,M,0.76,N,1.40,K,D*3D
$GPGGA,210124.750,4651.0316,N,12413.9898,W,2,11,0.76,-4.4,M,-19.2,M,0000,0000*77
$GPVTG,139.14,T,,M,0.77,N,1.44,K,D*37
$GPGGA,210125.000,4651.0316,N,12413.9897,W,2,11,0.76,-4.4,M,-19.2,M,0000,0000*7B
$GPRMC,210125.000,A,4651.0316,N,12413.9897,W,0.75,136.60,120721,,,D*73
$GPVTG,136.60,T,,M,0.75,N,1.38,K,D*32
$GPGGA,210125.250,4651.0316,N,12413.9897,W,2,11,0.76,-4.4,M,-19.2,M,0000,0000*7C
$GPVTG,136.02,T,,M,0.68,N,1.26,K,D*35
$GPGGA,210125.500,4651.0316,N,12413.9897,W,2,11,0.76,-4.4,M,-19.2,M,0000,0000*7E
$GPVTG,140.42,T,,M,0.50,N,0.93,K,D*34
$GPGGA,210125.750,4651.0316,N,12413.9898,W,2,11,0.76,-4.4,M,-19.2,M,0000,0000*76
$GPVTG,150.57,T,,M,0.34,N,0.63,K,D*3C
$GPGGA,210126.000,4651.0317,N,12413.9899,W,2,11,0.76,-4.4,M,-19.2,M,0000,0000*77
$GPRMC,210126.000,A,4651.0317,N,12413.9899,W,0.18,162.24,120721,,,D*75
$GPVTG,162.24,T,,M,0.18,N,0.33,K,D*32
$GPGGA,210126.250,4651.0317,N,12413.9899,W,2,11,0.76,-4.4,M,-19.2,M,0000,0000*70
$GPVTG,157.57,T,,M,0.10,N,0.18,K,D*31
$GPGGA,210126.500,4651.0317,N,12413.9898,W,2,11,0.76,-4.4,M,-19.2,M,0000,0000*73
$GPVTG,141.08,T,,M,0.07,N,0.13,K,D*31
$GPGGA,210126.750,4651.0318,N,12413.9898,W,2,11,0.76,-4.4,M,-19.2,M,0000,0000*7B
$GPVTG,105.72,T,,M,0.13,N,0.25,K,D*3C
$GPGGA,210127.000,4651.0317,N,12413.9898,W,2,11,0.76,-4.4,M,-19.2,M,0000,0000*77
$GPRMC,210127.000,A,4651.0317,N,12413.9898,W,0.20,107.32,120721,,,D*7A
$GPVTG,107.32,T,,M,0.20,N,0.37,K,D*39
$GPGGA,210127.250,4651.0317,N,12413.9897,W,2,11,0.76,-4.4,M,-19.2,M,0000,0000*7F
$GPVTG,115.46,T,,M,0.30,N,0.55,K,D*3C
$GPGGA,210127.500,4651.0316,N,12413.9897,W,2,11,0.76,-4.4,M,-19.2,M,0000,0000*7C
$GPVTG,126.11,T,,M,0.39,N,0.71,K,D*31
$GPGGA,210127.750,4651.0316,N,12413.9896,W,2,11,0.76,-4.4,M,-19.2,M,0000,0000*7A
$GPVTG,123.24,T,,M,0.48,N,0.89,K,D*33
$GPGGA,210128.000,4651.0315,N,12413.9895,W,2,11,0.76,-4.4,M,-19.2,M,0000,0000*77
$GPRMC,210128.000,A,4651.0315,N,12413.9895,W,0.65,119.16,120721,,,D*72
$GPVTG,119.16,T,,M,0.65,N,1.20,K,D*36
$GPGGA,210128.250,4651.0315,N,12413.9894,W,2,11,0.76,-4.4,M,-19.2,M,0000,0000*71
$GPVTG,122.25,T,,M,0.79,N,1.46,K,D*33
$GPGGA,210128.500,4651.0314,N,12413.9893,W,2,11,0.76,-4.4,M,-19.2,M,0000,0000*75
$GPVTG,124.02,T,,M,0.86,N,1.60,K,D*34
$GPGGA,210128.750,4651.0314,N,12413.9893,W,2,11,0.76,-4.4,M,-19.2,M,0000,0000*72
$GPVTG,123.16,T,,M,0.87,N,1.60,K,D*37
$GPGGA,210129.000,4651.0313,N,12413.9892,W,2,11,0.76,-4.4,M,-19.2,M,0000,0000*77
$GPRMC,210129.000,A,4651.0313,N,12413.9892,W,0.90,124.46,120721,,,D*73
$GPVTG,124.46,T,,M,0.90,N,1.66,K,D*35
$GPGGA,210129.250,4651.0313,N,12413.9891,W,2,11,0.76,-4.4,M,-19.2,M,0000,0000*73
$GPVTG,124.84,T,,M,0.95,N,1.76,K,D*3F
$GPGGA,210129.500,4651.0312,N,12413.9890,W,2,11,0.76,-4.4,M,-19.2,M,0000,0000*71
$GPVTG,126.51,T,,M,1.07,N,1.98,K,D*3F
$GPGGA,210129.750,4651.0311,N,12413.9889,W,2,11,0.76,-4.5,M,-19.2,M,0000,0000*7C
$GPVTG,125.72,T,,M,1.16,N,2.16,K,D*38
$GPGGA,210130.000,4651.0311,N,12413.9888,W,2,11,0.76,-4.5,M,-19.2,M,0000,0000*77
$GPRMC,210130.000,A,4651.0311,N,12413.9888,W,1.22,125.48,120721,,,D*75
$GPVTG,125.48,T,,M,1.22,N,2.26,K,D*35
$GPGGA,210130.250,4651.0310,N,12413.9888,W,2,11,0.76,-4.5,M,-19.2,M,0000,0000*71
$GPVTG,127.17,T,,M,1.25,N,2.32,K,D*3F
$GPGGA,210130.500,4651.0310,N,12413.9887,W,2,11,0.76,-4.5,M,-19.2,M,0000,0000*7C
$GPVTG,127.03,T,,M,1.25,N,2.31,K,D*39
$GPGGA,210130.750,4651.0310,N,12413.9887,W,2,11,0.76,-4.5,M,-19.2,M,0000,0000*7B
$GPVTG,126.53,T,,M,1.15,N,2.14,K,D*39
$GPGGA,210131.000,4651.0310,N,12413.9887,W,2,11,0.76,-4.5,M,-19.2,M,0000,0000*78
$GPRMC,210131.000,A,4651.0310,N,12413.9887,W,1.00,125.40,120721,,,D*72
$GPVTG,125.40,T,,M,1.00,N,1.84,K,D*36
$GPGGA,210131.250,4651.0310,N,12413.9887,W,2,11,0.76,-4.5,M,-19.2,M,0000,0000*7F
$GPVTG,124.95,T,,M,0.79,N,1.47,K,D*3F
$GPGGA,210131.500,4651.0311,N,12413.9888,W,2,11,0.76,-4.5,M,-19.2,M,0000,0000*73
$GPVTG,128.92,T,,M,0.57,N,1.06,K,D*3D
$GPGGA,210131.750,4651.0311,N,12413.9888,W,2,11,0.76,-4.5,M,-19.2,M,0000,0000*74
$GPVTG,129.17,T,,M,0.47,N,0.88,K,D*37
$GPGGA,210132.000,4651.0311,N,12413.9888,W,2,11,0.76,-4.5,M,-19.2,M,0000,0000*75
$GPRMC,210132.000,A,4651.0311,N,12413.9888,W,0.46,125.73,120721,,,D*7C
$GPVTG,125.73,T,,M,0.46,N,0.86,K,D*36
$GPGGA,210132.250,4651.0311,N,12413.9888,W,2,11,0.76,-4.5,M,-19.2,M,0000,0000*72
$GPVTG,121.11,T,,M,0.38,N,0.71,K,D*37
$GPGGA,210132.500,4651.0312,N,12413.9889,W,2,11,0.76,-4.5,M,-19.2,M,0000,0000*72
$GPVTG,107.60,T,,M,0.17,N,0.32,K,D*3F
$GPGGA,210132.750,4651.0312,N,12413.9889,W,2,11,0.76,-4.5,M,-19.2,M,0000,0000*75
$GPVTG,101.23,T,,M,0.14,N,0.26,K,D*38
$GPGGA,210133.000,4651.0312,N,12413.9889,W,2,11,0.76,-4.5,M,-19.2,M,0000,0000*76
$GPRMC,210133.000,A,4651.0312,N,12413.9889,W,0.14,96.50,120721,,,D*40
$GPVTG,96.50,T,,M,0.14,N,0.25,K,D*00
$GPGGA,210133.250,4651.0312,N,12413.9889,W,2,11,0.76,-4.5,M,-19.2,M,0000,0000*71
$GPVTG,93.51,T,,M,0.13,N,0.25,K,D*03
$GPGGA,210133.500,4651.0312,N,12413.9889,W,2,11,0.76,-4.6,M,-19.2,M,0000,0000*70
$GPVTG,69.74,T,,M,0.08,N,0.14,K,D*09
$GPGGA,210133.750,4651.0312,N,12413.9890,W,2,11,0.76,-4.6,M,-19.2,M,0000,0000*7F
$GPVTG,313.77,T,,M,0.15,N,0.28,K,D*37
$GPGGA,210134.000,4651.0312,N,12413.9891,W,2,11,0.76,-4.6,M,-19.2,M,0000,0000*7B
$GPRMC,210134.000,A,4651.0312,N,12413.9891,W,0.20,303.78,120721,,,D*7C
$GPVTG,303.78,T,,M,0.20,N,0.37,K,D*31
$GPGGA,210134.250,4651.0312,N,12413.9891,W,2,11,0.76,-4.6,M,-19.2,M,0000,0000*7C
$GPVTG,305.14,T,,M,0.25,N,0.46,K,D*3E
$GPGGA,210134.500,4651.0312,N,12413.9891,W,2,11,0.76,-4.6,M,-19.2,M,0000,0000*7E
$GPVTG,307.49,T,,M,0.20,N,0.37,K,D*37
$GPGGA,210134.750,4651.0312,N,12413.9891,W,2,11,0.76,-4.6,M,-19.2,M,0000,0000*79
$GPVTG,307.14,T,,M,0.12,N,0.22,K,D*3A
$GPGGA,210135.000,4651.0312,N,12413.9891,W,2,11,0.76,-4.6,M,-19.2,M,0000,0000*7A
$GPRMC,210135.000,A,4651.0312,N,12413.9891,W,0.06,321.58,120721,,,D*7B
$GPVTG,321.58,T,,M,0.06,N,0.11,K,D*33
$GPGGA,210135.250,4651.0312,N,12413.9891,W,2,11,0.76,-4.6,M,-19.2,M,0000,0000*7D
$GPVTG,90.00,T,,M,0.02,N,0.04,K,D*07
$GPGGA,210135.500,4651.0312,N,12413.9891,W,2,11,0.76,-4.6,M,-19.2,M,0000,0000*7F
$GPVTG,133.96,T,,M,0.17,N,0.32,K,D*31
$GPGGA,210135.750,4651.0312,N,12413.9891,W,2,11,0.76,-4.6,M,-19.2,M,0000,0000*78
$GPVTG,132.95,T,,M,0.34,N,0.62,K,D*37
$GPGGA,210136.000,4651.0312,N,12413.9891,W,2,11,0.76,-4.6,M,-19.2,M,0000,0000*79
$GPRMC,210136.000,A,4651.0312,N,12413.9891,W,0.48,128.24,120721,,,D*72
$GPVTG,128.24,T,,M,0.48,N,0.90,K,D*30
$GPGGA,210136.250,4651.0312,N,12413.9890,W,2,11,0.76,-4.6,M,-19.2,M,0000,0000*7F
$GPVTG,128.41,T,,M,0.64,N,1.18,K,D*3C
$GPGGA,210136.500,4651.0311,N,12413.9888,W,2,11,0.76,-4.6,M,-19.2,M,0000,0000*77
$GPVTG,125.14,T,,M,0.88,N,1.63,K,D*3F
$GPGGA,210136.750,4651.0310,N,12413.9886,W,2,11,0.76,-4.6,M,-19.2,M,0000,0000*7F
$GPVTG,121.13,T,,M,1.13,N,2.09,K,D*30
$GPGGA,210137.000,4651.0310,N,12413.9885,W,2,11,0.76,-4.6,M,-19.2,M,0000,0000*7F
$GPRMC,210137.000,A,4651.0310,N,12413.9885,W,1.14,113.42,120721,,,D*74
$GPVTG,113.42,T,,M,1.14,N,2.11,K,D*3B
$GPGGA,210137.250,4651.0309,N,12413.9883,W,2,11,0.76,-4.6,M,-19.2,M,0000,0000*76
$GPVTG,110.27,T,,M,1.22,N,2.27,K,D*3B
$GPGGA,210137.500,4651.0309,N,12413.9882,W,2,11,0.76,-4.6,M,-19.2,M,0000,0000*75
$GPVTG,110.21,T,,M,1.22,N,2.26,K,D*3C
$GPGGA,210137.750,4651.0308,N,12413.9881,W,2,11,0.76,-4.7,M,-19.2,M,0000,0000*71
$GPVTG,111.93,T,,M,1.17,N,2.17,K,D*30
$GPGGA,210138.000,4651.0308,N,12413.9881,W,2,11,0.76,-4.7,M,-19.2,M,0000,0000*7C
$GPRMC,210138.000,A,4651.0308,N,12413.9881,W,1.05,115.49,120721,,,D*7B
$GPVTG,115.49,T,,M,1.05,N,1.94,K,D*38
$GPGGA,210138.250,4651.0307,N,12413.9881,W,2,11,0.76,-4.7,M,-19.2,M,0000,0000*74
$GPVTG,119.10,T,,M,0.87,N,1.61,K,D*39
$GPGGA,210138.500,4651.0308,N,12413.9882,W,2,11,0.76,-4.7,M,-19.2,M,0000,0000*7A
$GPVTG,122.73,T,,M,0.64,N,1.19,K,D*36
$GPGGA,210138.750,4651.0308,N,12413.9882,W,2,11,0.76,-4.8,M,-19.2,M,0000,0000*72
$GPVTG,121.53,T,,M,0.48,N,0.89,K,D*31
$GPGGA,210139.000,4651.0308,N,12413.9883,W,2,11,0.76,-4.8,M,-19.2,M,0000,0000*70
$GPRMC,210139.000,A,4651.0308,N,12413.9883,W,0.37,114.69,120721,,,D*7B
$GPVTG,114.69,T,,M,0.37,N,0.69,K,D*38
$GPGGA,210139.250,4651.0308,N,12413.9882,W,2,11,0.76,-4.8,M,-19.2,M,0000,0000*76
$GPVTG,104.90,T,,M,0.32,N,0.59,K,D*39
$GPGGA,210139.500,4651.0308,N,12413.9882,W,2,11,0.76,-4.8,M,-19.2,M,0000,0000*74
$GPVTG,106.58,T,,M,0.28,N,0.53,K,D*3E
$GPGGA,210139.750,4651.0307,N,12413.9883,W,2,11,0.76,-4.8,M,-19.2,M,0000,0000*7D
$GPVTG,134.76,T,,M,0.24,N,0.45,K,D*38
$GPGGA,210140.000,4651.0307,N,12413.9883,W,2,11,0.76,-4.8,M,-19.2,M,0000,0000*71
$GPRMC,210140.000,A,4651.0307,N,12413.9883,W,0.23,148.38,120721,,,D*72
$GPVTG,148.38,T,,M,0.23,N,0.43,K,D*38
$GPGGA,210140.250,4651.0307,N,12413.9883,W,2,11,0.76,-4.8,M,-19.2,M,0000,0000*76
$GPVTG,160.77,T,,M,0.22,N,0.40,K,D*3B
$GPGGA,210140.500,4651.0306,N,12413.9882,W,2,11,0.76,-4.8,M,-19.2,M,0000,0000*74
$GPVTG,155.27,T,,M,0.29,N,0.53,K,D*31
$GPGGA,210140.750,4651.0305,N,12413.9881,W,2,11,0.76,-4.8,M,-19.2,M,0000,0000*73
$GPVTG,156.83,T,,M,0.43,N,0.80,K,D*3E
$GPGGA,210141.000,4651.0304,N,12413.9880,W,2,11,0.76,-4.8,M,-19.2,M,0000,0000*70
$GPRMC,210141.000,A,4651.0304,N,12413.9880,W,0.49,153.98,120721,,,D*7F
$GPVTG,153.98,T,,M,0.49,N,0.91,K,D*3B
$GPGGA,210141.250,4651.0304,N,12413.9879,W,2,11,0.76,-4.8,M,-19.2,M,0000,0000*71
$GPVTG,145.10,T,,M,0.55,N,1.02,K,D*3A
$GPGGA,210141.500,4651.0303,N,12413.9877,W,2,11,0.76,-4.8,M,-19.2,M,0000,0000*7A
$GPVTG,133.50,T,,M,0.71,N,1.32,K,D*3A
$GPGGA,210141.750,4651.0302,N,12413.9875,W,2,11,0.76,-4.8,M,-19.2,M,0000,0000*7E
$GPVTG,127.94,T,,M,0.87,N,1.61,K,D*38
$GPGGA,210142.000,4651.0301,N,12413.9874,W,2,11,0.76,-4.8,M,-19.2,M,0000,0000*7D
$GPRMC,210142.000,A,4651.0301,N,12413.9874,W,0.91,126.74,120721,,,D*77
$GPVTG,126.74,T,,M,0.91,N,1.69,K,D*38
$GPGGA,210142.250,4651.0300,N,12413.9873,W,2,11,0.76,-4.8,M,-19.2,M,0000,0000*7C
$GPVTG,124.75,T,,M,0.94,N,1.74,K,D*32
$GPGGA,210142.500,4651.0300,N,12413.9872,W,2,11,0.76,-4.8,M,-19.2,M,0000,0000*7F
$GPVTG,125.00,T,,M,0.96,N,1.77,K,D*30
$GPGGA,210142.750,4651.0299,N,12413.9870,W,2,11,0.76,-4.8,M,-19.2,M,0000,0000*7B
$GPVTG,122.61,T,,M,1.00,N,1.86,K,D*30
$GPGGA,210143.000,4651.0299,N,12413.9869,W,2,11,0.76,-4.8,M,-19.2,M,0000,0000*70
$GPRMC,210143.000,A,4651.0299,N,12413.9869,W,1.00,119.25,120721,,,D*7B
$GPVTG,119.25,T,,M,1.00,N,1.84,K,D*3A
$GPGGA,210143.250,4651.0299,N,12413.9868,W,2,11,0.76,-4.8,M,-19.2,M,0000,0000*76
$GPVTG,111.67,T,,M,0.95,N,1.76,K,D*34
$GPGGA,210143.500,4651.0299,N,12413.9868,W,2,11,0.76,-4.8,M,-19.2,M,0000,0000*74
$GPVTG,109.30,T,,M,0.86,N,1.59,K,D*30
$GPGGA,210143.750,4651.0299,N,12413.9868,W,2,11,0.76,-4.8,M,-19.2,M,0000,0000*73
$GPVTG,116.94,T,,M,0.70,N,1.29,K,D*3E
$GPGGA,210144.000,4651.0299,N,12413.9869,W,2,11,0.76,-4.8,M,-19.2,M,0000,0000*77
$GPRMC,210144.000,A,4651.0299,N,12413.9869,W,0.56,124.04,120721,,,D*73
$GPVTG,124.04,T,,M,0.56,N,1.04,K,D*3D
$GPGGA,210144.250,4651.0299,N,12413.9870,W,2,11,0.76,-4.8,M,-19.2,M,0000,0000*78
$GPVTG,126.90,T,,M,0.36,N,0.67,K,D*30
$GPGGA,210144.500,4651.0301,N,12413.9871,W,2,11,0.76,-4.8,M,-19.2,M,0000,0000*7B
$GPVTG,97.70,T,,M,0.16,N,0.30,K,D*05
$GPGGA,210144.750,4651.0302,N,12413.9871,W,2,11,0.76,-4.8,M,-19.2,M,0000,0000*7F
$GPVTG,59.59,T,,M,0.18,N,0.34,K,D*06
$GPGGA,210145.000,4651.0302,N,12413.9871,W,2,11,0.76,-4.8,M,-19.2,M,0000,0000*7C
$GPRMC,210145.000,A,4651.0302,N,12413.9871,W,0.16,51.26,120721,,,D*4F
$GPVTG,51.26,T,,M,0.16,N,0.30,K,D*0C
$GPGGA,210145.250,4651.0302,N,12413.9870,W,2,11,0.76,-4.8,M,-19.2,M,0000,0000*7A
$GPVTG,88.15,T,,M,0.19,N,0.34,K,D*03
$GPGGA,210145.500,4651.0301,N,12413.9869,W,2,11,0.76,-4.7,M,-19.2,M,0000,0000*7C
$GPVTG,105.33,T,,M,0.31,N,0.57,K,D*3C
$GPGGA,210145.750,4651.0300,N,12413.9867,W,2,11,0.76,-4.7,M,-19.2,M,0000,0000*74
$GPVTG,116.86,T,,M,0.42,N,0.79,K,D*38
$GPGGA,210146.000,4651.0299,N,12413.9867,W,2,11,0.76,-4.7,M,-19.2,M,0000,0000*74
$GPRMC,210146.000,A,4651.0299,N,12413.9867,W,0.46,119.54,120721,,,D*75
$GPVTG,119.54,T,,M,0.46,N,0.86,K,D*3C
$GPGGA,210146.250,4651.0299,N,12413.9866,W,2,11,0.76,-4.7,M,-19.2,M,0000,0000*72
$GPVTG,121.86,T,,M,0.52,N,0.96,K,D*3C
$GPGGA,210146.500,4651.0298,N,12413.9865,W,2,11,0.76,-4.7,M,-19.2,M,0000,0000*72
$GPVTG,122.89,T,,M,0.55,N,1.02,K,D*3B
$GPGGA,210146.750,4651.0298,N,12413.9864,W,2,11,0.76,-4.7,M,-19.2,M,0000,0000*74
$GPVTG,123.48,T,,M,0.57,N,1.05,K,D*32
$GPGGA,210147.000,4651.0298,N,12413.9864,W,2,11,0.76,-4.7,M,-19.2,M,0000,0000*77
$GPRMC,210147.000,A,4651.0298,N,12413.9864,W,0.58,123.73,120721,,,D*75
$GPVTG,123.73,T,,M,0.58,N,1.07,K,D*37
$GPGGA,210147.250,4651.0297,N,12413.9863,W,2,11,0.76,-4.7,M,-19.2,M,0000,0000*78
$GPVTG,124.66,T,,M,0.55,N,1.01,K,D*3F
$GPGGA,210147.500,4651.0297,N,12413.9863,W,2,11,0.76,-4.7,M,-19.2,M,0000,0000*7A
$GPVTG,127.62,T,,M,0.51,N,0.95,K,D*30
$GPGGA,210147.750,4651.0297,N,12413.9862,W,2,11,0.76,-4.7,M,-19.2,M,0000,0000*7C
$GPVTG,133.24,T,,M,0.48,N,0.90,K,D*3A
$GPGGA,210148.000,4651.0297,N,12413.9862,W,2,11,0.76,-4.7,M,-19.2,M,0000,0000*71
$GPRMC,210148.000,A,4651.0297,N,12413.9862,W,0.45,134.06,120721,,,D*7B
$GPVTG,134.06,T,,M,0.45,N,0.83,K,D*32
$GPGGA,210148.250,4651.0296,N,12413.9862,W,2,11,0.76,-4.7,M,-19.2,M,0000,0000*77
$GPVTG,133.41,T,,M,0.47,N,0.87,K,D*30
$GPGGA,210148.500,4651.0296,N,12413.9861,W,2,11,0.76,-4.7,M,-19.2,M,0000,0000*76
$GPVTG,127.23,T,,M,0.54,N,1.00,K,D*3D
$GPGGA,210148.750,4651.0296,N,12413.9861,W,2,11,0.76,-4.7,M,-19.2,M,0000,0000*71
$GPVTG,120.16,T,,M,0.63,N,1.16,K,D*3F
$GPGGA,210149.000,4651.0296,N,12413.9860,W,2,11,0.76,-4.7,M,-19.2,M,0000,0000*73
$GPRMC,210149.000,A,4651.0296,N,12413.9860,W,0.67,117.00,120721,,,D*7E
$GPVTG,117.00,T,,M,0.67,N,1.24,K,D*39
$GPGGA,210149.250,4651.0295,N,12413.9859,W,2,11,0.76,-4.7,M,-19.2,M,0000,0000*7D
$GPVTG,115.75,T,,M,0.73,N,1.36,K,D*3F
$GPGGA,210149.500,4651.0295,N,12413.9857,W,2,11,0.76,-4.7,M,-19.2,M,0000,0000*71
$GPVTG,117.03,T,,M,0.81,N,1.50,K,D*31
$GPGGA,210149.750,4651.0294,N,12413.9856,W,2,11,0.76,-4.7,M,-19.2,M,0000,0000*76
