$GPGGA,200008.750,4744.0442,N,12224.2225,W,2,11,0.78,-8.8,M,-17.3,M,0000,0000*7E
$GPVTG,315.45,T,,M,0.51,N,0.94,K,D*37
$GPGGA,200009.000,4744.0442,N,12224.2225,W,2,11,0.78,-8.9,M,-17.3,M,0000,0000*7C
$GPVTG,315.26,T,,M,0.54,N,0.99,K,D*3A
$GPGGA,200009.250,4744.0442,N,12224.2225,W,2,11,0.78,-8.9,M,-17.3,M,0000,0000*7B
$GPVTG,315.09,T,,M,0.54,N,1.00,K,D*36
$GPGGA,200009.500,4744.0443,N,12224.2226,W,2,11,0.78,-8.9,M,-17.3,M,0000,0000*7B
$GPRMC,200009.500,A,4744.0443,N,12224.2226,W,0.54,314.94,050522,,,D*7E
$GPVTG,314.94,T,,M,0.54,N,1.00,K,D*33
$GPGGA,200009.750,4744.0443,N,12224.2226,W,2,11,0.78,-8.9,M,-17.3,M,0000,0000*7C
$GPVTG,314.79,T,,M,0.54,N,1.01,K,D*31
$GPGGA,200010.000,4744.0443,N,12224.2227,W,2,11,0.78,-8.9,M,-17.3,M,0000,0000*77
$GPVTG,314.66,T,,M,0.55,N,1.02,K,D*3D
$GPGGA,200010.250,4744.0443,N,12224.2227,W,2,11,0.78,-9.0,M,-17.3,M,0000,0000*78
$GPVTG,314.56,T,,M,0.55,N,1.02,K,D*3E
$GPGGA,200010.500,4744.0444,N,12224.2227,W,2,11,0.78,-9.0,M,-17.3,M,0000,0000*7D
$GPRMC,200010.500,A,4744.0444,N,12224.2227,W,0.56,314.54,050522,,,D*7E
$GPVTG,314.54,T,,M,0.56,N,1.05,K,D*38
$GPGGA,200010.750,4744.0444,N,12224.2228,W,2,11,0.78,-9.0,M,-17.3,M,0000,0000*75
$GPVTG,314.76,T,,M,0.64,N,1.18,K,D*35
$GPGGA,200011.000,4744.0445,N,12224.2229,W,2,11,0.78,-9.0,M,-17.3,M,0000,0000*76
$GPVTG,315.00,T,,M,0.65,N,1.20,K,D*3F
$GPGGA,200011.250,4744.0445,N,12224.2229,W,2,11,0.78,-9.1,M,-17.3,M,0000,0000*70
$GPVTG,315.25,T,,M,0.66,N,1.22,K,D*39
$GPGGA,200011.500,4744.0446,N,12224.2230,W,2,11,0.78,-9.1,M,-17.3,M,0000,0000*79
$GPRMC,200011.500,A,4744.0446,N,12224.2230,W,0.67,315.51,050522,,,D*7D
$GPVTG,315.51,T,,M,0.67,N,1.24,K,D*3D
$GPGGA,200011.750,4744.0447,N,12224.2231,W,2,11,0.78,-9.1,M,-17.3,M,0000,0000*7E
$GPVTG,315.84,T,,M,0.70,N,1.30,K,D*36
$GPGGA,200012.000,4744.0448,N,12224.2232,W,2,11,0.78,-9.1,M,-17.3,M,0000,0000*73
$GPVTG,316.23,T,,M,0.75,N,1.38,K,D*35
$GPGGA,200012.250,4744.0449,N,12224.2233,W,2,11,0.76,-9.1,M,-17.3,M,0000,0000*7A
$GPVTG,316.63,T,,M,1.07,N,1.98,K,D*3F
$GPGGA,200012.500,4744.0449,N,12224.2233,W,2,11,0.76,-9.1,M,-17.3,M,0000,0000*78
$GPRMC,200012.500,A,4744.0449,N,12224.2233,W,0.47,316.73,050522,,,D*73
$GPVTG,316.73,T,,M,0.47,N,0.87,K,D*34
$GPGGA,200012.750,4744.0450,N,12224.2234,W,2,11,0.78,-9.1,M,-17.3,M,0000,0000*7E
$GPVTG,316.91,T,,M,0.49,N,0.91,K,D*31
$GPGGA,200013.000,4744.0451,N,12224.2234,W,2,11,0.78,-9.1,M,-17.3,M,0000,0000*7C
$GPVTG,317.77,T,,M,0.67,N,1.23,K,D*3C
$GPGGA,200013.250,4744.0451,N,12224.2235,W,2,11,0.76,-9.2,M,-17.3,M,0000,0000*77
$GPVTG,318.67,T,,M,0.69,N,1.28,K,D*37
$GPGGA,200013.500,4744.0452,N,12224.2235,W,2,10,0.82,-9.2,M,-17.3,M,0000,0000*7C
$GPRMC,200013.500,A,4744.0452,N,12224.2235,W,0.72,319.55,050522,,,D*73
$GPVTG,319.55,T,,M,0.72,N,1.33,K,D*37
$GPGGA,200013.750,4744.0453,N,12224.2235,W,2,10,0.82,-9.2,M,-17.3,M,0000,0000*7A
$GPVTG,321.63,T,,M,0.76,N,1.41,K,D*38
$GPGGA,200014.000,4744.0455,N,12224.2233,W,2,10,0.82,-9.2,M,-17.3,M,0000,0000*7F
$GPVTG,325.36,T,,M,1.03,N,1.90,K,D*33
$GPGGA,200014.250,4744.0457,N,12224.2233,W,2,10,0.82,-9.2,M,-17.3,M,0000,0000*7A
$GPVTG,329.25,T,,M,1.07,N,1.99,K,D*30
$GPGGA,200014.500,4744.0458,N,12224.2233,W,2,10,0.82,-9.2,M,-17.3,M,0000,0000*77
$GPRMC,200014.500,A,4744.0458,N,12224.2233,W,1.12,332.98,050522,,,D*77
$GPVTG,332.98,T,,M,1.12,N,2.07,K,D*3C
$GPGGA,200014.750,4744.0460,N,12224.2230,W,2,10,0.80,-9.2,M,-17.3,M,0000,0000*7A
$GPVTG,334.67,T,,M,0.35,N,0.65,K,D*38
$GPGGA,200015.000,4744.0461,N,12224.2230,W,2,10,0.80,-9.1,M,-17.3,M,0000,0000*7B
$GPVTG,337.07,T,,M,0.41,N,0.76,K,D*3C
$GPGGA,200015.250,4744.0462,N,12224.2229,W,2,10,0.80,-9.1,M,-17.3,M,0000,0000*77
$GPVTG,339.55,T,,M,0.45,N,0.83,K,D*3B
$GPGGA,200015.500,4744.0462,N,12224.2229,W,2,10,0.82,-9.1,M,-17.3,M,0000,0000*77
$GPRMC,200015.500,A,4744.0462,N,12224.2229,W,0.48,342.08,050522,,,D*74
$GPVTG,342.08,T,,M,0.48,N,0.89,K,D*38
$GPGGA,200015.750,4744.0463,N,12224.2229,W,2,10,0.80,-9.1,M,-17.3,M,0000,0000*73
$GPVTG,344.68,T,,M,0.50,N,0.92,K,D*3B
$GPGGA,200016.000,4744.0464,N,12224.2227,W,2,10,0.80,-9.1,M,-17.3,M,0000,0000*7B
$GPVTG,40.00,T,,M,0.75,N,1.39,K,D*05
$GPGGA,200016.250,4744.0465,N,12224.2226,W,2,10,0.80,-9.1,M,-17.3,M,0000,0000*7C
$GPVTG,39.99,T,,M,0.75,N,1.39,K,D*0B
$GPGGA,200016.500,4744.0465,N,12224.2226,W,2,10,0.82,-9.1,M,-17.3,M,0000,0000*7C
$GPRMC,200016.500,A,4744.0465,N,12224.2226,W,0.76,39.92,050522,,,D*4E
$GPVTG,39.92,T,,M,0.76,N,1.40,K,D*0D
$GPGGA,200016.750,4744.0466,N,12224.2226,W,2,10,0.82,-9.1,M,-17.3,M,0000,0000*78
$GPVTG,36.52,T,,M,0.77,N,1.42,K,D*0D
$GPGGA,200017.000,4744.0467,N,12224.2226,W,2,10,0.82,-9.1,M,-17.3,M,0000,0000*7A
$GPVTG,30.85,T,,M,0.77,N,1.42,K,D*01
$GPGGA,200017.250,4744.0468,N,12224.2227,W,2,10,0.82,-9.1,M,-17.3,M,0000,0000*73
$GPVTG,24.24,T,,M,0.75,N,1.39,K,D*01
$GPGGA,200017.500,4744.0468,N,12224.2227,W,2,10,0.82,-9.1,M,-17.3,M,0000,0000*71
$GPRMC,200017.500,A,4744.0468,N,12224.2227,W,0.74,21.98,050522,,,D*42
$GPVTG,21.98,T,,M,0.74,N,1.38,K,D*03
$GPGGA,200017.750,4744.0468,N,12224.2227,W,2,10,0.82,-9.1,M,-17.3,M,0000,0000*76
$GPVTG,21.46,T,,M,0.72,N,1.34,K,D*0A
$GPGGA,200018.000,4744.0468,N,12224.2228,W,2,10,0.82,-9.1,M,-17.3,M,0000,0000*74
$GPVTG,12.59,T,,M,0.67,N,1.25,K,D*00
$GPGGA,200018.250,4744.0468,N,12224.2229,W,2,10,0.82,-9.1,M,-17.3,M,0000,0000*72
$GPVTG,7.44,T,,M,0.62,N,1.15,K,D*3E
$GPGGA,200018.500,4744.0469,N,12224.2229,W,2,10,0.82,-9.2,M,-17.3,M,0000,0000*72
$GPRMC,200018.500,A,4744.0469,N,12224.2229,W,0.57,6.44,050522,,,D*77
$GPVTG,6.44,T,,M,0.57,N,1.06,K,D*3B
$GPGGA,200018.750,4744.0470,N,12224.2229,W,2,10,0.82,-9.2,M,-17.3,M,0000,0000*7D
$GPVTG,3.95,T,,M,0.55,N,1.02,K,D*34
$GPGGA,200019.000,4744.0472,N,12224.2230,W,2,10,0.82,-9.2,M,-17.3,M,0000,0000*74
$GPVTG,356.62,T,,M,0.73,N,1.34,K,D*3E
$GPGGA,200019.250,4744.0474,N,12224.2232,W,2,10,0.82,-9.2,M,-17.3,M,0000,0000*77
$GPVTG,353.55,T,,M,0.88,N,1.64,K,D*3E
$GPGGA,200019.500,4744.0475,N,12224.2232,W,2,10,0.82,-9.2,M,-17.3,M,0000,0000*74
$GPRMC,200019.500,A,4744.0475,N,12224.2232,W,0.89,355.10,050522,,,D*76
$GPVTG,355.10,T,,M,0.89,N,1.65,K,D*39
$GPGGA,200019.750,4744.0476,N,12224.2232,W,2,10,0.82,-9.2,M,-17.3,M,0000,0000*70
$GPVTG,356.40,T,,M,0.90,N,1.66,K,D*34
$GPGGA,200020.000,4744.0476,N,12224.2232,W,2,10,0.82,-9.3,M,-17.3,M,0000,0000*79
$GPVTG,356.52,T,,M,0.90,N,1.67,K,D*36
$GPGGA,200020.250,4744.0477,N,12224.2232,W,2,10,0.82,-9.3,M,-17.3,M,0000,0000*7F
$GPVTG,357.64,T,,M,0.89,N,1.65,K,D*38
$GPGGA,200020.500,4744.0477,N,12224.2231,W,2,10,0.82,-9.3,M,-17.3,M,0000,0000*7E
$GPRMC,200020.500,A,4744.0477,N,12224.2231,W,0.87,3.46,050522,,,D*70
$GPVTG,3.46,T,,M,0.87,N,1.62,K,D*33
$GPGGA,200020.750,4744.0478,N,12224.2230,W,2,10,0.82,-9.3,M,-17.3,M,0000,0000*77
$GPVTG,15.41,T,,M,0.90,N,1.68,K,D*0F
$GPGGA,200021.000,4744.0479,N,12224.2229,W,2,10,0.80,-9.3,M,-17.3,M,0000,0000*7F
$GPVTG,25.33,T,,M,1.16,N,2.16,K,D*0C
$GPGGA,200021.250,4744.0481,N,12224.2228,W,2,10,0.80,-9.3,M,-17.3,M,0000,0000*7E
$GPVTG,26.32,T,,M,1.19,N,2.20,K,D*04
$GPGGA,200021.500,4744.0482,N,12224.2228,W,2,10,0.80,-9.3,M,-17.3,M,0000,0000*7F
$GPRMC,200021.500,A,4744.0482,N,12224.2228,W,1.22,24.55,050522,,,D*4A
$GPVTG,24.55,T,,M,1.22,N,2.26,K,D*09
$GPGGA,200021.750,4744.0483,N,12224.2228,W,2,10,0.80,-9.3,M,-17.3,M,0000,0000*79
$GPVTG,21.02,T,,M,1.25,N,2.31,K,D*0F
$GPGGA,200022.000,4744.0485,N,12224.2228,W,2,10,0.80,-9.4,M,-17.3,M,0000,0000*79
$GPVTG,11.08,T,,M,1.28,N,2.36,K,D*0C
$GPGGA,200022.250,4744.0487,N,12224.2228,W,2,10,0.82,-9.4,M,-17.3,M,0000,0000*7E
$GPVTG,7.04,T,,M,1.34,N,2.48,K,D*33
$GPGGA,200022.500,4744.0488,N,12224.2228,W,2,10,0.82,-9.4,M,-17.3,M,0000,0000*73
$GPRMC,200022.500,A,4744.0488,N,12224.2228,W,1.37,4.37,050522,,,D*71
$GPVTG,4.37,T,,M,1.37,N,2.55,K,D*3F
$GPGGA,200022.750,4744.0490,N,12224.2228,W,2,10,0.82,-9.4,M,-17.3,M,0000,0000*7D
$GPVTG,6.68,T,,M,1.41,N,2.60,K,D*30
$GPGGA,200023.000,4744.0491,N,12224.2228,W,2,10,0.82,-9.5,M,-17.3,M,0000,0000*7E
$GPVTG,8.54,T,,M,1.43,N,2.65,K,D*36
$GPGGA,200023.250,4744.0493,N,12224.2228,W,2,10,0.82,-9.5,M,-17.3,M,0000,0000*7B
$GPVTG,7.87,T,,M,1.43,N,2.64,K,D*36
$GPGGA,200023.500,4744.0494,N,12224.2228,W,2,10,0.82,-9.6,M,-17.3,M,0000,0000*7D
$GPRMC,200023.500,A,4744.0494,N,12224.2228,W,1.42,8.52,050522,,,D*70
$GPVTG,8.52,T,,M,1.42,N,2.63,K,D*37
$GPGGA,200023.750,4744.0496,N,12224.2227,W,2,10,0.82,-9.6,M,-17.3,M,0000,0000*77
$GPVTG,8.36,T,,M,1.42,N,2.63,K,D*35
$GPGGA,200024.000,4744.0497,N,12224.2227,W,2,10,0.82,-9.7,M,-17.3,M,0000,0000*72
$GPVTG,4.59,T,,M,1.61,N,2.99,K,D*34
$GPGGA,200024.250,4744.0499,N,12224.2227,W,2,10,0.82,-9.7,M,-17.3,M,0000,0000*7B
$GPVTG,10.09,T,,M,1.84,N,3.41,K,D*0B
$GPGGA,200024.500,4744.0500,N,12224.2227,W,2,10,0.82,-9.7,M,-17.3,M,0000,0000*78
$GPRMC,200024.500,A,4744.0500,N,12224.2227,W,1.87,12.20,050522,,,D*43
$GPVTG,12.20,T,,M,1.87,N,3.46,K,D*06
$GPGGA,200024.750,4744.0501,N,12224.2226,W,2,10,0.82,-9.8,M,-17.3,M,0000,0000*70
$GPVTG,17.94,T,,M,1.81,N,3.35,K,D*0E
$GPGGA,200025.000,4744.0503,N,12224.2225,W,2,10,0.80,-9.8,M,-17.3,M,0000,0000*70
$GPVTG,22.89,T,,M,1.83,N,3.39,K,D*0A
$GPGGA,200025.250,4744.0505,N,12224.2225,W,2,10,0.80,-9.8,M,-17.3,M,0000,0000*71
$GPVTG,14.71,T,,M,2.12,N,3.93,K,D*03
$GPGGA,200025.500,4744.0506,N,12224.2225,W,2,10,0.82,-9.8,M,-17.3,M,0000,0000*72
$GPRMC,200025.500,A,4744.0506,N,12224.2225,W,2.06,11.01,050522,,,D*4C
$GPVTG,11.01,T,,M,2.06,N,3.81,K,D*07
$GPGGA,200025.750,4744.0508,N,12224.2224,W,2,10,0.82,-9.9,M,-17.3,M,0000,0000*7B
$GPVTG,22.53,T,,M,1.55,N,2.88,K,D*0D
$GPGGA,200026.000,4744.0511,N,12224.2224,W,2,10,0.80,-9.9,M,-17.3,M,0000,0000*70
$GPVTG,39.20,T,,M,1.81,N,3.36,K,D*0E
$GPGGA,200026.250,4744.0512,N,12224.2222,W,2,10,0.80,-9.9,M,-17.3,M,0000,0000*72
$GPVTG,33.04,T,,M,2.00,N,3.70,K,D*0A
$GPGGA,200026.500,4744.0513,N,12224.2221,W,2,10,0.80,-10.0,M,-17.3,M,0000,0000*43
$GPRMC,200026.500,A,4744.0513,N,12224.2221,W,1.99,33.89,050522,,,D*4A
$GPVTG,33.89,T,,M,1.99,N,3.69,K,D*04
$GPGGA,200026.750,4744.0515,N,12224.2220,W,2,10,0.80,-9.9,M,-17.3,M,0000,0000*72
$GPVTG,35.71,T,,M,1.79,N,3.32,K,D*05
$GPGGA,200027.000,4744.0517,N,12224.2219,W,2,10,0.80,-9.9,M,-17.3,M,0000,0000*79
$GPVTG,31.04,T,,M,1.44,N,2.66,K,D*0D
$GPGGA,200027.250,4744.0518,N,12224.2218,W,2,10,0.80,-9.9,M,-17.3,M,0000,0000*70
$GPVTG,49.05,T,,M,1.65,N,3.06,K,D*07
$GPGGA,200027.500,4744.0519,N,12224.2217,W,2,10,0.80,-9.9,M,-17.3,M,0000,0000*7C
$GPRMC,200027.500,A,4744.0519,N,12224.2217,W,2.01,52.53,050522,,,D*46
$GPVTG,52.53,T,,M,2.01,N,3.73,K,D*0D
$GPGGA,200027.750,4744.0521,N,12224.2216,W,2,10,0.80,-9.9,M,-17.3,M,0000,0000*71
$GPVTG,32.26,T,,M,1.75,N,3.24,K,D*0B
$GPGGA,200028.000,4744.0522,N,12224.2216,W,2,10,0.80,-10.0,M,-17.3,M,0000,0000*4E
$GPVTG,12.56,T,,M,1.22,N,2.26,K,D*0F
$GPGGA,200028.250,4744.0523,N,12224.2216,W,2,10,0.82,-10.1,M,-17.3,M,0000,0000*4B
$GPVTG,14.98,T,,M,0.88,N,1.63,K,D*08
$GPGGA,200028.500,4744.0523,N,12224.2215,W,2,10,0.82,-10.1,M,-17.3,M,0000,0000*4A
$GPRMC,200028.500,A,4744.0523,N,12224.2215,W,0.95,51.24,050522,,,D*4E
$GPVTG,51.24,T,,M,0.95,N,1.76,K,D*06
$GPGGA,200028.750,4744.0523,N,12224.2214,W,2,10,0.80,-10.1,M,-17.3,M,0000,0000*4E
$GPVTG,68.17,T,,M,1.42,N,2.63,K,D*00
$GPGGA,200029.000,4744.0523,N,12224.2213,W,2,10,0.80,-10.1,M,-17.3,M,0000,0000*4A
$GPVTG,64.44,T,,M,1.49,N,2.75,K,D*06
$GPGGA,200029.250,4744.0524,N,12224.2212,W,2,10,0.80,-10.0,M,-17.3,M,0000,0000*4A
$GPVTG,47.90,T,,M,1.85,N,3.42,K,D*0B
$GPGGA,200029.500,4744.0525,N,12224.2210,W,2,10,0.80,-9.9,M,-17.3,M,0000,0000*7A
$GPRMC,200029.500,A,4744.0525,N,12224.2210,W,1.88,22.77,050522,,,D*43
$GPVTG,22.77,T,,M,1.88,N,3.49,K,D*07
$GPGGA,200029.750,4744.0526,N,12224.2210,W,2,10,0.80,-10.0,M,-17.3,M,0000,0000*4F
$GPVTG,26.65,T,,M,1.21,N,2.24,K,D*09
$GPGGA,200030.000,4744.0527,N,12224.2210,W,2,10,0.80,-10.0,M,-17.3,M,0000,0000*44
$GPVTG,25.71,T,,M,0.86,N,1.60,K,D*00
$GPGGA,200030.250,4744.0528,N,12224.2209,W,2,10,0.80,-10.0,M,-17.3,M,0000,0000*44
$GPVTG,25.71,T,,M,0.30,N,0.56,K,D*09
$GPGGA,200030.500,4744.0527,N,12224.2209,W,2,10,0.82,-10.0,M,-17.3,M,0000,0000*4B
$GPRMC,200030.500,A,4744.0527,N,12224.2209,W,0.38,25.71,050522,,,D*4A
$GPVTG,25.71,T,,M,0.38,N,0.70,K,D*05
$GPGGA,200030.750,4744.0527,N,12224.2208,W,2,10,0.80,-9.9,M,-17.3,M,0000,0000*7E
$GPVTG,82.72,T,,M,0.98,N,1.82,K,D*0D
$GPGGA,200031.000,4744.0528,N,12224.2207,W,2,10,0.80,-10.0,M,-17.3,M,0000,0000*4C
$GPVTG,62.18,T,,M,1.60,N,2.97,K,D*0E
$GPGGA,200031.250,4744.0528,N,12224.2206,W,2,10,0.80,-9.9,M,-17.3,M,0000,0000*7B
$GPVTG,26.60,T,,M,1.26,N,2.34,K,D*0A
$GPGGA,200031.500,4744.0530,N,12224.2206,W,2,10,0.80,-9.9,M,-17.3,M,0000,0000*70
$GPRMC,200031.500,A,4744.0530,N,12224.2206,W,1.28,354.73,050522,,,D*75
$GPVTG,354.73,T,,M,1.28,N,2.37,K,D*33
$GPGGA,200031.750,4744.0530,N,12224.2206,W,2,10,0.82,-10.0,M,-17.3,M,0000,0000*44
$GPVTG,27.27,T,,M,1.03,N,1.91,K,D*03
$GPGGA,200032.000,4744.0531,N,12224.2205,W,2,10,0.80,-10.0,M,-17.3,M,0000,0000*45
$GPVTG,82.67,T,,M,0.69,N,1.29,K,D*06
$GPGGA,200032.250,4744.0531,N,12224.2205,W,2,10,0.80,-10.0,M,-17.3,M,0000,0000*42
$GPVTG,84.12,T,,M,0.67,N,1.25,K,D*00
$GPGGA,200032.500,4744.0531,N,12224.2204,W,2,10,0.80,-10.0,M,-17.3,M,0000,0000*41
$GPRMC,200032.500,A,4744.0531,N,12224.2204,W,0.67,81.77,050522,,,D*40
$GPVTG,81.77,T,,M,0.67,N,1.25,K,D*06
$GPGGA,200032.750,4744.0531,N,12224.2203,W,2,10,0.80,-10.0,M,-17.3,M,0000,0000*41
$GPVTG,79.41,T,,M,0.73,N,1.34,K,D*01
$GPGGA,200033.000,4744.0531,N,12224.2201,W,2,10,0.80,-10.0,M,-17.3,M,0000,0000*40
$GPVTG,76.20,T,,M,1.19,N,2.21,K,D*03
$GPGGA,200033.250,4744.0532,N,12224.2200,W,2,10,0.80,-10.1,M,-17.3,M,0000,0000*44
$GPVTG,63.21,T,,M,1.21,N,2.25,K,D*09
$GPGGA,200033.500,4744.0532,N,12224.2199,W,2,10,0.80,-10.1,M,-17.3,M,0000,0000*45
$GPRMC,200033.500,A,4744.0532,N,12224.2199,W,1.20,58.96,050522,,,D*4C
$GPVTG,58.96,T,,M,1.20,N,2.22,K,D*0B
$GPGGA,200033.750,4744.0533,N,12224.2198,W,2,10,0.80,-10.1,M,-17.3,M,0000,0000*42
$GPVTG,56.49,T,,M,1.00,N,1.86,K,D*08
$GPGGA,200034.000,4744.0533,N,12224.2197,W,2,10,0.80,-10.1,M,-17.3,M,0000,0000*48
$GPVTG,56.64,T,,M,1.00,N,1.86,K,D*07
$GPGGA,200034.250,4744.0533,N,12224.2196,W,2,10,0.80,-10.1,M,-17.3,M,0000,0000*4E
$GPVTG,56.92,T,,M,1.00,N,1.85,K,D*0D
$GPGGA,200034.500,4744.0534,N,12224.2195,W,2,10,0.80,-10.1,M,-17.3,M,0000,0000*48
$GPRMC,200034.500,A,4744.0534,N,12224.2195,W,0.99,57.10,050522,,,D*43
$GPVTG,57.10,T,,M,0.99,N,1.83,K,D*01
$GPGGA,200034.750,4744.0534,N,12224.2195,W,2,10,0.80,-10.2,M,-17.3,M,0000,0000*4C
$GPVTG,57.85,T,,M,0.96,N,1.77,K,D*09
$GPGGA,200035.000,4744.0534,N,12224.2194,W,2,10,0.80,-10.2,M,-17.3,M,0000,0000*4E
$GPVTG,60.05,T,,M,0.89,N,1.65,K,D*08
$GPGGA,200035.250,4744.0534,N,12224.2193,W,2,10,0.80,-10.2,M,-17.3,M,0000,0000*4E
$GPVTG,60.63,T,,M,0.87,N,1.62,K,D*01
$GPGGA,200035.500,4744.0534,N,12224.2192,W,2,10,0.80,-10.2,M,-17.3,M,0000,0000*4D
$GPRMC,200035.500,A,4744.0534,N,12224.2192,W,0.84,61.05,050522,,,D*48
$GPVTG,61.05,T,,M,0.84,N,1.56,K,D*04
$GPGGA,200035.750,4744.0534,N,12224.2192,W,2,10,0.80,-10.2,M,-17.3,M,0000,0000*4A
$GPVTG,61.82,T,,M,0.82,N,1.51,K,D*0A
$GPGGA,200036.000,4744.0534,N,12224.2191,W,2,10,0.80,-10.2,M,-17.3,M,0000,0000*48
$GPVTG,66.34,T,,M,0.80,N,1.48,K,D*0A
$GPGGA,200036.250,4744.0533,N,12224.2190,W,2,10,0.80,-10.2,M,-17.3,M,0000,0000*49
$GPVTG,75.45,T,,M,0.76,N,1.41,K,D*0E
$GPGGA,200036.500,4744.0533,N,12224.2190,W,2,10,0.80,-10.2,M,-17.3,M,0000,0000*4B
$GPRMC,200036.500,A,4744.0533,N,12224.2190,W,0.71,77.95,050522,,,D*4A
$GPVTG,77.95,T,,M,0.71,N,1.32,K,D*02
$GPGGA,200036.750,4744.0533,N,12224.2189,W,2,10,0.80,-10.2,M,-17.3,M,0000,0000*44
$GPVTG,78.84,T,,M,0.65,N,1.21,K,D*0A
$GPGGA,200037.000,4744.0533,N,12224.2189,W,2,10,0.80,-10.2,M,-17.3,M,0000,0000*47
$GPVTG,75.20,T,,M,0.61,N,1.14,K,D*0B
$GPGGA,200037.250,4744.0534,N,12224.2189,W,2,10,0.80,-10.2,M,-17.3,M,0000,0000*47
$GPVTG,64.54,T,,M,0.58,N,1.08,K,D*0F
$GPGGA,200037.500,4744.0535,N,12224.2188,W,2,10,0.80,-10.2,M,-17.3,M,0000,0000*45
$GPRMC,200037.500,A,4744.0535,N,12224.2188,W,0.58,63.18,050522,,,D*4F
$GPVTG,63.18,T,,M,0.58,N,1.07,K,D*0F
$GPGGA,200037.750,4744.0535,N,12224.2188,W,2,10,0.80,-10.2,M,-17.3,M,0000,0000*42
$GPVTG,55.95,T,,M,0.58,N,1.08,K,D*00
$GPGGA,200038.000,4744.0536,N,12224.2187,W,2,10,0.80,-10.2,M,-17.3,M,0000,0000*43
$GPVTG,55.62,T,,M,0.59,N,1.09,K,D*08
$GPGGA,200038.250,4744.0536,N,12224.2187,W,2,10,0.82,-10.3,M,-17.3,M,0000,0000*47
$GPVTG,55.31,T,,M,0.60,N,1.11,K,D*0D
$GPGGA,200038.500,4744.0537,N,12224.2186,W,2,10,0.82,-10.3,M,-17.3,M,0000,0000*45
$GPRMC,200038.500,A,4744.0537,N,12224.2186,W,0.61,48.35,050522,,,D*40
$GPVTG,48.35,T,,M,0.61,N,1.13,K,D*06
$GPGGA,200038.750,4744.0537,N,12224.2186,W,2,10,0.82,-10.2,M,-17.3,M,0000,0000*43
$GPVTG,42.89,T,,M,0.61,N,1.14,K,D*0C
$GPGGA,200039.000,4744.0537,N,12224.2186,W,2,10,0.82,-10.2,M,-17.3,M,0000,0000*40
$GPVTG,34.49,T,,M,0.60,N,1.11,K,D*05
$GPGGA,200039.250,4744.0537,N,12224.2187,W,2,10,0.82,-10.2,M,-17.3,M,0000,0000*46
$GPVTG,28.84,T,,M,0.56,N,1.05,K,D*09
$GPGGA,200039.500,4744.0537,N,12224.2187,W,2,10,0.82,-10.2,M,-17.3,M,0000,0000*44
$GPRMC,200039.500,A,4744.0537,N,12224.2187,W,0.53,29.70,050522,,,D*47
$GPVTG,29.70,T,,M,0.53,N,0.98,K,D*03
$GPGGA,200039.750,4744.0537,N,12224.2186,W,2,10,0.82,-10.2,M,-17.3,M,0000,0000*42
$GPVTG,30.06,T,,M,0.50,N,0.92,K,D*03
$GPGGA,200040.000,4744.0538,N,12224.2186,W,2,10,0.82,-10.2,M,-17.3,M,0000,0000*41
$GPVTG,30.01,T,,M,0.48,N,0.89,K,D*07
$GPGGA,200040.250,4744.0539,N,12224.2185,W,2,10,0.82,-10.2,M,-17.3,M,0000,0000*44
$GPVTG,30.52,T,,M,0.49,N,0.92,K,D*0A
$GPGGA,200040.500,4744.0539,N,12224.2185,W,2,10,0.82,-10.2,M,-17.3,M,0000,0000*46
$GPRMC,200040.500,A,4744.0539,N,12224.2185,W,0.53,29.49,050522,,,D*4F
$GPVTG,29.49,T,,M,0.53,N,0.98,K,D*09
$GPGGA,200040.750,4744.0540,N,12224.2185,W,2,10,0.82,-10.2,M,-17.3,M,0000,0000*4F
$GPVTG,28.84,T,,M,0.56,N,1.04,K,D*08
$GPGGA,200041.000,4744.0540,N,12224.2184,W,2,10,0.82,-10.2,M,-17.3,M,0000,0000*4D
$GPVTG,28.55,T,,M,0.59,N,1.09,K,D*06
$GPGGA,200041.250,4744.0540,N,12224.2184,W,2,10,0.82,-10.2,M,-17.3,M,0000,0000*4A
$GPVTG,28.53,T,,M,0.61,N,1.13,K,D*00
$GPGGA,200041.500,4744.0541,N,12224.2184,W,2,10,0.82,-10.2,M,-17.3,M,0000,0000*49
$GPRMC,200041.500,A,4744.0541,N,12224.2184,W,0.62,26.89,050522,,,D*41
$GPVTG,26.89,T,,M,0.62,N,1.14,K,D*0D
$GPGGA,200041.750,4744.0541,N,12224.2185,W,2,10,0.82,-10.2,M,-17.3,M,0000,0000*4F
$GPVTG,22.42,T,,M,0.61,N,1.14,K,D*0D
$GPGGA,200042.000,4744.0542,N,12224.2185,W,2,10,0.82,-10.2,M,-17.3,M,0000,0000*4D
$GPVTG,18.55,T,,M,0.61,N,1.13,K,D*05
$GPGGA,200042.250,4744.0543,N,12224.2186,W,2,10,0.82,-10.1,M,-17.3,M,0000,0000*4B
$GPVTG,11.37,T,,M,0.61,N,1.13,K,D*08
$GPGGA,200042.500,4744.0544,N,12224.2186,W,2,10,0.82,-10.1,M,-17.3,M,0000,0000*4E
$GPRMC,200042.500,A,4744.0544,N,12224.2186,W,0.61,10.14,050522,,,D*47
$GPVTG,10.14,T,,M,0.61,N,1.14,K,D*0F
$GPGGA,200042.750,4744.0545,N,12224.2185,W,2,10,0.82,-10.1,M,-17.3,M,0000,0000*4B
$GPVTG,10.92,T,,M,0.63,N,1.17,K,D*00
$GPGGA,200043.000,4744.0546,N,12224.2185,W,2,10,0.82,-10.1,M,-17.3,M,0000,0000*4B
$GPVTG,13.70,T,,M,0.66,N,1.22,K,D*0C
$GPGGA,200043.250,4744.0547,N,12224.2184,W,2,10,0.82,-10.1,M,-17.3,M,0000,0000*4C
$GPVTG,20.48,T,,M,0.65,N,1.21,K,D*07
$GPGGA,200043.500,4744.0547,N,12224.2184,W,2,10,0.80,-10.1,M,-17.3,M,0000,0000*4C
$GPRMC,200043.500,A,4744.0547,N,12224.2184,W,0.63,23.41,050522,,,D*45
$GPVTG,23.41,T,,M,0.63,N,1.17,K,D*0E
$GPGGA,200043.750,4744.0547,N,12224.2184,W,2,10,0.80,-10.1,M,-17.3,M,0000,0000*4B
$GPVTG,23.58,T,,M,0.60,N,1.11,K,D*03
$GPGGA,200044.000,4744.0547,N,12224.2184,W,2,10,0.80,-10.1,M,-17.3,M,0000,0000*4E
$GPVTG,22.66,T,,M,0.57,N,1.05,K,D*0E
$GPGGA,200044.250,4744.0548,N,12224.2184,W,2,10,0.80,-10.0,M,-17.3,M,0000,0000*47
$GPVTG,22.66,T,,M,0.52,N,0.96,K,D*00
$GPGGA,200044.500,4744.0548,N,12224.2184,W,2,10,0.82,-10.0,M,-17.3,M,0000,0000*47
$GPRMC,200044.500,A,4744.0548,N,12224.2184,W,0.49,22.66,050522,,,D*41
$GPVTG,22.66,T,,M,0.49,N,0.90,K,D*0C
$GPGGA,200044.750,4744.0548,N,12224.2184,W,2,10,0.82,-10.0,M,-17.3,M,0000,0000*40
$GPVTG,22.66,T,,M,0.45,N,0.84,K,D*05
$GPGGA,200045.000,4744.0549,N,12224.2184,W,2,10,0.82,-10.0,M,-17.3,M,0000,0000*42
$GPVTG,22.66,T,,M,0.43,N,0.80,K,D*07
$GPGGA,200045.250,4744.0549,N,12224.2185,W,2,10,0.82,-10.0,M,-17.3,M,0000,0000*44
$GPVTG,22.66,T,,M,0.41,N,0.75,K,D*0F
$GPGGA,200045.500,4744.0549,N,12224.2184,W,2,10,0.82,-9.9,M,-17.3,M,0000,0000*76
$GPRMC,200045.500,A,4744.0549,N,12224.2184,W,0.39,22.66,050522,,,D*46
$GPVTG,22.66,T,,M,0.39,N,0.72,K,D*07
$GPGGA,200045.750,4744.0549,N,12224.2184,W,2,10,0.82,-9.9,M,-17.3,M,0000,0000*71
$GPVTG,22.66,T,,M,0.37,N,0.69,K,D*03
$GPGGA,200046.000,4744.0550,N,12224.2184,W,2,10,0.82,-9.9,M,-17.3,M,0000,0000*78
$GPVTG,22.66,T,,M,0.36,N,0.68,K,D*03
$GPGGA,200046.250,4744.0551,N,12224.2184,W,2,10,0.82,-9.9,M,-17.3,M,0000,0000*7E
$GPVTG,22.66,T,,M,0.38,N,0.71,K,D*05
$GPGGA,200046.500,4744.0552,N,12224.2183,W,2,10,0.82,-10.0,M,-17.3,M,0000,0000*49
$GPRMC,200046.500,A,4744.0552,N,12224.2183,W,0.42,12.41,050522,,,D*42
$GPVTG,12.41,T,,M,0.42,N,0.79,K,D*06
$GPGGA,200046.750,4744.0553,N,12224.2183,W,2,10,0.82,-10.0,M,-17.3,M,0000,0000*4F
$GPVTG,8.58,T,,M,0.64,N,1.19,K,D*36
$GPGGA,200047.000,4744.0554,N,12224.2184,W,2,10,0.82,-10.0,M,-17.3,M,0000,0000*4C
$GPVTG,6.10,T,,M,0.69,N,1.28,K,D*3B
$GPGGA,200047.250,4744.0555,N,12224.2183,W,2,10,0.82,-10.0,M,-17.3,M,0000,0000*4D
$GPVTG,8.47,T,,M,0.75,N,1.39,K,D*3A
$GPGGA,200047.500,4744.0556,N,12224.2183,W,2,10,0.82,-10.0,M,-17.3,M,0000,0000*4C
$GPRMC,200047.500,A,4744.0556,N,12224.2183,W,0.79,8.05,050522,,,D*74
$GPVTG,8.05,T,,M,0.79,N,1.46,K,D*38
$GPGGA,200047.750,4744.0556,N,12224.2183,W,2,10,0.82,-10.0,M,-17.3,M,0000,0000*4B
$GPVTG,7.72,T,,M,0.81,N,1.50,K,D*37
$GPGGA,200048.000,4744.0557,N,12224.2183,W,2,10,0.82,-10.0,M,-17.3,M,0000,0000*47
$GPVTG,4.06,T,,M,0.83,N,1.55,K,D*30
$GPGGA,200048.250,4744.0558,N,12224.2183,W,2,10,0.82,-10.0,M,-17.3,M,0000,0000*4F
$GPVTG,2.78,T,,M,0.86,N,1.60,K,D*3C
$GPGGA,200048.500,4744.0558,N,12224.2182,W,2,10,0.82,-10.0,M,-17.3,M,0000,0000*4C
$GPRMC,200048.500,A,4744.0558,N,12224.2182,W,0.88,2.77,050522,,,D*75
$GPVTG,2.77,T,,M,0.88,N,1.63,K,D*3E
$GPGGA,200048.750,4744.0560,N,12224.2182,W,2,10,0.82,-10.1,M,-17.3,M,0000,0000*41
$GPVTG,2.95,T,,M,0.91,N,1.69,K,D*30
$GPGGA,200049.000,4744.0561,N,12224.2182,W,2,10,0.82,-10.1,M,-17.3,M,0000,0000*43
$GPVTG,3.28,T,,M,0.95,N,1.76,K,D*3D
$GPGGA,200049.250,4744.0562,N,12224.2182,W,2,10,0.82,-10.2,M,-17.3,M,0000,0000*44
$GPVTG,358.52,T,,M,1.22,N,2.26,K,D*36
$GPGGA,200049.500,4744.0563,N,12224.2182,W,2,10,0.82,-10.2,M,-17.3,M,0000,0000*47
$GPRMC,200049.500,A,4744.0563,N,12224.2182,W,1.16,354.98,050522,,,D*7B
$GPVTG,354.98,T,,M,1.16,N,2.15,K,D*3B
$GPGGA,200049.750,4744.0564,N,12224.2182,W,2,10,0.82,-10.2,M,-17.3,M,0000,0000*47
$GPVTG,352.61,T,,M,1.09,N,2.01,K,D*30
$GPGGA,200050.000,4744.0564,N,12224.2182,W,2,10,0.82,-10.2,M,-17.3,M,0000,0000*4D
$GPVTG,354.66,T,,M,1.02,N,1.88,K,D*38
$GPGGA,200050.250,4744.0565,N,12224.2181,W,2,10,0.82,-10.2,M,-17.3,M,0000,0000*48
$GPVTG,5.41,T,,M,0.98,N,1.81,K,D*31
$GPGGA,200050.500,4744.0566,N,12224.2181,W,2,10,0.82,-10.2,M,-17.3,M,0000,0000*49
$GPRMC,200050.500,A,4744.0566,N,12224.2181,W,0.98,7.08,050522,,,D*7E
$GPVTG,7.08,T,,M,0.98,N,1.82,K,D*3D
$GPGGA,200050.750,4744.0567,N,12224.2181,W,2,10,0.82,-10.3,M,-17.3,M,0000,0000*4E
$GPVTG,8.10,T,,M,0.95,N,1.77,K,D*3C
$GPGGA,200051.000,4744.0568,N,12224.2180,W,2,10,0.82,-10.3,M,-17.3,M,0000,0000*43
$GPVTG,9.06,T,,M,0.98,N,1.81,K,D*3E
$GPGGA,200051.250,4744.0569,N,12224.2180,W,2,10,0.82,-10.4,M,-17.3,M,0000,0000*42
$GPVTG,5.39,T,,M,1.29,N,2.39,K,D*35
$GPGGA,200051.500,4744.0570,N,12224.2180,W,2,10,0.82,-10.4,M,-17.3,M,0000,0000*48
$GPRMC,200051.500,A,4744.0570,N,12224.2180,W,1.05,12.04,050522,,,D*44
$GPVTG,12.04,T,,M,1.05,N,1.95,K,D*06
$GPGGA,200051.750,4744.0571,N,12224.2180,W,2,10,0.82,-10.5,M,-17.3,M,0000,0000*4F
$GPVTG,17.25,T,,M,0.59,N,1.10,K,D*05
$GPGGA,200052.000,4744.0572,N,12224.2179,W,2,10,0.80,-10.4,M,-17.3,M,0000,0000*48
$GPVTG,14.15,T,,M,0.92,N,1.70,K,D*04
$GPGGA,200052.250,4744.0572,N,12224.2179,W,2,10,0.82,-10.4,M,-17.3,M,0000,0000*4D
$GPVTG,22.47,T,,M,1.30,N,2.42,K,D*0D
$GPGGA,200052.500,4744.0573,N,12224.2178,W,2,10,0.80,-10.4,M,-17.3,M,0000,0000*4D
$GPRMC,200052.500,A,4744.0573,N,12224.2178,W,1.11,18.22,050522,,,D*48
$GPVTG,18.22,T,,M,1.11,N,2.05,K,D*07
$GPGGA,200052.750,4744.0574,N,12224.2178,W,2,10,0.80,-10.4,M,-17.3,M,0000,0000*4D
$GPVTG,18.22,T,,M,0.57,N,1.05,K,D*07
$GPGGA,200053.000,4744.0575,N,12224.2178,W,2,10,0.80,-10.3,M,-17.3,M,0000,0000*48
$GPVTG,343.32,T,,M,0.59,N,1.09,K,D*39
$GPGGA,200053.250,4744.0575,N,12224.2178,W,2,10,0.80,-10.3,M,-17.3,M,0000,0000*4F
$GPVTG,13.95,T,,M,1.30,N,2.41,K,D*03
$GPGGA,200053.500,4744.0576,N,12224.2178,W,2,10,0.82,-10.3,M,-17.3,M,0000,0000*4C
$GPRMC,200053.500,A,4744.0576,N,12224.2178,W,1.30,11.83,050522,,,D*4D
$GPVTG,11.83,T,,M,1.30,N,2.41,K,D*06
$GPGGA,200053.750,4744.0577,N,12224.2178,W,2,10,0.82,-10.3,M,-17.3,M,0000,0000*4A
$GPVTG,7.37,T,,M,1.29,N,2.39,K,D*39
$GPGGA,200054.000,4744.0578,N,12224.2177,W,2,10,0.82,-10.3,M,-17.3,M,0000,0000*4F
$GPVTG,22.51,T,,M,1.13,N,2.10,K,D*0C
$GPGGA,200054.250,4744.0579,N,12224.2177,W,2,10,0.80,-10.3,M,-17.3,M,0000,0000*4B
$GPVTG,12.28,T,,M,1.14,N,2.12,K,D*04
$GPGGA,200054.500,4744.0580,N,12224.2177,W,2,10,0.82,-10.4,M,-17.3,M,0000,0000*4A
$GPRMC,200054.500,A,4744.0580,N,12224.2177,W,0.68,17.23,050522,,,D*4C
$GPVTG,17.23,T,,M,0.68,N,1.27,K,D*05
$GPGGA,200054.750,4744.0580,N,12224.2177,W,2,10,0.80,-10.3,M,-17.3,M,0000,0000*48
$GPVTG,21.24,T,,M,0.69,N,1.27,K,D*06
$GPGGA,200055.000,4744.0581,N,12224.2177,W,2,10,0.80,-10.3,M,-17.3,M,0000,0000*4A
$GPVTG,23.10,T,,M,0.73,N,1.35,K,D*0B
$GPGGA,200055.250,4744.0582,N,12224.2177,W,2,10,0.80,-10.3,M,-17.3,M,0000,0000*4E
$GPVTG,1.41,T,,M,0.99,N,1.84,K,D*31
$GPGGA,200055.500,4744.0583,N,12224.2177,W,2,10,0.82,-10.3,M,-17.3,M,0000,0000*4F
$GPRMC,200055.500,A,4744.0583,N,12224.2177,W,0.98,7.18,050522,,,D*78
$GPVTG,7.18,T,,M,0.98,N,1.81,K,D*3F
$GPGGA,200055.750,4744.0584,N,12224.2176,W,2,10,0.82,-10.3,M,-17.3,M,0000,0000*4E
$GPVTG,15.54,T,,M,1.32,N,2.45,K,D*0E
$GPGGA,200056.000,4744.0585,N,12224.2176,W,2,10,0.80,-10.4,M,-17.3,M,0000,0000*4B
$GPVTG,358.41,T,,M,1.68,N,3.12,K,D*3C
$GPGGA,200056.250,4744.0585,N,12224.2176,W,2,10,0.82,-10.4,M,-17.3,M,0000,0000*4E
$GPVTG,7.75,T,,M,0.92,N,1.70,K,D*30
$GPGGA,200056.500,4744.0586,N,12224.2176,W,2,10,0.82,-10.5,M,-17.3,M,0000,0000*4E
$GPRMC,200056.500,A,4744.0586,N,12224.2176,W,0.76,19.41,050522,,,D*4C
$GPVTG,19.41,T,,M,0.76,N,1.41,K,D*00
$GPGGA,200056.750,4744.0586,N,12224.2176,W,2,10,0.80,-10.5,M,-17.3,M,0000,0000*4B
$GPVTG,58.49,T,,M,0.70,N,1.30,K,D*0D
$GPGGA,200057.000,4744.0587,N,12224.2175,W,2,10,0.80,-10.5,M,-17.3,M,0000,0000*4A
$GPVTG,31.93,T,,M,0.77,N,1.42,K,D*07
$GPGGA,200057.250,4744.0588,N,12224.2175,W,2,10,0.80,-10.4,M,-17.3,M,0000,0000*43
$GPVTG,4.78,T,,M,1.13,N,2.09,K,D*3B
$GPGGA,200057.500,4744.0589,N,12224.2175,W,2,10,0.82,-10.3,M,-17.3,M,0000,0000*45
$GPRMC,200057.500,A,4744.0589,N,12224.2175,W,1.11,14.47,050522,,,D*4A
$GPVTG,14.47,T,,M,1.11,N,2.06,K,D*0B
$GPGGA,200057.750,4744.0590,N,12224.2174,W,2,10,0.82,-10.3,M,-17.3,M,0000,0000*4B
$GPVTG,26.84,T,,M,0.94,N,1.74,K,D*0F
$GPGGA,200058.000,4744.0590,N,12224.2174,W,2,10,0.80,-10.3,M,-17.3,M,0000,0000*44
$GPVTG,39.52,T,,M,0.74,N,1.37,K,D*03
$GPGGA,200058.250,4744.0591,N,12224.2174,W,2,10,0.80,-10.4,M,-17.3,M,0000,0000*45
$GPVTG,39.52,T,,M,0.45,N,0.83,K,D*0F
$GPGGA,200058.500,4744.0591,N,12224.2174,W,2,10,0.80,-10.3,M,-17.3,M,0000,0000*40
$GPRMC,200058.500,A,4744.0591,N,12224.2174,W,0.47,39.52,050522,,,D*44
$GPVTG,39.52,T,,M,0.47,N,0.88,K,D*06
$GPGGA,200058.750,4744.0591,N,12224.2174,W,2,10,0.82,-10.3,M,-17.3,M,0000,0000*45
$GPVTG,39.52,T,,M,0.48,N,0.88,K,D*09
$GPGGA,200059.000,4744.0592,N,12224.2173,W,2,10,0.82,-10.4,M,-17.3,M,0000,0000*45
$GPVTG,48.94,T,,M,0.75,N,1.38,K,D*01
$GPGGA,200059.250,4744.0592,N,12224.2173,W,2,10,0.80,-10.4,M,-17.3,M,0000,0000*40
$GPVTG,43.92,T,,M,0.82,N,1.51,K,D*0B
$GPGGA,200059.500,4744.0593,N,12224.2173,W,2,10,0.80,-10.5,M,-17.3,M,0000,0000*42
$GPRMC,200059.500,A,4744.0593,N,12224.2173,W,1.32,353.17,050522,,,D*7D
$GPVTG,353.17,T,,M,1.32,N,2.45,K,D*38
$GPGGA,200059.750,4744.0594,N,12224.2173,W,2,10,0.82,-10.5,M,-17.3,M,0000,0000*40
$GPVTG,346.49,T,,M,1.25,N,2.31,K,D*32
$GPGGA,200100.000,4744.0595,N,12224.2173,W,2,10,0.82,-10.5,M,-17.3,M,0000,0000*4E
$GPVTG,346.49,T,,M,0.39,N,0.72,K,D*3B
$GPGGA,200100.250,4744.0595,N,12224.2173,W,2,10,0.82,-10.5,M,-17.3,M,0000,0000*49
$GPVTG,346.49,T,,M,0.41,N,0.76,K,D*30
$GPGGA,200100.500,4744.0595,N,12224.2172,W,2,10,0.80,-10.5,M,-17.3,M,0000,0000*48
$GPRMC,200100.500,A,4744.0595,N,12224.2172,W,0.62,49.24,050522,,,D*4B
$GPVTG,49.24,T,,M,0.62,N,1.15,K,D*02
$GPGGA,200100.750,4744.0595,N,12224.2172,W,2,10,0.80,-10.5,M,-17.3,M,0000,0000*4F
$GPVTG,39.37,T,,M,0.83,N,1.54,K,D*0D
$GPGGA,200101.000,4744.0596,N,12224.2172,W,2,10,0.80,-10.5,M,-17.3,M,0000,0000*4F
$GPVTG,25.24,T,,M,1.01,N,1.86,K,D*06
$GPGGA,200101.250,4744.0597,N,12224.2172,W,2,10,0.80,-10.5,M,-17.3,M,0000,0000*49
$GPVTG,359.22,T,,M,0.95,N,1.76,K,D*3B
$GPGGA,200101.500,4744.0598,N,12224.2172,W,2,10,0.82,-10.6,M,-17.3,M,0000,0000*45
$GPRMC,200101.500,A,4744.0598,N,12224.2172,W,0.95,354.60,050522,,,D*70
$GPVTG,354.60,T,,M,0.95,N,1.76,K,D*30
$GPGGA,200101.750,4744.0598,N,12224.2172,W,2,10,0.82,-10.6,M,-17.3,M,0000,0000*42
$GPVTG,6.07,T,,M,0.99,N,1.83,K,D*33
$GPGGA,200102.000,4744.0599,N,12224.2172,W,2,10,0.82,-10.7,M,-17.3,M,0000,0000*43
$GPVTG,29.73,T,,M,0.82,N,1.52,K,D*0B
$GPGGA,200102.250,4744.0599,N,12224.2171,W,2,10,0.80,-10.8,M,-17.3,M,0000,0000*4A
$GPVTG,29.73,T,,M,0.07,N,0.14,K,D*05
$GPGGA,200102.500,4744.0599,N,12224.2172,W,2,10,0.82,-10.9,M,-17.3,M,0000,0000*48
$GPRMC,200102.500,A,4744.0599,N,12224.2172,W,0.28,29.73,050522,,,D*4F
$GPVTG,29.73,T,,M,0.28,N,0.52,K,D*0A
$GPGGA,200102.750,4744.0600,N,12224.2172,W,2,10,0.80,-10.9,M,-17.3,M,0000,0000*4E
$GPVTG,29.73,T,,M,0.28,N,0.53,K,D*0B
$GPGGA,200103.000,4744.0600,N,12224.2172,W,2,10,0.80,-10.9,M,-17.3,M,0000,0000*4D
$GPVTG,29.73,T,,M,0.29,N,0.53,K,D*0A
$GPGGA,200103.250,4744.0600,N,12224.2172,W,2,10,0.80,-10.9,M,-17.3,M,0000,0000*4A
$GPVTG,29.73,T,,M,0.29,N,0.54,K,D*0D
$GPGGA,200103.500,4744.0601,N,12224.2173,W,2,10,0.80,-10.9,M,-17.3,M,0000,0000*48
$GPRMC,200103.500,A,4744.0601,N,12224.2173,W,0.59,324.20,050522,,,D*73
$GPVTG,324.20,T,,M,0.59,N,1.09,K,D*3B
$GPGGA,200103.750,4744.0601,N,12224.2173,W,2,10,0.80,-10.9,M,-17.3,M,0000,0000*4F
$GPVTG,324.20,T,,M,0.58,N,1.07,K,D*34
$GPGGA,200104.000,4744.0601,N,12224.2173,W,2,10,0.80,-10.9,M,-17.3,M,0000,0000*4A
$GPVTG,324.20,T,,M,0.57,N,1.06,K,D*3A
$GPGGA,200104.250,4744.0602,N,12224.2173,W,2,10,0.80,-10.9,M,-17.3,M,0000,0000*4E
$GPVTG,324.20,T,,M,0.58,N,1.07,K,D*34
$GPGGA,200104.500,4744.0602,N,12224.2173,W,2,10,0.82,-10.9,M,-17.3,M,0000,0000*4E
$GPRMC,200104.500,A,4744.0602,N,12224.2173,W,0.59,352.07,050522,,,D*73
$GPVTG,352.07,T,,M,0.59,N,1.09,K,D*3F
$GPGGA,200104.750,4744.0602,N,12224.2172,W,2,10,0.82,-10.9,M,-17.3,M,0000,0000*48
$GPVTG,357.06,T,,M,0.62,N,1.14,K,D*3F
$GPGGA,200105.000,4744.0603,N,12224.2172,W,2,10,0.82,-11.0,M,-17.3,M,0000,0000*42
$GPVTG,0.24,T,,M,0.63,N,1.16,K,D*3D
$GPGGA,200105.250,4744.0604,N,12224.2172,W,2,10,0.82,-11.0,M,-17.3,M,0000,0000*42
$GPVTG,2.03,T,,M,0.67,N,1.25,K,D*3E
$GPGGA,200105.500,4744.0604,N,12224.2172,W,2,10,0.82,-11.0,M,-17.3,M,0000,0000*40
$GPRMC,200105.500,A,4744.0604,N,12224.2172,W,0.73,1.47,050522,,,D*7C
$GPVTG,1.47,T,,M,0.73,N,1.35,K,D*39
$GPGGA,200105.750,4744.0605,N,12224.2171,W,2,10,0.82,-11.1,M,-17.3,M,0000,0000*44
$GPVTG,358.87,T,,M,0.91,N,1.69,K,D*3F
$GPGGA,200106.000,4744.0605,N,12224.2171,W,2,10,0.82,-11.1,M,-17.3,M,0000,0000*45
$GPVTG,358.97,T,,M,0.90,N,1.68,K,D*3E
$GPGGA,200106.250,4744.0606,N,12224.2171,W,2,10,0.82,-11.1,M,-17.3,M,0000,0000*41
$GPVTG,359.33,T,,M,0.90,N,1.67,K,D*3E
$GPGGA,200106.500,4744.0606,N,12224.2170,W,2,10,0.82,-11.2,M,-17.3,M,0000,0000*41
$GPRMC,200106.500,A,4744.0606,N,12224.2170,W,0.94,0.40,050522,,,D*70
$GPVTG,0.40,T,,M,0.94,N,1.75,K,D*32
$GPGGA,200106.750,4744.0607,N,12224.2170,W,2,10,0.80,-11.2,M,-17.3,M,0000,0000*45
$GPVTG,1.71,T,,M,1.00,N,1.85,K,D*32
$GPGGA,200107.000,4744.0608,N,12224.2170,W,2,10,0.82,-11.2,M,-17.3,M,0000,0000*4B
$GPVTG,2.92,T,,M,1.01,N,1.87,K,D*3F
$GPGGA,200107.250,4744.0608,N,12224.2169,W,2,10,0.82,-11.3,M,-17.3,M,0000,0000*45
$GPVTG,4.02,T,,M,1.00,N,1.86,K,D*30
$GPGGA,200107.500,4744.0608,N,12224.2169,W,2,10,0.82,-11.3,M,-17.3,M,0000,0000*47
$GPRMC,200107.500,A,4744.0608,N,12224.2169,W,0.98,5.02,050522,,,D*78
$GPVTG,5.02,T,,M,0.98,N,1.81,K,D*36
$GPGGA,200107.750,4744.0608,N,12224.2169,W,2,10,0.82,-11.3,M,-17.3,M,0000,0000*40
$GPVTG,5.76,T,,M,0.81,N,1.49,K,D*39
$GPGGA,200108.000,4744.0609,N,12224.2168,W,2,10,0.82,-11.3,M,-17.3,M,0000,0000*4D
$GPVTG,6.78,T,,M,0.83,N,1.53,K,D*3D
$GPGGA,200108.250,4744.0610,N,12224.2167,W,2,10,0.82,-11.3,M,-17.3,M,0000,0000*4D
$GPVTG,7.79,T,,M,0.89,N,1.65,K,D*32
$GPGGA,200108.500,4744.0611,N,12224.2167,W,2,10,0.80,-11.3,M,-17.3,M,0000,0000*4C
$GPRMC,200108.500,A,4744.0611,N,12224.2167,W,1.05,7.74,050522,,,D*77
$GPVTG,7.74,T,,M,1.05,N,1.94,K,D*34
$GPGGA,200108.750,4744.0612,N,12224.2167,W,2,10,0.82,-11.4,M,-17.3,M,0000,0000*4D
$GPVTG,7.72,T,,M,0.86,N,1.60,K,D*33
$GPGGA,200109.000,4744.0612,N,12224.2166,W,2,10,0.82,-11.4,M,-17.3,M,0000,0000*4F
$GPVTG,8.22,T,,M,0.85,N,1.57,K,D*3E
$GPGGA,200109.250,4744.0612,N,12224.2165,W,2,10,0.82,-11.4,M,-17.3,M,0000,0000*4B
$GPVTG,9.00,T,,M,0.83,N,1.55,K,D*3B
$GPGGA,200109.500,4744.0613,N,12224.2164,W,2,10,0.82,-11.4,M,-17.3,M,0000,0000*49
$GPRMC,200109.500,A,4744.0613,N,12224.2164,W,0.81,10.43,050522,,,D*48
$GPVTG,10.43,T,,M,0.81,N,1.50,K,D*03
$GPGGA,200109.750,4744.0613,N,12224.2165,W,2,10,0.82,-11.5,M,-17.3,M,0000,0000*4E
$GPVTG,10.89,T,,M,0.63,N,1.16,K,D*0B
$GPGGA,200110.000,4744.0613,N,12224.2164,W,2,10,0.80,-11.6,M,-17.3,M,0000,0000*44
$GPVTG,9.93,T,,M,0.58,N,1.07,K,D*30
$GPGGA,200110.250,4744.0614,N,12224.2164,W,2,10,0.82,-11.5,M,-17.3,M,0000,0000*45
$GPVTG,9.94,T,,M,0.62,N,1.16,K,D*3E
$GPGGA,200110.500,4744.0615,N,12224.2163,W,2,10,0.82,-11.3,M,-17.3,M,0000,0000*47
$GPRMC,200110.500,A,4744.0615,N,12224.2163,W,1.44,11.65,050522,,,D*4C
$GPVTG,11.65,T,,M,1.44,N,2.68,K,D*06
$GPGGA,200110.750,4744.0616,N,12224.2163,W,2,10,0.80,-11.0,M,-17.3,M,0000,0000*42
$GPVTG,19.19,T,,M,1.47,N,2.73,K,D*0C
$GPGGA,200111.000,4744.0617,N,12224.2163,W,2,10,0.80,-11.1,M,-17.3,M,0000,0000*41
$GPVTG,8.36,T,,M,0.98,N,1.81,K,D*3C
$GPGGA,200111.250,4744.0617,N,12224.2163,W,2,10,0.82,-11.2,M,-17.3,M,0000,0000*47
$GPVTG,8.36,T,,M,0.33,N,0.62,K,D*31
$GPGGA,200111.500,4744.0617,N,12224.2163,W,2,10,0.82,-11.3,M,-17.3,M,0000,0000*44
$GPRMC,200111.500,A,4744.0617,N,12224.2163,W,0.33,8.36,050522,,,D*70
$GPVTG,8.36,T,,M,0.33,N,0.62,K,D*31
$GPGGA,200111.750,4744.0618,N,12224.2163,W,2,10,0.82,-11.4,M,-17.3,M,0000,0000*4B
$GPVTG,8.36,T,,M,0.34,N,0.62,K,D*36
$GPGGA,200112.000,4744.0618,N,12224.2162,W,2,10,0.82,-11.4,M,-17.3,M,0000,0000*4B
$GPVTG,8.36,T,,M,0.36,N,0.67,K,D*31
$GPGGA,200112.250,4744.0618,N,12224.2162,W,2,10,0.82,-11.5,M,-17.3,M,0000,0000*4D
$GPVTG,8.36,T,,M,0.53,N,0.98,K,D*32
$GPGGA,200112.500,4744.0619,N,12224.2162,W,2,10,0.80,-11.4,M,-17.3,M,0000,0000*4D
$GPRMC,200112.500,A,4744.0619,N,12224.2162,W,0.59,20.71,050522,,,D*49
$GPVTG,20.71,T,,M,0.59,N,1.09,K,D*08
$GPGGA,200112.750,4744.0620,N,12224.2161,W,2,10,0.80,-11.5,M,-17.3,M,0000,0000*42
$GPVTG,21.15,T,,M,0.66,N,1.22,K,D*0E
$GPGGA,200113.000,4744.0620,N,12224.2161,W,2,10,0.80,-11.5,M,-17.3,M,0000,0000*41
$GPVTG,16.64,T,,M,0.71,N,1.32,K,D*0B
$GPGGA,200113.250,4744.0621,N,12224.2161,W,2,10,0.80,-11.5,M,-17.3,M,0000,0000*47
$GPVTG,14.86,T,,M,0.74,N,1.37,K,D*05
$GPGGA,200113.500,4744.0621,N,12224.2161,W,2,10,0.82,-11.5,M,-17.3,M,0000,0000*47
$GPRMC,200113.500,A,4744.0621,N,12224.2161,W,0.76,14.59,050522,,,D*40
$GPVTG,14.59,T,,M,0.76,N,1.40,K,D*05
$GPGGA,200113.750,4744.0622,N,12224.2161,W,2,10,0.82,-11.6,M,-17.3,M,0000,0000*40
$GPVTG,14.02,T,,M,0.79,N,1.47,K,D*03
$GPGGA,200114.000,4744.0623,N,12224.2160,W,2,10,0.82,-11.6,M,-17.3,M,0000,0000*45
$GPVTG,12.46,T,,M,0.80,N,1.49,K,D*0D
$GPGGA,200114.250,4744.0623,N,12224.2160,W,2,10,0.82,-11.6,M,-17.3,M,0000,0000*42
$GPVTG,16.36,T,,M,0.83,N,1.54,K,D*01
$GPGGA,200114.500,4744.0624,N,12224.2160,W,2,10,0.80,-11.6,M,-17.3,M,0000,0000*45
$GPRMC,200114.500,A,4744.0624,N,12224.2160,W,0.86,17.94,050522,,,D*4E
$GPVTG,17.94,T,,M,0.86,N,1.59,K,D*00
$GPGGA,200114.750,4744.0625,N,12224.2159,W,2,10,0.80,-11.6,M,-17.3,M,0000,0000*49
$GPVTG,18.71,T,,M,0.89,N,1.66,K,D*07
$GPGGA,200115.000,4744.0626,N,12224.2159,W,2,10,0.80,-11.6,M,-17.3,M,0000,0000*49
$GPVTG,16.71,T,,M,0.92,N,1.71,K,D*05
$GPGGA,200115.250,4744.0626,N,12224.2159,W,2,10,0.80,-11.7,M,-17.3,M,0000,0000*4F
$GPVTG,16.70,T,,M,0.95,N,1.76,K,D*04
$GPGGA,200115.500,4744.0627,N,12224.2158,W,2,10,0.80,-11.7,M,-17.3,M,0000,0000*4D
$GPRMC,200115.500,A,4744.0627,N,12224.2158,W,0.97,17.86,050522,,,D*44
$GPVTG,17.86,T,,M,0.97,N,1.80,K,D*07
$GPGGA,200115.750,4744.0627,N,12224.2158,W,2,10,0.80,-11.8,M,-17.3,M,0000,0000*45
$GPVTG,19.29,T,,M,0.98,N,1.82,K,D*01
$GPGGA,200116.000,4744.0628,N,12224.2158,W,2,10,0.80,-11.8,M,-17.3,M,0000,0000*4B
$GPVTG,19.28,T,,M,0.97,N,1.81,K,D*0C
$GPGGA,200116.250,4744.0629,N,12224.2157,W,2,10,0.82,-11.8,M,-17.3,M,0000,0000*40
$GPVTG,19.15,T,,M,0.96,N,1.79,K,D*04
$GPGGA,200116.500,4744.0629,N,12224.2157,W,2,10,0.82,-11.9,M,-17.3,M,0000,0000*43
$GPRMC,200116.500,A,4744.0629,N,12224.2157,W,0.96,18.97,050522,,,D*48
$GPVTG,18.97,T,,M,0.96,N,1.77,K,D*01
$GPGGA,200116.750,4744.0630,N,12224.2156,W,2,10,0.80,-12.0,M,-17.3,M,0000,0000*45
$GPVTG,19.03,T,,M,0.96,N,1.78,K,D*02
$GPGGA,200117.000,4744.0631,N,12224.2156,W,2,10,0.80,-12.0,M,-17.3,M,0000,0000*47
$GPVTG,19.41,T,,M,0.97,N,1.79,K,D*04
$GPGGA,200117.250,4744.0631,N,12224.2155,W,2,10,0.82,-12.0,M,-17.3,M,0000,0000*41
$GPVTG,20.01,T,,M,0.98,N,1.81,K,D*02
$GPGGA,200117.500,4744.0632,N,12224.2155,W,2,10,0.82,-12.1,M,-17.3,M,0000,0000*41
$GPRMC,200117.500,A,4744.0632,N,12224.2155,W,0.99,20.65,050522,,,D*48
$GPVTG,20.65,T,,M,0.99,N,1.83,K,D*03
$GPGGA,200117.750,4744.0632,N,12224.2154,W,2,10,0.82,-12.1,M,-17.3,M,0000,0000*47
$GPVTG,21.09,T,,M,1.00,N,1.85,K,D*0F
$GPGGA,200118.000,4744.0633,N,12224.2155,W,2,10,0.80,-12.1,M,-17.3,M,0000,0000*48
$GPVTG,348.14,T,,M,1.00,N,1.86,K,D*3C
$GPGGA,200118.250,4744.0634,N,12224.2154,W,2,10,0.82,-12.1,M,-17.3,M,0000,0000*4B
$GPVTG,358.83,T,,M,0.98,N,1.81,K,D*34
$GPGGA,200118.500,4744.0634,N,12224.2154,W,2,10,0.82,-12.1,M,-17.3,M,0000,0000*49
$GPRMC,200118.500,A,4744.0634,N,12224.2154,W,0.94,14.17,050522,,,D*4F
$GPVTG,14.17,T,,M,0.94,N,1.74,K,D*04
$GPGGA,200118.750,4744.0635,N,12224.2153,W,2,10,0.82,-12.2,M,-17.3,M,0000,0000*4B
$GPVTG,27.11,T,,M,0.90,N,1.67,K,D*04
$GPGGA,200119.000,4744.0635,N,12224.2153,W,2,10,0.80,-12.2,M,-17.3,M,0000,0000*4A
$GPVTG,27.47,T,,M,0.86,N,1.60,K,D*07
$GPGGA,200119.250,4744.0636,N,12224.2153,W,2,10,0.80,-12.2,M,-17.3,M,0000,0000*4E
$GPVTG,13.51,T,,M,0.84,N,1.56,K,D*00
$GPGGA,200119.500,4744.0637,N,12224.2153,W,2,10,0.82,-12.2,M,-17.3,M,0000,0000*4F
$GPRMC,200119.500,A,4744.0637,N,12224.2153,W,0.84,12.71,050522,,,D*4D
$GPVTG,12.71,T,,M,0.84,N,1.55,K,D*00
$GPGGA,200119.750,4744.0637,N,12224.2152,W,2,10,0.82,-12.2,M,-17.3,M,0000,0000*49
$GPVTG,16.05,T,,M,0.85,N,1.57,K,D*04
$GPGGA,200120.000,4744.0638,N,12224.2152,W,2,10,0.80,-12.3,M,-17.3,M,0000,0000*4D
$GPVTG,22.07,T,,M,0.87,N,1.61,K,D*06
$GPGGA,200120.250,4744.0638,N,12224.2151,W,2,10,0.80,-12.3,M,-17.3,M,0000,0000*49
$GPVTG,34.71,T,,M,0.85,N,1.58,K,D*08
$GPGGA,200120.500,4744.0638,N,12224.2151,W,2,10,0.80,-12.2,M,-17.3,M,0000,0000*4A
$GPRMC,200120.500,A,4744.0638,N,12224.2151,W,0.65,30.22,050522,,,D*43
$GPVTG,30.22,T,,M,0.65,N,1.21,K,D*0A
$GPGGA,200120.750,4744.0638,N,12224.2150,W,2,10,0.80,-12.2,M,-17.3,M,0000,0000*4C
$GPVTG,23.56,T,,M,0.98,N,1.81,K,D*03
$GPGGA,200121.000,4744.0639,N,12224.2150,W,2,10,0.80,-12.2,M,-17.3,M,0000,0000*4E
$GPVTG,21.25,T,,M,0.95,N,1.76,K,D*00
$GPGGA,200121.250,4744.0639,N,12224.2150,W,2,10,0.80,-12.2,M,-17.3,M,0000,0000*49
$GPVTG,24.94,T,,M,0.77,N,1.43,K,D*05
$GPGGA,200121.500,4744.0640,N,12224.2149,W,2,10,0.80,-12.2,M,-17.3,M,0000,0000*4D
$GPRMC,200121.500,A,4744.0640,N,12224.2149,W,0.81,25.00,050522,,,D*4A
$GPVTG,25.00,T,,M,0.81,N,1.51,K,D*03
$GPGGA,200121.750,4744.0640,N,12224.2149,W,2,10,0.80,-12.3,M,-17.3,M,0000,0000*4B
$GPVTG,23.76,T,,M,0.84,N,1.55,K,D*05
$GPGGA,200122.000,4744.0641,N,12224.2149,W,2,10,0.80,-12.3,M,-17.3,M,0000,0000*4B
$GPVTG,21.65,T,,M,0.90,N,1.66,K,D*00
$GPGGA,200122.250,4744.0642,N,12224.2149,W,2,10,0.80,-12.3,M,-17.3,M,0000,0000*4F
$GPVTG,10.73,T,,M,1.05,N,1.95,K,D*04
$GPGGA,200122.500,4744.0643,N,12224.2148,W,2,10,0.82,-12.3,M,-17.3,M,0000,0000*4F
$GPRMC,200122.500,A,4744.0643,N,12224.2148,W,1.08,8.82,050522,,,D*7E
$GPVTG,8.82,T,,M,1.08,N,2.00,K,D*31
$GPGGA,200122.750,4744.0643,N,12224.2148,W,2,10,0.82,-12.4,M,-17.3,M,0000,0000*4F
$GPVTG,15.29,T,,M,1.09,N,2.02,K,D*0F
$GPGGA,200123.000,4744.0644,N,12224.2147,W,2,10,0.80,-12.4,M,-17.3,M,0000,0000*46
$GPVTG,17.80,T,,M,1.07,N,1.99,K,D*01
$GPGGA,200123.250,4744.0644,N,12224.2147,W,2,10,0.80,-12.4,M,-17.3,M,0000,0000*41
$GPVTG,15.19,T,,M,1.03,N,1.90,K,D*0E
$GPGGA,200123.500,4744.0645,N,12224.2147,W,2,10,0.80,-12.4,M,-17.3,M,0000,0000*42
$GPRMC,200123.500,A,4744.0645,N,12224.2147,W,0.99,15.02,050522,,,D*4B
$GPVTG,15.02,T,,M,0.99,N,1.83,K,D*04
$GPGGA,200123.750,4744.0645,N,12224.2147,W,2,10,0.80,-12.4,M,-17.3,M,0000,0000*45
$GPVTG,15.62,T,,M,0.97,N,1.80,K,D*0F
$GPGGA,200124.000,4744.0646,N,12224.2146,W,2,10,0.80,-12.4,M,-17.3,M,0000,0000*42
$GPVTG,16.06,T,,M,0.94,N,1.75,K,D*07
$GPGGA,200124.250,4744.0647,N,12224.2146,W,2,10,0.80,-12.4,M,-17.3,M,0000,0000*44
$GPVTG,17.31,T,,M,0.93,N,1.72,K,D*02
$GPGGA,200124.500,4744.0647,N,12224.2146,W,2,10,0.80,-12.4,M,-17.3,M,0000,0000*46
$GPRMC,200124.500,A,4744.0647,N,12224.2146,W,0.92,17.96,050522,,,D*4B
$GPVTG,17.96,T,,M,0.92,N,1.71,K,D*0D
$GPGGA,200124.750,4744.0647,N,12224.2145,W,2,10,0.80,-12.4,M,-17.3,M,0000,0000*42
$GPVTG,19.64,T,,M,0.91,N,1.69,K,D*04
$GPGGA,200125.000,4744.0648,N,12224.2145,W,2,10,0.80,-12.4,M,-17.3,M,0000,0000*4E
$GPVTG,19.64,T,,M,0.89,N,1.65,K,D*01
$GPGGA,200125.250,4744.0648,N,12224.2145,W,2,10,0.82,-12.5,M,-17.3,M,0000,0000*4A
$GPVTG,19.78,T,,M,0.87,N,1.62,K,D*05
$GPGGA,200125.500,4744.0649,N,12224.2144,W,2,10,0.82,-12.5,M,-17.3,M,0000,0000*48
$GPRMC,200125.500,A,4744.0649,N,12224.2144,W,0.86,19.92,050522,,,D*49
$GPVTG,19.92,T,,M,0.86,N,1.60,K,D*02
$GPGGA,200125.750,4744.0649,N,12224.2144,W,2,10,0.82,-12.5,M,-17.3,M,0000,0000*4F
$GPVTG,22.81,T,,M,0.85,N,1.57,K,D*0F
$GPGGA,200126.000,4744.0648,N,12224.2143,W,2,10,0.82,-12.5,M,-17.3,M,0000,0000*48
$GPVTG,28.85,T,,M,0.81,N,1.49,K,D*0A
$GPGGA,200126.250,4744.0649,N,12224.2143,W,2,10,0.82,-12.5,M,-17.3,M,0000,0000*4E
$GPVTG,33.02,T,,M,0.76,N,1.41,K,D*0F
$GPGGA,200126.500,4744.0649,N,12224.2142,W,2,10,0.82,-12.5,M,-17.3,M,0000,0000*4D
$GPRMC,200126.500,A,4744.0649,N,12224.2142,W,0.73,33.16,050522,,,D*42
$GPVTG,33.16,T,,M,0.73,N,1.36,K,D*0F
$GPGGA,200126.750,4744.0650,N,12224.2142,W,2,10,0.82,-12.6,M,-17.3,M,0000,0000*41
$GPVTG,32.50,T,,M,0.72,N,1.33,K,D*08
$GPGGA,200127.000,4744.0651,N,12224.2142,W,2,10,0.82,-12.6,M,-17.3,M,0000,0000*43
$GPVTG,29.20,T,,M,0.74,N,1.37,K,D*07
$GPGGA,200127.250,4744.0651,N,12224.2141,W,2,10,0.80,-12.6,M,-17.3,M,0000,0000*45
$GPVTG,12.99,T,,M,1.03,N,1.90,K,D*01
$GPGGA,200127.500,4744.0652,N,12224.2141,W,2,10,0.82,-12.6,M,-17.3,M,0000,0000*46
$GPRMC,200127.500,A,4744.0652,N,12224.2141,W,1.02,12.29,050522,,,D*42
$GPVTG,12.29,T,,M,1.02,N,1.89,K,D*03
$GPGGA,200127.750,4744.0653,N,12224.2141,W,2,10,0.82,-12.6,M,-17.3,M,0000,0000*40
$GPVTG,12.78,T,,M,1.02,N,1.89,K,D*07
$GPGGA,200128.000,4744.0653,N,12224.2141,W,2,10,0.82,-12.6,M,-17.3,M,0000,0000*4D
$GPVTG,13.72,T,,M,1.02,N,1.89,K,D*0C
$GPGGA,200128.250,4744.0654,N,12224.2139,W,2,10,0.82,-12.6,M,-17.3,M,0000,0000*42
$GPVTG,22.63,T,,M,1.19,N,2.20,K,D*04
$GPGGA,200128.500,4744.0655,N,12224.2139,W,2,10,0.80,-12.7,M,-17.3,M,0000,0000*42
$GPRMC,200128.500,A,4744.0655,N,12224.2139,W,1.23,22.80,050522,,,D*46
$GPVTG,22.80,T,,M,1.23,N,2.29,K,D*09
$GPGGA,200128.750,4744.0656,N,12224.2138,W,2,10,0.80,-12.7,M,-17.3,M,0000,0000*47
$GPVTG,23.94,T,,M,1.26,N,2.33,K,D*03
$GPGGA,200129.000,4744.0656,N,12224.2137,W,2,10,0.80,-12.6,M,-17.3,M,0000,0000*4A
$GPVTG,22.65,T,,M,1.23,N,2.27,K,D*0C
$GPGGA,200129.250,4744.0657,N,12224.2137,W,2,10,0.80,-12.6,M,-17.3,M,0000,0000*4C
$GPVTG,22.69,T,,M,0.99,N,1.83,K,D*0D
$GPGGA,200129.500,4744.0657,N,12224.2136,W,2,10,0.80,-12.6,M,-17.3,M,0000,0000*4F
$GPRMC,200129.500,A,4744.0657,N,12224.2136,W,0.95,21.81,050522,,,D*44
$GPVTG,21.81,T,,M,0.95,N,1.76,K,D*0E
$GPGGA,200129.750,4744.0658,N,12224.2136,W,2,10,0.80,-12.6,M,-17.3,M,0000,0000*47
$GPVTG,20.26,T,,M,0.90,N,1.66,K,D*06
$GPGGA,200130.000,4744.0658,N,12224.2136,W,2,10,0.80,-12.6,M,-17.3,M,0000,0000*4D
$GPVTG,18.69,T,,M,0.87,N,1.62,K,D*04
$GPGGA,200130.250,4744.0659,N,12224.2135,W,2,10,0.80,-12.7,M,-17.3,M,0000,0000*49
$GPVTG,18.22,T,,M,0.87,N,1.62,K,D*0B
$GPGGA,200130.500,4744.0660,N,12224.2135,W,2,10,0.80,-12.7,M,-17.3,M,0000,0000*41
$GPRMC,200130.500,A,4744.0660,N,12224.2135,W,0.88,16.57,050522,,,D*48
$GPVTG,16.57,T,,M,0.88,N,1.63,K,D*09
$GPGGA,200130.750,4744.0660,N,12224.2135,W,2,10,0.80,-12.7,M,-17.3,M,0000,0000*46
$GPVTG,13.77,T,,M,0.86,N,1.60,K,D*03
$GPGGA,200131.000,4744.0661,N,12224.2135,W,2,10,0.82,-12.6,M,-17.3,M,0000,0000*47
$GPVTG,13.00,T,,M,0.86,N,1.59,K,D*09
$GPGGA,200131.250,4744.0661,N,12224.2135,W,2,10,0.82,-12.6,M,-17.3,M,0000,0000*40
$GPVTG,12.62,T,,M,0.84,N,1.56,K,D*01
$GPGGA,200131.500,4744.0662,N,12224.2135,W,2,10,0.82,-12.6,M,-17.3,M,0000,0000*41
$GPRMC,200131.500,A,4744.0662,N,12224.2135,W,0.82,13.10,050522,,,D*47
$GPVTG,13.10,T,,M,0.82,N,1.51,K,D*04
$GPGGA,200131.750,4744.0662,N,12224.2134,W,2,10,0.82,-12.6,M,-17.3,M,0000,0000*47
$GPVTG,13.20,T,,M,0.79,N,1.47,K,D*04
$GPGGA,200132.000,4744.0662,N,12224.2135,W,2,10,0.82,-12.6,M,-17.3,M,0000,0000*47
$GPVTG,13.11,T,,M,0.77,N,1.43,K,D*0C
$GPGGA,200132.250,4744.0663,N,12224.2135,W,2,10,0.82,-12.6,M,-17.3,M,0000,0000*41
$GPVTG,13.03,T,,M,0.77,N,1.42,K,D*0E
$GPGGA,200132.500,4744.0664,N,12224.2134,W,2,10,0.82,-12.7,M,-17.3,M,0000,0000*44
$GPRMC,200132.500,A,4744.0664,N,12224.2134,W,0.77,13.03,050522,,,D*4B
$GPVTG,13.03,T,,M,0.77,N,1.43,K,D*0F
$GPGGA,200132.750,4744.0664,N,12224.2134,W,2,10,0.82,-12.7,M,-17.3,M,0000,0000*43
$GPVTG,13.09,T,,M,0.78,N,1.45,K,D*0C
$GPGGA,200133.000,4744.0665,N,12224.2133,W,2,10,0.82,-12.7,M,-17.3,M,0000,0000*46
$GPVTG,14.74,T,,M,1.11,N,2.06,K,D*0B
$GPGGA,200133.250,4744.0666,N,12224.2133,W,2,10,0.80,-12.7,M,-17.3,M,0000,0000*40
$GPVTG,16.48,T,,M,1.12,N,2.08,K,D*0B
$GPGGA,200133.500,4744.0666,N,12224.2132,W,2,10,0.82,-12.7,M,-17.3,M,0000,0000*41
$GPRMC,200133.500,A,4744.0666,N,12224.2132,W,1.08,17.57,050522,,,D*42
$GPVTG,17.57,T,,M,1.08,N,2.00,K,D*07
$GPGGA,200133.750,4744.0667,N,12224.2132,W,2,10,0.82,-12.7,M,-17.3,M,0000,0000*47
$GPVTG,18.50,T,,M,1.06,N,1.96,K,D*0D
$GPGGA,200134.000,4744.0667,N,12224.2132,W,2,10,0.82,-12.7,M,-17.3,M,0000,0000*42
$GPVTG,24.88,T,,M,1.01,N,1.87,K,D*00
$GPGGA,200134.250,4744.0667,N,12224.2132,W,2,10,0.80,-12.7,M,-17.3,M,0000,0000*47
$GPVTG,16.38,T,,M,0.81,N,1.51,K,D*08
$GPGGA,200134.500,4744.0667,N,12224.2132,W,2,10,0.80,-12.7,M,-17.3,M,0000,0000*45
$GPRMC,200134.500,A,4744.0667,N,12224.2132,W,0.78,13.24,050522,,,D*42
$GPVTG,13.24,T,,M,0.78,N,1.45,K,D*03
$GPGGA,200134.750,4744.0668,N,12224.2132,W,2,10,0.82,-12.7,M,-17.3,M,0000,0000*4F
$GPVTG,10.03,T,,M,0.76,N,1.41,K,D*0F
$GPGGA,200135.000,4744.0668,N,12224.2133,W,2,10,0.82,-12.7,M,-17.3,M,0000,0000*4D
$GPVTG,7.79,T,,M,0.75,N,1.39,K,D*38
$GPGGA,200135.250,4744.0669,N,12224.2132,W,2,10,0.82,-12.7,M,-17.3,M,0000,0000*4A
$GPVTG,7.88,T,,M,0.75,N,1.38,K,D*37
$GPGGA,200135.500,4744.0670,N,12224.2132,W,2,10,0.82,-12.7,M,-17.3,M,0000,0000*40
$GPRMC,200135.500,A,4744.0670,N,12224.2132,W,0.75,8.93,050522,,,D*7E
$GPVTG,8.93,T,,M,0.75,N,1.39,K,D*33
$GPGGA,200135.750,4744.0670,N,12224.2132,W,2,10,0.82,-12.7,M,-17.3,M,0000,0000*47
$GPVTG,11.27,T,,M,0.76,N,1.41,K,D*08
$GPGGA,200136.000,4744.0671,N,12224.2132,W,2,10,0.82,-12.7,M,-17.3,M,0000,0000*47
$GPVTG,11.36,T,,M,0.79,N,1.46,K,D*00
$GPGGA,200136.250,4744.0672,N,12224.2132,W,2,10,0.82,-12.7,M,-17.3,M,0000,0000*43
$GPVTG,13.63,T,,M,0.95,N,1.75,K,D*00
$GPGGA,200136.500,4744.0673,N,12224.2131,W,2,10,0.82,-12.7,M,-17.3,M,0000,0000*43
$GPRMC,200136.500,A,4744.0673,N,12224.2131,W,0.96,12.82,050522,,,D*4B
$GPVTG,12.82,T,,M,0.96,N,1.79,K,D*01
$GPGGA,200136.750,4744.0673,N,12224.2131,W,2,10,0.82,-12.7,M,-17.3,M,0000,0000*44
$GPVTG,13.68,T,,M,0.97,N,1.80,K,D*03
$GPGGA,200137.000,4744.0674,N,12224.2131,W,2,10,0.82,-12.7,M,-17.3,M,0000,0000*40
$GPVTG,13.65,T,,M,0.98,N,1.81,K,D*00
$GPGGA,200137.250,4744.0675,N,12224.2131,W,2,10,0.82,-12.7,M,-17.3,M,0000,0000*46
$GPVTG,10.25,T,,M,0.99,N,1.84,K,D*03
$GPGGA,200137.500,4744.0676,N,12224.2130,W,2,10,0.82,-12.7,M,-17.3,M,0000,0000*46
$GPRMC,200137.500,A,4744.0676,N,12224.2130,W,1.03,9.72,050522,,,D*76
$GPVTG,9.72,T,,M,1.03,N,1.90,K,D*3E
$GPGGA,200137.750,4744.0677,N,12224.2131,W,2,10,0.82,-12.7,M,-17.3,M,0000,0000*41
$GPVTG,5.16,T,,M,1.07,N,1.98,K,D*3C
$GPGGA,200138.000,4744.0678,N,12224.2131,W,2,10,0.82,-12.8,M,-17.3,M,0000,0000*4C
$GPVTG,1.18,T,,M,1.05,N,1.95,K,D*39
$GPGGA,200138.250,4744.0678,N,12224.2131,W,2,10,0.82,-12.9,M,-17.3,M,0000,0000*4A
$GPVTG,13.12,T,,M,0.68,N,1.25,K,D*01
$GPGGA,200138.500,4744.0678,N,12224.2130,W,2,10,0.82,-12.9,M,-17.3,M,0000,0000*49
$GPRMC,200138.500,A,4744.0678,N,12224.2130,W,0.65,12.20,050522,,,D*4B
$GPVTG,12.20,T,,M,0.65,N,1.21,K,D*08
$GPGGA,200138.750,4744.0678,N,12224.2130,W,2,10,0.82,-12.9,M,-17.3,M,0000,0000*4E
$GPVTG,12.87,T,,M,0.63,N,1.16,K,D*07
$GPGGA,200139.000,4744.0679,N,12224.2130,W,2,10,0.82,-12.9,M,-17.3,M,0000,0000*4C
$GPVTG,7.36,T,,M,0.65,N,1.20,K,D*3A
$GPGGA,200139.250,4744.0680,N,12224.2130,W,2,10,0.82,-12.9,M,-17.3,M,0000,0000*4D
$GPVTG,11.56,T,,M,0.82,N,1.52,K,D*07
$GPGGA,200139.500,4744.0680,N,12224.2129,W,2,10,0.82,-12.9,M,-17.3,M,0000,0000*47
$GPRMC,200139.500,A,4744.0680,N,12224.2129,W,0.88,15.65,050522,,,D*40
$GPVTG,15.65,T,,M,0.88,N,1.64,K,D*0C
$GPGGA,200139.750,4744.0681,N,12224.2129,W,2,10,0.80,-12.9,M,-17.3,M,0000,0000*43
$GPVTG,21.01,T,,M,1.04,N,1.93,K,D*04
$GPGGA,200140.000,4744.0682,N,12224.2129,W,2,10,0.80,-12.9,M,-17.3,M,0000,0000*4C
$GPVTG,13.15,T,,M,1.04,N,1.92,K,D*01
$GPGGA,200140.250,4744.0682,N,12224.2129,W,2,10,0.82,-13.0,M,-17.3,M,0000,0000*41
$GPVTG,324.37,T,,M,1.11,N,2.06,K,D*3C
$GPGGA,200140.500,4744.0683,N,12224.2130,W,2,10,0.80,-13.0,M,-17.3,M,0000,0000*48
$GPRMC,200140.500,A,4744.0683,N,12224.2130,W,1.14,322.51,050522,,,D*71
$GPVTG,322.51,T,,M,1.14,N,2.11,K,D*39
$GPGGA,200140.750,4744.0683,N,12224.2129,W,2,10,0.80,-13.1,M,-17.3,M,0000,0000*46
$GPVTG,2.65,T,,M,0.74,N,1.37,K,D*3F
$GPGGA,200141.000,4744.0684,N,12224.2129,W,2,10,0.82,-13.1,M,-17.3,M,0000,0000*40
$GPVTG,33.04,T,,M,0.76,N,1.41,K,D*09
$GPGGA,200141.250,4744.0685,N,12224.2129,W,2,10,0.80,-13.1,M,-17.3,M,0000,0000*44
$GPVTG,20.16,T,,M,1.04,N,1.93,K,D*03
$GPGGA,200141.500,4744.0686,N,12224.2129,W,2,10,0.80,-13.0,M,-17.3,M,0000,0000*44
$GPRMC,200141.500,A,4744.0686,N,12224.2129,W,1.09,10.94,050522,,,D*4A
$GPVTG,10.94,T,,M,1.09,N,2.01,K,D*0F
$GPGGA,200141.750,4744.0687,N,12224.2129,W,2,10,0.82,-12.9,M,-17.3,M,0000,0000*48
$GPVTG,6.42,T,,M,1.27,N,2.35,K,D*38
$GPGGA,200142.000,4744.0688,N,12224.2128,W,2,10,0.82,-12.8,M,-17.3,M,0000,0000*46
$GPVTG,24.29,T,,M,1.20,N,2.22,K,D*04
$GPGGA,200142.250,4744.0689,N,12224.2128,W,2,10,0.80,-12.7,M,-17.3,M,0000,0000*4D
$GPVTG,33.70,T,,M,1.18,N,2.18,K,D*0C
$GPGGA,200142.500,4744.0690,N,12224.2127,W,2,10,0.80,-12.8,M,-17.3,M,0000,0000*47
$GPRMC,200142.500,A,4744.0690,N,12224.2127,W,0.95,14.21,050522,,,D*4E
$GPVTG,14.21,T,,M,0.95,N,1.77,K,D*03
$GPGGA,200142.750,4744.0690,N,12224.2127,W,2,10,0.82,-12.9,M,-17.3,M,0000,0000*43
$GPVTG,347.62,T,,M,0.97,N,1.80,K,D*3B
$GPGGA,200143.000,4744.0691,N,12224.2127,W,2,10,0.82,-12.8,M,-17.3,M,0000,0000*40
$GPVTG,346.89,T,,M,1.15,N,2.14,K,D*3A
$GPGGA,200143.250,4744.0692,N,12224.2127,W,2,10,0.82,-12.8,M,-17.3,M,0000,0000*44
$GPVTG,355.32,T,,M,0.94,N,1.74,K,D*35
$GPGGA,200143.500,4744.0692,N,12224.2127,W,2,10,0.82,-12.8,M,-17.3,M,0000,0000*46
$GPRMC,200143.500,A,4744.0692,N,12224.2127,W,1.01,13.52,050522,,,D*42
$GPVTG,13.52,T,,M,1.01,N,1.88,K,D*0C
$GPGGA,200143.750,4744.0693,N,12224.2127,W,2,10,0.82,-12.7,M,-17.3,M,0000,0000*4F
$GPVTG,33.30,T,,M,1.25,N,2.32,K,D*0E
$GPGGA,200144.000,4744.0694,N,12224.2126,W,2,10,0.80,-12.7,M,-17.3,M,0000,0000*4E
$GPVTG,30.09,T,,M,1.00,N,1.85,K,D*0F
$GPGGA,200144.250,4744.0695,N,12224.2126,W,2,10,0.80,-12.6,M,-17.3,M,0000,0000*49
$GPVTG,15.61,T,,M,0.84,N,1.55,K,D*06
$GPGGA,200144.500,4744.0696,N,12224.2125,W,2,10,0.80,-12.6,M,-17.3,M,0000,0000*4B
$GPRMC,200144.500,A,4744.0696,N,12224.2125,W,1.19,9.52,050522,,,D*71
$GPVTG,9.52,T,,M,1.19,N,2.21,K,D*3E
$GPGGA,200144.750,4744.0696,N,12224.2125,W,2,10,0.82,-12.6,M,-17.3,M,0000,0000*4E
$GPVTG,0.57,T,,M,1.16,N,2.15,K,D*3A
$GPGGA,200145.000,4744.0697,N,12224.2125,W,2,10,0.82,-12.6,M,-17.3,M,0000,0000*4C
$GPVTG,354.70,T,,M,0.87,N,1.61,K,D*34
$GPGGA,200145.250,4744.0698,N,12224.2125,W,2,10,0.82,-12.6,M,-17.3,M,0000,0000*44
$GPVTG,12.85,T,,M,0.92,N,1.70,K,D*0B
$GPGGA,200145.500,4744.0698,N,12224.2124,W,2,10,0.82,-12.5,M,-17.3,M,0000,0000*44
$GPRMC,200145.500,A,4744.0698,N,12224.2124,W,1.37,34.72,050522,,,D*4F
$GPVTG,34.72,T,,M,1.37,N,2.53,K,D*0B
$GPGGA,200145.750,4744.0699,N,12224.2124,W,2,10,0.80,-12.5,M,-17.3,M,0000,0000*40
$GPVTG,25.60,T,,M,1.37,N,2.55,K,D*0E
$GPGGA,200146.000,4744.0700,N,12224.2124,W,2,10,0.80,-12.4,M,-17.3,M,0000,0000*41
$GPVTG,353.33,T,,M,1.56,N,2.88,K,D*3D
$GPGGA,200146.250,4744.0701,N,12224.2124,W,2,10,0.82,-12.5,M,-17.3,M,0000,0000*44
$GPVTG,345.96,T,,M,1.19,N,2.21,K,D*3D
$GPGGA,200146.500,4744.0702,N,12224.2124,W,2,10,0.82,-12.5,M,-17.3,M,0000,0000*45
$GPRMC,200146.500,A,4744.0702,N,12224.2124,W,0.49,345.96,050522,,,D*79
$GPVTG,345.96,T,,M,0.49,N,0.90,K,D*31
$GPGGA,200146.750,4744.0702,N,12224.2124,W,2,10,0.80,-12.4,M,-17.3,M,0000,0000*41
$GPVTG,345.96,T,,M,0.50,N,0.92,K,D*3B
$GPGGA,200147.000,4744.0703,N,12224.2124,W,2,10,0.82,-12.5,M,-17.3,M,0000,0000*40
$GPVTG,345.96,T,,M,0.50,N,0.92,K,D*3B
$GPGGA,200147.250,4744.0703,N,12224.2124,W,2,10,0.82,-12.4,M,-17.3,M,0000,0000*46
$GPVTG,14.07,T,,M,0.57,N,1.05,K,D*0C
$GPGGA,200147.500,4744.0704,N,12224.2123,W,2,10,0.82,-12.4,M,-17.3,M,0000,0000*44
$GPRMC,200147.500,A,4744.0704,N,12224.2123,W,0.76,19.22,050522,,,D*40
$GPVTG,19.22,T,,M,0.76,N,1.41,K,D*05
$GPGGA,200147.750,4744.0704,N,12224.2123,W,2,10,0.80,-12.4,M,-17.3,M,0000,0000*41
$GPVTG,19.64,T,,M,0.79,N,1.46,K,D*0F
$GPGGA,200148.000,4744.0705,N,12224.2123,W,2,10,0.80,-12.4,M,-17.3,M,0000,0000*4D
$GPVTG,7.09,T,,M,0.85,N,1.57,K,D*38
$GPGGA,200148.250,4744.0706,N,12224.2123,W,2,10,0.82,-12.4,M,-17.3,M,0000,0000*4B
$GPVTG,4.81,T,,M,0.92,N,1.70,K,D*38
$GPGGA,200148.500,4744.0707,N,12224.2123,W,2,10,0.82,-12.4,M,-17.3,M,0000,0000*48
$GPRMC,200148.500,A,4744.0707,N,12224.2123,W,1.11,14.83,050522,,,D*4A
$GPVTG,14.83,T,,M,1.11,N,2.07,K,D*02
$GPGGA,200148.750,4744.0708,N,12224.2123,W,2,10,0.82,-12.4,M,-17.3,M,0000,0000*40
$GPVTG,15.73,T,,M,1.15,N,2.14,K,D*0A
$GPGGA,200149.000,4744.0709,N,12224.2122,W,2,10,0.80,-12.4,M,-17.3,M,0000,0000*41
$GPVTG,11.67,T,,M,1.20,N,2.21,K,D*0B
$GPGGA,200149.250,4744.0710,N,12224.2122,W,2,10,0.82,-12.4,M,-17.3,M,0000,0000*4C
$GPVTG,16.61,T,,M,1.19,N,2.20,K,D*01
$GPGGA,200149.500,4744.0710,N,12224.2122,W,2,10,0.80,-12.4,M,-17.3,M,0000,0000*4C
$GPRMC,200149.500,A,4744.0710,N,12224.2122,W,0.65,4.83,050522,,,D*7F
$GPVTG,4.83,T,,M,0.65,N,1.21,K,D*36
$GPGGA,200149.750,4744.0710,N,12224.2122,W,2,10,0.82,-12.3,M,-17.3,M,0000,0000*4E
$GPVTG,348.47,T,,M,0.62,N,1.16,K,D*36
$GPGGA,200150.000,4744.0711,N,12224.2122,W,2,10,0.82,-12.3,M,-17.3,M,0000,0000*45
$GPVTG,6.51,T,,M,0.63,N,1.17,K,D*38
$GPGGA,200150.250,4744.0712,N,12224.2122,W,2,10,0.82,-12.1,M,-17.3,M,0000,0000*43
$GPVTG,359.57,T,,M,1.03,N,1.90,K,D*3F
$GPGGA,200150.500,4744.0712,N,12224.2122,W,2,10,0.82,-12.1,M,-17.3,M,0000,0000*41
$GPRMC,200150.500,A,4744.0712,N,12224.2122,W,1.47,351.93,050522,,,D*76
$GPVTG,351.93,T,,M,1.47,N,2.73,K,D*31
$GPGGA,200150.750,4744.0713,N,12224.2122,W,2,10,0.82,-11.9,M,-17.3,M,0000,0000*4C
$GPVTG,26.21,T,,M,1.47,N,2.72,K,D*0A
$GPGGA,200151.000,4744.0714,N,12224.2121,W,2,10,0.80,-11.9,M,-17.3,M,0000,0000*49
$GPVTG,44.65,T,,M,2.06,N,3.82,K,D*06
$GPGGA,200151.250,4744.0715,N,12224.2119,W,2,10,0.80,-11.9,M,-17.3,M,0000,0000*44
$GPVTG,43.33,T,,M,2.05,N,3.80,K,D*03
$GPGGA,200151.500,4744.0716,N,12224.2119,W,2,10,0.80,-11.9,M,-17.3,M,0000,0000*45
$GPRMC,200151.500,A,4744.0716,N,12224.2119,W,1.87,37.89,050522,,,D*4F
$GPVTG,37.89,T,,M,1.87,N,3.46,K,D*02
$GPGGA,200151.750,4744.0717,N,12224.2118,W,2,10,0.80,-11.8,M,-17.3,M,0000,0000*43
$GPVTG,21.26,T,,M,1.61,N,2.99,K,D*0B
$GPGGA,200152.000,4744.0718,N,12224.2117,W,2,10,0.80,-11.8,M,-17.3,M,0000,0000*42
$GPVTG,16.82,T,,M,1.60,N,2.97,K,D*0E
$GPGGA,200152.250,4744.0719,N,12224.2117,W,2,10,0.80,-11.8,M,-17.3,M,0000,0000*44
$GPVTG,14.75,T,,M,1.59,N,2.95,K,D*0C
$GPGGA,200152.500,4744.0720,N,12224.2116,W,2,10,0.82,-11.8,M,-17.3,M,0000,0000*4F
$GPRMC,200152.500,A,4744.0720,N,12224.2116,W,1.81,13.22,050522,,,D*47
$GPVTG,13.22,T,,M,1.81,N,3.35,K,D*07
$GPGGA,200152.750,4744.0721,N,12224.2116,W,2,10,0.82,-11.8,M,-17.3,M,0000,0000*49
$GPVTG,16.24,T,,M,1.74,N,3.23,K,D*09
$GPGGA,200153.000,4744.0722,N,12224.2116,W,2,10,0.80,-11.8,M,-17.3,M,0000,0000*4B
$GPVTG,15.48,T,,M,1.48,N,2.75,K,D*0D
$GPGGA,200153.250,4744.0722,N,12224.2115,W,2,10,0.80,-11.7,M,-17.3,M,0000,0000*40
$GPVTG,12.47,T,,M,1.23,N,2.28,K,D*00
$GPGGA,200153.500,4744.0723,N,12224.2115,W,2,10,0.82,-11.7,M,-17.3,M,0000,0000*41
$GPRMC,200153.500,A,4744.0723,N,12224.2115,W,1.23,11.32,050522,,,D*4D
$GPVTG,11.32,T,,M,1.23,N,2.28,K,D*01
$GPGGA,200153.750,4744.0724,N,12224.2115,W,2,10,0.82,-11.7,M,-17.3,M,0000,0000*41
$GPVTG,3.29,T,,M,1.20,N,2.22,K,D*31
$GPGGA,200154.000,4744.0724,N,12224.2114,W,2,10,0.82,-11.7,M,-17.3,M,0000,0000*45
$GPVTG,3.36,T,,M,1.15,N,2.13,K,D*3B
$GPGGA,200154.250,4744.0724,N,12224.2114,W,2,10,0.82,-11.6,M,-17.3,M,0000,0000*43
$GPVTG,7.68,T,,M,1.12,N,2.07,K,D*36
$GPGGA,200154.500,4744.0725,N,12224.2113,W,2,10,0.82,-11.6,M,-17.3,M,0000,0000*47
$GPRMC,200154.500,A,4744.0725,N,12224.2113,W,1.09,11.73,050522,,,D*47
$GPVTG,11.73,T,,M,1.09,N,2.02,K,D*04
$GPGGA,200154.750,4744.0725,N,12224.2113,W,2,10,0.82,-11.6,M,-17.3,M,0000,0000*40
$GPVTG,16.80,T,,M,1.07,N,1.99,K,D*00
$GPGGA,200155.000,4744.0726,N,12224.2113,W,2,10,0.80,-11.6,M,-17.3,M,0000,0000*42
$GPVTG,19.62,T,,M,1.07,N,1.98,K,D*02
$GPGGA,200155.250,4744.0727,N,12224.2112,W,2,10,0.80,-11.6,M,-17.3,M,0000,0000*45
$GPVTG,20.12,T,,M,1.06,N,1.97,K,D*01
$GPGGA,200155.500,4744.0727,N,12224.2111,W,2,10,0.80,-11.5,M,-17.3,M,0000,0000*47
$GPRMC,200155.500,A,4744.0727,N,12224.2111,W,0.87,16.89,050522,,,D*43
$GPVTG,16.89,T,,M,0.87,N,1.61,K,D*07
$GPGGA,200155.750,4744.0727,N,12224.2111,W,2,10,0.80,-11.5,M,-17.3,M,0000,0000*40
$GPVTG,19.19,T,,M,0.86,N,1.59,K,D*0B
$GPGGA,200156.000,4744.0727,N,12224.2110,W,2,10,0.80,-11.5,M,-17.3,M,0000,0000*40
$GPVTG,24.85,T,,M,0.85,N,1.57,K,D*0D
$GPGGA,200156.250,4744.0728,N,12224.2110,W,2,10,0.80,-11.5,M,-17.3,M,0000,0000*48
$GPVTG,27.42,T,,M,0.83,N,1.54,K,D*00
$GPGGA,200156.500,4744.0728,N,12224.2109,W,2,10,0.80,-11.4,M,-17.3,M,0000,0000*43
$GPRMC,200156.500,A,4744.0728,N,12224.2109,W,0.82,28.75,050522,,,D*4D
$GPVTG,28.75,T,,M,0.82,N,1.52,K,D*0C
$GPGGA,200156.750,4744.0728,N,12224.2109,W,2,10,0.80,-11.4,M,-17.3,M,0000,0000*44
$GPVTG,31.28,T,,M,0.82,N,1.51,K,D*0F
