$GPGGA,000153.000,4739.3550,N,12219.2662,W,2,09,1.04,335.8,M,-17.3,M,0000,0000*50
$GPVTG,187.15,T,,M,0.01,N,0.02,K,D*31
$GPGGA,000153.250,4739.3550,N,12219.2662,W,2,09,1.04,335.8,M,-17.3,M,0000,0000*57
$GPVTG,187.15,T,,M,0.00,N,0.01,K,D*33
$GPGGA,000153.500,4739.3550,N,12219.2662,W,2,09,1.04,335.8,M,-17.3,M,0000,0000*55
$GPRMC,000153.500,A,4739.3550,N,12219.2662,W,0.01,187.15,170822,,,D*7D
$GPVTG,187.15,T,,M,0.01,N,0.02,K,D*31
$GPGGA,000153.750,4739.3550,N,12219.2662,W,2,09,1.15,335.8,M,-17.3,M,0000,0000*52
$GPVTG,187.15,T,,M,0.01,N,0.02,K,D*31
$GPGGA,000154.000,4739.3550,N,12219.2662,W,2,09,1.04,335.8,M,-17.3,M,0000,0000*57
$GPVTG,187.15,T,,M,0.01,N,0.01,K,D*32
$GPGGA,000154.250,4739.3550,N,12219.2662,W,2,09,1.04,335.8,M,-17.3,M,0000,0000*50
$GPVTG,187.15,T,,M,0.00,N,0.01,K,D*33
$GPGGA,000154.500,4739.3550,N,12219.2662,W,2,09,1.04,335.8,M,-17.3,M,0000,0000*52
$GPRMC,000154.500,A,4739.3550,N,12219.2662,W,0.00,187.15,170822,,,D*7B
$GPVTG,187.15,T,,M,0.00,N,0.01,K,D*33
$GPGGA,000154.750,4739.3550,N,12219.2662,W,2,09,1.04,335.8,M,-17.3,M,0000,0000*55
$GPVTG,187.15,T,,M,0.00,N,0.01,K,D*33
$GPGGA,000155.000,4739.3550,N,12219.2662,W,2,09,1.04,335.8,M,-17.3,M,0000,0000*56
$GPVTG,187.15,T,,M,0.01,N,0.01,K,D*32
$GPGGA,000155.250,4739.3550,N,12219.2662,W,2,09,1.04,335.8,M,-17.3,M,0000,0000*51
$GPVTG,187.15,T,,M,0.01,N,0.02,K,D*31
$GPGGA,000155.500,4739.3550,N,12219.2662,W,2,09,1.04,335.8,M,-17.3,M,0000,0000*53
$GPRMC,000155.500,A,4739.3550,N,12219.2662,W,0.01,187.15,170822,,,D*7B
$GPVTG,187.15,T,,M,0.01,N,0.01,K,D*32
$GPGGA,000155.750,4739.3550,N,12219.2662,W,2,09,1.04,335.8,M,-17.3,M,0000,0000*54
$GPVTG,187.15,T,,M,0.00,N,0.01,K,D*33
$GPGGA,000156.000,4739.3550,N,12219.2662,W,2,09,1.04,335.8,M,-17.3,M,0000,0000*55
$GPVTG,187.15,T,,M,0.00,N,0.00,K,D*32
$GPGGA,000156.250,4739.3550,N,12219.2662,W,2,09,1.04,335.8,M,-17.3,M,0000,0000*52
$GPVTG,187.15,T,,M,0.00,N,0.00,K,D*32
$GPGGA,000156.500,4739.3550,N,12219.2662,W,2,09,1.04,335.8,M,-17.3,M,0000,0000*50
$GPRMC,000156.500,A,4739.3550,N,12219.2662,W,0.00,187.15,170822,,,D*79
$GPVTG,187.15,T,,M,0.00,N,0.00,K,D*32
$GPGGA,000156.750,4739.3550,N,12219.2662,W,2,09,1.04,335.8,M,-17.3,M,0000,0000*57
$GPVTG,187.15,T,,M,0.00,N,0.00,K,D*32
$GPGGA,000157.000,4739.3550,N,12219.2662,W,2,09,1.04,335.8,M,-17.3,M,0000,0000*54
$GPVTG,187.15,T,,M,0.00,N,0.00,K,D*32
$GPGGA,000157.250,4739.3550,N,12219.2662,W,2,09,1.04,335.8,M,-17.3,M,0000,0000*53
$GPVTG,187.15,T,,M,0.00,N,0.00,K,D*32
$GPGGA,000157.500,4739.3550,N,12219.2662,W,2,09,1.04,335.8,M,-17.3,M,0000,0000*51
$GPRMC,000157.500,A,4739.3550,N,12219.2662,W,0.00,187.15,170822,,,D*78
$GPVTG,187.15,T,,M,0.00,N,0.00,K,D*32
$GPGGA,000157.750,4739.3550,N,12219.2662,W,2,09,1.04,335.8,M,-17.3,M,0000,0000*56
$GPVTG,187.15,T,,M,0.00,N,0.00,K,D*32
$GPGGA,000158.000,4739.3550,N,12219.2662,W,2,09,1.04,335.8,M,-17.3,M,0000,0000*5B
$GPVTG,187.15,T,,M,0.00,N,0.00,K,D*32
$GPGGA,000158.250,4739.3550,N,12219.2662,W,2,09,1.04,335.8,M,-17.3,M,0000,0000*5C
$GPVTG,187.15,T,,M,0.00,N,0.00,K,D*32
$GPGGA,000158.500,4739.3550,N,12219.2662,W,2,09,1.04,335.8,M,-17.3,M,0000,0000*5E
$GPRMC,000158.500,A,4739.3550,N,12219.2662,W,0.00,187.15,170822,,,D*77
$GPVTG,187.15,T,,M,0.00,N,0.00,K,D*32
$GPGGA,000158.750,4739.3550,N,12219.2662,W,2,09,1.04,335.8,M,-17.3,M,0000,0000*59
$GPVTG,187.15,T,,M,0.00,N,0.00,K,D*32
$GPGGA,000159.000,4739.3550,N,12219.2662,W,2,09,1.04,335.8,M,-17.3,M,0000,0000*5A
$GPVTG,187.15,T,,M,0.00,N,0.00,K,D*32
$GPGGA,000159.250,4739.3550,N,12219.2662,W,2,09,1.04,335.8,M,-17.3,M,0000,0000*5D
$GPVTG,187.15,T,,M,0.00,N,0.00,K,D*32
$GPGGA,000159.500,4739.3550,N,12219.2662,W,2,09,1.04,335.8,M,-17.3,M,0000,0000*5F
$GPRMC,000159.500,A,4739.3550,N,12219.2662,W,0.00,187.15,170822,,,D*76
$GPVTG,187.15,T,,M,0.00,N,0.00,K,D*32
$GPGGA,000159.750,4739.3550,N,12219.2662,W,2,09,1.04,335.8,M,-17.3,M,0000,0000*58
$GPVTG,187.15,T,,M,0.00,N,0.00,K,D*32
$GPGGA,000200.000,4739.3550,N,12219.2662,W,2,09,1.04,335.8,M,-17.3,M,0000,0000*55
$GPVTG,187.15,T,,M,0.00,N,0.00,K,D*32
$GPGGA,000200.250,4739.3550,N,12219.2662,W,2,09,1.04,335.8,M,-17.3,M,0000,0000*52
$GPVTG,187.15,T,,M,0.00,N,0.00,K,D*32
$GPGGA,000200.500,4739.3550,N,12219.2662,W,2,09,1.04,335.8,M,-17.3,M,0000,0000*50
$GPRMC,000200.500,A,4739.3550,N,12219.2662,W,0.00,187.15,170822,,,D*79
$GPVTG,187.15,T,,M,0.00,N,0.01,K,D*33
$GPGGA,000200.750,4739.3550,N,12219.2662,W,2,09,1.04,335.8,M,-17.3,M,0000,0000*57
$GPVTG,187.15,T,,M,0.00,N,0.01,K,D*33
$GPGGA,000201.000,4739.3550,N,12219.2662,W,2,09,1.04,335.8,M,-17.3,M,0000,0000*54
$GPVTG,187.15,T,,M,0.00,N,0.01,K,D*33
$GPGGA,000201.250,4739.3550,N,12219.2662,W,2,09,1.04,335.8,M,-17.3,M,0000,0000*53
$GPVTG,187.15,T,,M,0.00,N,0.00,K,D*32
$GPGGA,000201.500,4739.3550,N,12219.2662,W,2,09,1.04,335.8,M,-17.3,M,0000,0000*51
$GPRMC,000201.500,A,4739.3550,N,12219.2662,W,0.00,187.15,170822,,,D*78
$GPVTG,187.15,T,,M,0.00,N,0.01,K,D*33
$GPGGA,000201.750,4739.3550,N,12219.2662,W,2,09,1.04,335.8,M,-17.3,M,0000,0000*56
$GPVTG,187.15,T,,M,0.00,N,0.00,K,D*32
$GPGGA,000202.000,4739.3550,N,12219.2662,W,2,09,1.04,335.8,M,-17.3,M,0000,0000*57
$GPVTG,187.15,T,,M,0.00,N,0.00,K,D*32
$GPGGA,000202.250,4739.3550,N,12219.2662,W,2,09,1.04,335.8,M,-17.3,M,0000,0000*50
$GPVTG,187.15,T,,M,0.00,N,0.00,K,D*32
$GPGGA,000202.500,4739.3550,N,12219.2662,W,2,09,1.04,335.8,M,-17.3,M,0000,0000*52
$GPRMC,000202.500,A,4739.3550,N,12219.2662,W,0.00,187.15,170822,,,D*7B
$GPVTG,187.15,T,,M,0.00,N,0.00,K,D*32
$GPGGA,000202.750,4739.3550,N,12219.2662,W,2,09,1.04,335.8,M,-17.3,M,0000,0000*55
$GPVTG,187.15,T,,M,0.01,N,0.01,K,D*32
$GPGGA,000203.000,4739.3550,N,12219.2662,W,2,09,1.04,335.8,M,-17.3,M,0000,0000*56
$GPVTG,187.15,T,,M,0.01,N,0.01,K,D*32
$GPGGA,000203.250,4739.3550,N,12219.2662,W,2,09,1.04,335.8,M,-17.3,M,0000,0000*51
$GPVTG,187.15,T,,M,0.00,N,0.01,K,D*33
$GPGGA,000203.500,4739.3550,N,12219.2662,W,2,09,1.04,335.8,M,-17.3,M,0000,0000*53
$GPRMC,000203.500,A,4739.3550,N,12219.2662,W,0.00,187.15,170822,,,D*7A
$GPVTG,187.15,T,,M,0.00,N,0.00,K,D*32
$GPGGA,000203.750,4739.3550,N,12219.2662,W,2,09,1.04,335.8,M,-17.3,M,0000,0000*54
$GPVTG,187.15,T,,M,0.01,N,0.02,K,D*31
$GPGGA,000204.000,4739.3550,N,12219.2662,W,2,09,1.04,335.8,M,-17.3,M,0000,0000*51
$GPVTG,187.15,T,,M,0.00,N,0.00,K,D*32
$GPGGA,000204.250,4739.3550,N,12219.2662,W,2,09,1.04,335.8,M,-17.3,M,0000,0000*56
$GPVTG,187.15,T,,M,0.00,N,0.00,K,D*32
$GPGGA,000204.500,4739.3550,N,12219.2662,W,2,09,1.04,335.8,M,-17.3,M,0000,0000*54
$GPRMC,000204.500,A,4739.3550,N,12219.2662,W,0.00,187.15,170822,,,D*7D
$GPVTG,187.15,T,,M,0.00,N,0.00,K,D*32
$GPGGA,000204.750,4739.3550,N,12219.2662,W,2,09,1.04,335.8,M,-17.3,M,0000,0000*53
$GPVTG,187.15,T,,M,0.00,N,0.00,K,D*32
$GPGGA,000205.000,4739.3550,N,12219.2662,W,2,09,1.04,335.8,M,-17.3,M,0000,0000*50
$GPVTG,187.15,T,,M,0.00,N,0.00,K,D*32
$GPGGA,000205.250,4739.3550,N,12219.2662,W,2,09,1.04,335.8,M,-17.3,M,0000,0000*57
$GPVTG,187.15,T,,M,0.00,N,0.00,K,D*32
$GPGGA,000205.500,4739.3550,N,12219.2662,W,2,09,1.04,335.8,M,-17.3,M,0000,0000*55
$GPRMC,000205.500,A,4739.3550,N,12219.2662,W,0.00,187.15,170822,,,D*7C
$GPVTG,187.15,T,,M,0.00,N,0.00,K,D*32
$GPGGA,000205.750,4739.3550,N,12219.2662,W,2,09,1.04,335.8,M,-17.3,M,0000,0000*52
$GPVTG,187.15,T,,M,0.00,N,0.00,K,D*32
$GPGGA,000206.000,4739.3550,N,12219.2662,W,2,09,1.04,335.8,M,-17.3,M,0000,0000*53
$GPVTG,187.15,T,,M,0.00,N,0.00,K,D*32
$GPGGA,000206.250,4739.3550,N,12219.2662,W,2,09,1.04,335.8,M,-17.3,M,0000,0000*54
$GPVTG,187.15,T,,M,0.00,N,0.00,K,D*32
$GPGGA,000206.500,4739.3550,N,12219.2662,W,2,09,1.04,335.8,M,-17.3,M,0000,0000*56
$GPRMC,000206.500,A,4739.3550,N,12219.2662,W,0.00,187.15,170822,,,D*7F
$GPVTG,187.15,T,,M,0.00,N,0.00,K,D*32
$GPGGA,000206.750,4739.3550,N,12219.2662,W,2,09,1.04,335.8,M,-17.3,M,0000,0000*51
$GPVTG,187.15,T,,M,0.00,N,0.00,K,D*32
$GPGGA,000207.000,4739.3550,N,12219.2662,W,2,09,1.04,335.8,M,-17.3,M,0000,0000*52
$GPVTG,187.15,T,,M,0.00,N,0.00,K,D*32
$GPGGA,000207.250,4739.3550,N,12219.2662,W,2,09,1.04,335.8,M,-17.3,M,0000,0000*55
$GPVTG,187.15,T,,M,0.00,N,0.00,K,D*32
$GPGGA,000207.500,4739.3550,N,12219.2662,W,2,09,1.04,335.8,M,-17.3,M,0000,0000*57
$GPRMC,000207.500,A,4739.3550,N,12219.2662,W,0.00,187.15,170822,,,D*7E
$GPVTG,187.15,T,,M,0.00,N,0.00,K,D*32
$GPGGA,000207.750,4739.3550,N,12219.2662,W,2,09,1.04,335.8,M,-17.3,M,0000,0000*50
$GPVTG,187.15,T,,M,0.00,N,0.00,K,D*32
$GPGGA,000208.000,4739.3550,N,12219.2662,W,2,09,1.04,335.8,M,-17.3,M,0000,0000*5D
$GPVTG,187.15,T,,M,0.00,N,0.01,K,D*33
$GPGGA,000208.250,4739.3550,N,12219.2662,W,2,09,1.04,335.8,M,-17.3,M,0000,0000*5A
$GPVTG,187.15,T,,M,0.00,N,0.00,K,D*32
$GPGGA,000208.500,4739.3550,N,12219.2662,W,2,09,1.04,335.8,M,-17.3,M,0000,0000*58
$GPRMC,000208.500,A,4739.3550,N,12219.2662,W,0.00,187.15,170822,,,D*71
$GPVTG,187.15,T,,M,0.00,N,0.00,K,D*32
$GPGGA,000208.750,4739.3550,N,12219.2662,W,2,09,1.04,335.8,M,-17.3,M,0000,0000*5F
$GPVTG,187.15,T,,M,0.00,N,0.00,K,D*32
$GPGGA,000209.000,4739.3550,N,12219.2662,W,2,09,1.04,335.8,M,-17.3,M,0000,0000*5C
$GPVTG,187.15,T,,M,0.00,N,0.01,K,D*33
$GPGGA,000209.250,4739.3550,N,12219.2662,W,2,09,1.04,335.8,M,-17.3,M,0000,0000*5B
$GPVTG,187.15,T,,M,0.00,N,0.00,K,D*32
$GPGGA,000209.500,4739.3550,N,12219.2662,W,2,09,1.04,335.8,M,-17.3,M,0000,0000*59
$GPRMC,000209.500,A,4739.3550,N,12219.2662,W,0.00,187.15,170822,,,D*70
$GPVTG,187.15,T,,M,0.00,N,0.00,K,D*32
$GPGGA,000209.750,4739.3550,N,12219.2662,W,2,09,1.04,335.8,M,-17.3,M,0000,0000*5E
$GPVTG,187.15,T,,M,0.00,N,0.00,K,D*32
$GPGGA,000210.000,4739.3550,N,12219.2662,W,2,09,1.04,335.8,M,-17.3,M,0000,0000*54
$GPVTG,187.15,T,,M,0.00,N,0.01,K,D*33
$GPGGA,000210.250,4739.3550,N,12219.2662,W,2,09,1.04,335.8,M,-17.3,M,0000,0000*53
$GPVTG,187.15,T,,M,0.00,N,0.00,K,D*32
$GPGGA,000210.500,4739.3550,N,12219.2662,W,2,09,1.04,335.8,M,-17.3,M,0000,0000*51
$GPRMC,000210.500,A,4739.3550,N,12219.2662,W,0.00,187.15,170822,,,D*78
$GPVTG,187.15,T,,M,0.00,N,0.00,K,D*32
$GPGGA,000210.750,4739.3550,N,12219.2662,W,2,09,1.04,335.8,M,-17.3,M,0000,0000*56
$GPVTG,187.15,T,,M,0.00,N,0.00,K,D*32
$GPGGA,000211.000,4739.3550,N,12219.2662,W,2,09,1.04,335.8,M,-17.3,M,0000,0000*55
$GPVTG,187.15,T,,M,0.00,N,0.00,K,D*32
$GPGGA,000211.250,4739.3550,N,12219.2662,W,2,09,1.04,335.8,M,-17.3,M,0000,0000*52
$GPVTG,187.15,T,,M,0.00,N,0.01,K,D*33
$GPGGA,000211.500,4739.3550,N,12219.2662,W,2,09,1.04,335.8,M,-17.3,M,0000,0000*50
$GPRMC,000211.500,A,4739.3550,N,12219.2662,W,0.00,187.15,170822,,,D*79
$GPVTG,187.15,T,,M,0.00,N,0.00,K,D*32
$GPGGA,000211.750,4739.3550,N,12219.2662,W,2,09,1.04,335.8,M,-17.3,M,0000,0000*57
$GPVTG,187.15,T,,M,0.00,N,0.00,K,D*32
$GPGGA,000212.000,4739.3550,N,12219.2662,W,2,09,1.04,335.8,M,-17.3,M,0000,0000*56
$GPVTG,187.15,T,,M,0.00,N,0.00,K,D*32
$GPGGA,000212.250,4739.3550,N,12219.2662,W,2,09,1.04,335.8,M,-17.3,M,0000,0000*51
$GPVTG,187.15,T,,M,0.00,N,0.00,K,D*32
$GPGGA,000212.500,4739.3550,N,12219.2662,W,2,09,1.04,335.8,M,-17.3,M,0000,0000*53
$GPRMC,000212.500,A,4739.3550,N,12219.2662,W,0.00,187.15,170822,,,D*7A
$GPVTG,187.15,T,,M,0.00,N,0.00,K,D*32
$GPGGA,000212.750,4739.3550,N,12219.2662,W,2,09,1.04,335.8,M,-17.3,M,0000,0000*54
$GPVTG,187.15,T,,M,0.00,N,0.00,K,D*32
$GPGGA,000213.000,4739.3550,N,12219.2662,W,2,09,1.04,335.8,M,-17.3,M,0000,0000*57
$GPVTG,187.15,T,,M,0.00,N,0.00,K,D*32
$GPGGA,000213.250,4739.3550,N,12219.2662,W,2,09,1.04,335.8,M,-17.3,M,0000,0000*50
$GPVTG,187.15,T,,M,0.00,N,0.01,K,D*33
$GPGGA,000213.500,4739.3550,N,12219.2662,W,2,09,1.04,335.8,M,-17.3,M,0000,0000*52
$GPRMC,000213.500,A,4739.3550,N,12219.2662,W,0.00,187.15,170822,,,D*7B
$GPVTG,187.15,T,,M,0.00,N,0.00,K,D*32
$GPGGA,000213.750,4739.3550,N,12219.2662,W,2,09,1.04,335.8,M,-17.3,M,0000,0000*55
$GPVTG,187.15,T,,M,0.00,N,0.01,K,D*33
$GPGGA,000214.000,4739.3550,N,12219.2662,W,2,09,1.04,335.8,M,-17.3,M,0000,0000*50
$GPVTG,187.15,T,,M,0.00,N,0.00,K,D*32
$GPGGA,000214.250,4739.3550,N,12219.2662,W,2,09,1.04,335.8,M,-17.3,M,0000,0000*57
$GPVTG,187.15,T,,M,0.00,N,0.00,K,D*32
$GPGGA,000214.500,4739.3550,N,12219.2662,W,2,09,1.04,335.8,M,-17.3,M,0000,0000*55
$GPRMC,000214.500,A,4739.3550,N,12219.2662,W,0.00,187.15,170822,,,D*7C
$GPVTG,187.15,T,,M,0.00,N,0.00,K,D*32
$GPGGA,000214.750,4739.3550,N,12219.2662,W,2,09,1.04,335.8,M,-17.3,M,0000,0000*52
$GPVTG,187.15,T,,M,0.00,N,0.01,K,D*33
$GPGGA,000215.000,4739.3550,N,12219.2662,W,2,09,1.04,335.8,M,-17.3,M,0000,0000*51
$GPVTG,187.15,T,,M,0.01,N,0.01,K,D*32
$GPGGA,000215.250,4739.3550,N,12219.2662,W,2,09,1.04,335.8,M,-17.3,M,0000,0000*56
$GPVTG,187.15,T,,M,0.01,N,0.01,K,D*32
$GPGGA,000215.500,4739.3550,N,12219.2662,W,2,09,1.04,335.8,M,-17.3,M,0000,0000*54
$GPRMC,000215.500,A,4739.3550,N,12219.2662,W,0.00,187.15,170822,,,D*7D
$GPVTG,187.15,T,,M,0.00,N,0.01,K,D*33
$GPGGA,000215.750,4739.3550,N,12219.2662,W,2,09,1.15,335.8,M,-17.3,M,0000,0000*53
$GPVTG,187.15,T,,M,0.01,N,0.02,K,D*31
$GPGGA,000216.000,4739.3550,N,12219.2662,W,2,09,1.15,335.8,M,-17.3,M,0000,0000*52
$GPVTG,187.15,T,,M,0.01,N,0.02,K,D*31
$GPGGA,000216.250,4739.3550,N,12219.2662,W,2,09,1.04,335.8,M,-17.3,M,0000,0000*55
$GPVTG,187.15,T,,M,0.01,N,0.01,K,D*32
$GPGGA,000216.500,4739.3550,N,12219.2662,W,2,09,1.04,335.8,M,-17.3,M,0000,0000*57
$GPRMC,000216.500,A,4739.3550,N,12219.2662,W,0.01,187.15,170822,,,D*7F
$GPVTG,187.15,T,,M,0.01,N,0.01,K,D*32
$GPGGA,000216.750,4739.3550,N,12219.2662,W,2,09,1.04,335.8,M,-17.3,M,0000,0000*50
$GPVTG,187.15,T,,M,0.01,N,0.01,K,D*32
$GPGGA,000217.000,4739.3550,N,12219.2662,W,2,09,1.04,335.8,M,-17.3,M,0000,0000*53
$GPVTG,187.15,T,,M,0.00,N,0.01,K,D*33
$GPGGA,000217.250,4739.3550,N,12219.2662,W,2,09,1.04,335.8,M,-17.3,M,0000,0000*54
$GPVTG,187.15,T,,M,0.00,N,0.00,K,D*32
$GPGGA,000217.500,4739.3550,N,12219.2662,W,2,09,1.04,335.8,M,-17.3,M,0000,0000*56
$GPRMC,000217.500,A,4739.3550,N,12219.2662,W,0.00,187.15,170822,,,D*7F
$GPVTG,187.15,T,,M,0.00,N,0.01,K,D*33
$GPGGA,000217.750,4739.3550,N,12219.2662,W,2,09,1.04,335.8,M,-17.3,M,0000,0000*51
$GPVTG,187.15,T,,M,0.00,N,0.01,K,D*33
$GPGGA,000218.000,4739.3550,N,12219.2662,W,2,09,1.04,335.8,M,-17.3,M,0000,0000*5C
$GPVTG,187.15,T,,M,0.01,N,0.01,K,D*32
$GPGGA,000218.250,4739.3550,N,12219.2662,W,2,09,1.04,335.8,M,-17.3,M,0000,0000*5B
$GPVTG,187.15,T,,M,0.00,N,0.01,K,D*33
$GPGGA,000218.500,4739.3550,N,12219.2662,W,2,09,1.04,335.8,M,-17.3,M,0000,0000*59
$GPRMC,000218.500,A,4739.3550,N,12219.2662,W,0.00,187.15,170822,,,D*70
$GPVTG,187.15,T,,M,0.00,N,0.00,K,D*32
$GPGGA,000218.750,4739.3550,N,12219.2662,W,2,09,1.04,335.8,M,-17.3,M,0000,0000*5E
$GPVTG,187.15,T,,M,0.00,N,0.01,K,D*33
$GPGGA,000219.000,4739.3550,N,12219.2662,W,2,09,1.04,335.8,M,-17.3,M,0000,0000*5D
$GPVTG,187.15,T,,M,0.00,N,0.01,K,D*33
$GPGGA,000219.250,4739.3550,N,12219.2662,W,2,09,1.04,335.8,M,-17.3,M,0000,0000*5A
$GPVTG,187.15,T,,M,0.00,N,0.01,K,D*33
$GPGGA,000219.500,4739.3550,N,12219.2662,W,2,09,1.04,335.8,M,-17.3,M,0000,0000*58
$GPRMC,000219.500,A,4739.3550,N,12219.2662,W,0.00,187.15,170822,,,D*71
$GPVTG,187.15,T,,M,0.00,N,0.00,K,D*32
$GPGGA,000219.750,4739.3550,N,12219.2662,W,2,09,1.04,335.8,M,-17.3,M,0000,0000*5F
$GPVTG,187.15,T,,M,0.00,N,0.00,K,D*32
$GPGGA,000220.000,4739.3550,N,12219.2662,W,2,09,1.04,335.8,M,-17.3,M,0000,0000*57
$GPVTG,187.15,T,,M,0.01,N,0.01,K,D*32
$GPGGA,000220.250,4739.3550,N,12219.2662,W,2,09,1.04,335.8,M,-17.3,M,0000,0000*50
$GPVTG,187.15,T,,M,0.00,N,0.01,K,D*33
$GPGGA,000220.500,4739.3550,N,12219.2662,W,2,09,1.04,335.8,M,-17.3,M,0000,0000*52
$GPRMC,000220.500,A,4739.3550,N,12219.2662,W,0.01,187.15,170822,,,D*7A
$GPVTG,187.15,T,,M,0.01,N,0.03,K,D*30
$GPGGA,000220.750,4739.3550,N,12219.2662,W,2,09,1.04,335.8,M,-17.3,M,0000,0000*55
$GPVTG,187.15,T,,M,0.02,N,0.03,K,D*33
$GPGGA,000221.000,4739.3550,N,12219.2662,W,2,09,1.04,335.8,M,-17.3,M,0000,0000*56
$GPVTG,187.15,T,,M,0.04,N,0.07,K,D*31
$GPGGA,000221.250,4739.3550,N,12219.2662,W,2,09,1.04,335.8,M,-17.3,M,0000,0000*51
$GPVTG,187.15,T,,M,0.01,N,0.03,K,D*30
$GPGGA,000221.500,4739.3550,N,12219.2662,W,2,09,1.04,335.8,M,-17.3,M,0000,0000*53
$GPRMC,000221.500,A,4739.3550,N,12219.2662,W,0.01,187.15,170822,,,D*7B
$GPVTG,187.15,T,,M,0.01,N,0.03,K,D*30
$GPGGA,000221.750,4739.3550,N,12219.2662,W,2,09,1.04,335.8,M,-17.3,M,0000,0000*54
$GPVTG,187.15,T,,M,0.01,N,0.02,K,D*31
$GPGGA,000222.000,4739.3550,N,12219.2662,W,2,09,1.04,335.8,M,-17.3,M,0000,0000*55
$GPVTG,187.15,T,,M,0.01,N,0.02,K,D*31
$GPGGA,000222.250,4739.3550,N,12219.2662,W,2,09,1.04,335.8,M,-17.3,M,0000,0000*52
$GPVTG,187.15,T,,M,0.01,N,0.02,K,D*31
$GPGGA,000222.500,4739.3550,N,12219.2662,W,2,09,1.04,335.8,M,-17.3,M,0000,0000*50
$GPRMC,000222.500,A,4739.3550,N,12219.2662,W,0.02,187.15,170822,,,D*7B
$GPVTG,187.15,T,,M,0.02,N,0.03,K,D*33
$GPGGA,000222.750,4739.3550,N,12219.2662,W,2,09,1.03,335.8,M,-17.3,M,0000,0000*50
$GPVTG,187.15,T,,M,0.01,N,0.02,K,D*31
$GPGGA,000223.000,4739.3550,N,12219.2662,W,2,09,1.03,335.8,M,-17.3,M,0000,0000*53
$GPVTG,187.15,T,,M,0.01,N,0.01,K,D*32
$GPGGA,000223.250,4739.3550,N,12219.2662,W,2,09,1.04,335.8,M,-17.3,M,0000,0000*53
$GPVTG,187.15,T,,M,0.00,N,0.01,K,D*33
$GPGGA,000223.500,4739.3550,N,12219.2662,W,2,09,1.03,335.8,M,-17.3,M,0000,0000*56
$GPRMC,000223.500,A,4739.3550,N,12219.2662,W,0.00,187.15,170822,,,D*78
$GPVTG,187.15,T,,M,0.00,N,0.01,K,D*33
$GPGGA,000223.750,4739.3550,N,12219.2662,W,2,09,1.03,335.8,M,-17.3,M,0000,0000*51
$GPVTG,187.15,T,,M,0.00,N,0.00,K,D*32
$GPGGA,000224.000,4739.3550,N,12219.2662,W,2,09,1.04,335.8,M,-17.3,M,0000,0000*53
$GPVTG,187.15,T,,M,0.01,N,0.02,K,D*31
$GPGGA,000224.250,4739.3550,N,12219.2662,W,2,09,1.04,335.8,M,-17.3,M,0000,0000*54
$GPVTG,187.15,T,,M,0.01,N,0.02,K,D*31
$GPGGA,000224.500,4739.3550,N,12219.2662,W,2,09,1.04,335.8,M,-17.3,M,0000,0000*56
$GPRMC,000224.500,A,4739.3550,N,12219.2662,W,0.01,187.15,170822,,,D*7E
$GPVTG,187.15,T,,M,0.01,N,0.01,K,D*32
$GPGGA,000224.750,4739.3550,N,12219.2662,W,2,09,1.03,335.8,M,-17.3,M,0000,0000*56
$GPVTG,187.15,T,,M,0.00,N,0.00,K,D*32
$GPGGA,000225.000,4739.3550,N,12219.2662,W,2,09,1.04,335.8,M,-17.3,M,0000,0000*52
$GPVTG,187.15,T,,M,0.00,N,0.01,K,D*33
$GPGGA,000225.250,4739.3550,N,12219.2662,W,2,09,1.04,335.8,M,-17.3,M,0000,0000*55
$GPVTG,187.15,T,,M,0.01,N,0.02,K,D*31
$GPGGA,000225.500,4739.3550,N,12219.2662,W,2,09,1.03,335.8,M,-17.3,M,0000,0000*50
$GPRMC,000225.500,A,4739.3550,N,12219.2662,W,0.01,187.15,170822,,,D*7F
$GPVTG,187.15,T,,M,0.01,N,0.01,K,D*32
$GPGGA,000225.750,4739.3550,N,12219.2662,W,2,09,1.04,335.8,M,-17.3,M,0000,0000*50
$GPVTG,187.15,T,,M,0.00,N,0.01,K,D*33
$GPGGA,000226.000,4739.3550,N,12219.2662,W,2,09,1.03,335.8,M,-17.3,M,0000,0000*56
$GPVTG,187.15,T,,M,0.00,N,0.00,K,D*32
$GPGGA,000226.250,4739.3550,N,12219.2662,W,2,09,1.03,335.8,M,-17.3,M,0000,0000*51
$GPVTG,187.15,T,,M,0.01,N,0.02,K,D*31
$GPGGA,000226.500,4739.3550,N,12219.2662,W,2,09,1.04,335.8,M,-17.3,M,0000,0000*54
$GPRMC,000226.500,A,4739.3550,N,12219.2662,W,0.00,187.15,170822,,,D*7D
$GPVTG,187.15,T,,M,0.00,N,0.01,K,D*33
$GPGGA,000226.750,4739.3550,N,12219.2662,W,2,09,1.04,335.8,M,-17.3,M,0000,0000*53
$GPVTG,187.15,T,,M,0.00,N,0.01,K,D*33
$GPGGA,000227.000,4739.3550,N,12219.2662,W,2,09,1.04,335.8,M,-17.3,M,0000,0000*50
$GPVTG,187.15,T,,M,0.00,N,0.01,K,D*33
$GPGGA,000227.250,4739.3550,N,12219.2662,W,2,09,1.03,335.8,M,-17.3,M,0000,0000*50
$GPVTG,187.15,T,,M,0.01,N,0.02,K,D*31
$GPGGA,000227.500,4739.3550,N,12219.2662,W,2,09,1.04,335.8,M,-17.3,M,0000,0000*55
$GPRMC,000227.500,A,4739.3550,N,12219.2662,W,0.01,187.15,170822,,,D*7D
$GPVTG,187.15,T,,M,0.01,N,0.02,K,D*31
$GPGGA,000227.750,4739.3550,N,12219.2662,W,2,09,1.03,335.8,M,-17.3,M,0000,0000*55
$GPVTG,187.15,T,,M,0.01,N,0.02,K,D*31
$GPGGA,000228.000,4739.3550,N,12219.2662,W,2,09,1.03,335.8,M,-17.3,M,0000,0000*58
$GPVTG,187.15,T,,M,0.01,N,0.02,K,D*31
$GPGGA,000228.250,4739.3550,N,12219.2662,W,2,09,1.04,335.8,M,-17.3,M,0000,0000*58
$GPVTG,187.15,T,,M,0.01,N,0.02,K,D*31
$GPGGA,000228.500,4739.3550,N,12219.2662,W,2,09,1.03,335.8,M,-17.3,M,0000,0000*5D
$GPRMC,000228.500,A,4739.3550,N,12219.2662,W,0.01,187.15,170822,,,D*72
$GPVTG,187.15,T,,M,0.01,N,0.02,K,D*31
$GPGGA,000228.750,4739.3550,N,12219.2662,W,2,09,1.03,335.8,M,-17.3,M,0000,0000*5A
$GPVTG,187.15,T,,M,0.00,N,0.01,K,D*33
$GPGGA,000229.000,4739.3550,N,12219.2662,W,2,09,1.03,335.8,M,-17.3,M,0000,0000*59
$GPVTG,187.15,T,,M,0.01,N,0.01,K,D*32
$GPGGA,000229.250,4739.3550,N,12219.2662,W,2,09,1.03,335.8,M,-17.3,M,0000,0000*5E
$GPVTG,187.15,T,,M,0.01,N,0.02,K,D*31
$GPGGA,000229.500,4739.3550,N,12219.2662,W,2,09,1.03,335.8,M,-17.3,M,0000,0000*5C
$GPRMC,000229.500,A,4739.3550,N,12219.2662,W,0.01,187.15,170822,,,D*73
$GPVTG,187.15,T,,M,0.01,N,0.02,K,D*31
$GPGGA,000229.750,4739.3550,N,12219.2662,W,2,09,1.04,335.8,M,-17.3,M,0000,0000*5C
$GPVTG,187.15,T,,M,0.00,N,0.01,K,D*33
$GPGGA,000230.000,4739.3550,N,12219.2662,W,2,09,1.03,335.8,M,-17.3,M,0000,0000*51
$GPVTG,187.15,T,,M,0.00,N,0.00,K,D*32
$GPGGA,000230.250,4739.3550,N,12219.2662,W,2,09,1.03,335.8,M,-17.3,M,0000,0000*56
$GPVTG,187.15,T,,M,0.00,N,0.00,K,D*32
$GPGGA,000230.500,4739.3550,N,12219.2662,W,2,09,1.04,335.8,M,-17.3,M,0000,0000*53
$GPRMC,000230.500,A,4739.3550,N,12219.2662,W,0.00,187.15,170822,,,D*7A
$GPVTG,187.15,T,,M,0.00,N,0.00,K,D*32
$GPGGA,000230.750,4739.3550,N,12219.2662,W,2,09,1.03,335.8,M,-17.3,M,0000,0000*53
$GPVTG,187.15,T,,M,0.00,N,0.00,K,D*32
$GPGGA,000231.000,4739.3550,N,12219.2662,W,2,09,1.03,335.8,M,-17.3,M,0000,0000*50
$GPVTG,187.15,T,,M,0.00,N,0.00,K,D*32
$GPGGA,000231.250,4739.3550,N,12219.2662,W,2,09,1.04,335.8,M,-17.3,M,0000,0000*50
$GPVTG,187.15,T,,M,0.00,N,0.00,K,D*32
$GPGGA,000231.500,4739.3550,N,12219.2662,W,2,09,1.03,335.8,M,-17.3,M,0000,0000*55
$GPRMC,000231.500,A,4739.3550,N,12219.2662,W,0.00,187.15,170822,,,D*7B
$GPVTG,187.15,T,,M,0.00,N,0.00,K,D*32
$GPGGA,000231.750,4739.3550,N,12219.2662,W,2,09,1.03,335.8,M,-17.3,M,0000,0000*52
$GPVTG,187.15,T,,M,0.00,N,0.00,K,D*32
$GPGGA,000232.000,4739.3550,N,12219.2662,W,2,09,1.03,335.8,M,-17.3,M,0000,0000*53
$GPVTG,187.15,T,,M,0.00,N,0.00,K,D*32
$GPGGA,000232.250,4739.3550,N,12219.2662,W,2,09,1.03,335.8,M,-17.3,M,0000,0000*54
$GPVTG,187.15,T,,M,0.00,N,0.00,K,D*32
$GPGGA,000232.500,4739.3550,N,12219.2662,W,2,09,1.03,335.8,M,-17.3,M,0000,0000*56
$GPRMC,000232.500,A,4739.3550,N,12219.2662,W,0.00,187.15,170822,,,D*78
$GPVTG,187.15,T,,M,0.00,N,0.00,K,D*32
$GPGGA,000232.750,4739.3550,N,12219.2662,W,2,09,1.03,335.8,M,-17.3,M,0000,0000*51
$GPVTG,187.15,T,,M,0.00,N,0.00,K,D*32
$GPGGA,000233.000,4739.3550,N,12219.2662,W,2,09,1.03,335.8,M,-17.3,M,0000,0000*52
$GPVTG,187.15,T,,M,0.00,N,0.01,K,D*33
$GPGGA,000233.250,4739.3550,N,12219.2662,W,2,09,1.03,335.8,M,-17.3,M,0000,0000*55
$GPVTG,187.15,T,,M,0.00,N,0.00,K,D*32
$GPGGA,000233.500,4739.3550,N,12219.2662,W,2,09,1.03,335.8,M,-17.3,M,0000,0000*57
$GPRMC,000233.500,A,4739.3550,N,12219.2662,W,0.00,187.15,170822,,,D*79
$GPVTG,187.15,T,,M,0.00,N,0.00,K,D*32
$GPGGA,000233.750,4739.3550,N,12219.2662,W,2,09,1.03,335.8,M,-17.3,M,0000,0000*50
$GPVTG,187.15,T,,M,0.00,N,0.00,K,D*32
$GPGGA,000234.000,4739.3550,N,12219.2662,W,2,09,1.03,335.8,M,-17.3,M,0000,0000*55
$GPVTG,187.15,T,,M,0.00,N,0.01,K,D*33
$GPGGA,000234.250,4739.3550,N,12219.2662,W,2,09,1.03,335.8,M,-17.3,M,0000,0000*52
$GPVTG,187.15,T,,M,0.00,N,0.01,K,D*33
$GPGGA,000234.500,4739.3550,N,12219.2662,W,2,09,1.03,335.8,M,-17.3,M,0000,0000*50
$GPRMC,000234.500,A,4739.3550,N,12219.2662,W,0.00,187.15,170822,,,D*7E
$GPVTG,187.15,T,,M,0.00,N,0.01,K,D*33
$GPGGA,000234.750,4739.3550,N,12219.2662,W,2,09,1.03,335.8,M,-17.3,M,0000,0000*57
$GPVTG,187.15,T,,M,0.00,N,0.01,K,D*33
$GPGGA,000235.000,4739.3550,N,12219.2662,W,2,09,1.03,335.8,M,-17.3,M,0000,0000*54
$GPVTG,187.15,T,,M,0.00,N,0.00,K,D*32
$GPGGA,000235.250,4739.3550,N,12219.2662,W,2,09,1.03,335.8,M,-17.3,M,0000,0000*53
$GPVTG,187.15,T,,M,0.00,N,0.00,K,D*32
$GPGGA,000235.500,4739.3550,N,12219.2662,W,2,09,1.03,335.8,M,-17.3,M,0000,0000*51
$GPRMC,000235.500,A,4739.3550,N,12219.2662,W,0.00,187.15,170822,,,D*7F
$GPVTG,187.15,T,,M,0.00,N,0.00,K,D*32
$GPGGA,000235.750,4739.3550,N,12219.2662,W,2,09,1.03,335.8,M,-17.3,M,0000,0000*56
$GPVTG,187.15,T,,M,0.00,N,0.00,K,D*32
$GPGGA,000236.000,4739.3550,N,12219.2662,W,2,09,1.03,335.8,M,-17.3,M,0000,0000*57
$GPVTG,187.15,T,,M,0.00,N,0.00,K,D*32
$GPGGA,000236.250,4739.3550,N,12219.2662,W,2,09,1.03,335.8,M,-17.3,M,0000,0000*50
$GPVTG,187.15,T,,M,0.00,N,0.00,K,D*32
$GPGGA,000236.500,4739.3550,N,12219.2662,W,2,09,1.03,335.8,M,-17.3,M,0000,0000*52
$GPRMC,000236.500,A,4739.3550,N,12219.2662,W,0.00,187.15,170822,,,D*7C
$GPVTG,187.15,T,,M,0.00,N,0.00,K,D*32
$GPGGA,000236.750,4739.3550,N,12219.2662,W,2,09,1.03,335.8,M,-17.3,M,0000,0000*55
$GPVTG,187.15,T,,M,0.00,N,0.00,K,D*32
$GPGGA,000237.000,4739.3550,N,12219.2662,W,2,09,1.03,335.8,M,-17.3,M,0000,0000*56
$GPVTG,187.15,T,,M,0.00,N,0.01,K,D*33
$GPGGA,000237.250,4739.3550,N,12219.2662,W,2,09,1.03,335.8,M,-17.3,M,0000,0000*51
$GPVTG,187.15,T,,M,0.00,N,0.00,K,D*32
$GPGGA,000237.500,4739.3550,N,12219.2662,W,2,09,1.03,335.8,M,-17.3,M,0000,0000*53
$GPRMC,000237.500,A,4739.3550,N,12219.2662,W,0.00,187.15,170822,,,D*7D
$GPVTG,187.15,T,,M,0.00,N,0.00,K,D*32
$GPGGA,000237.750,4739.3550,N,12219.2662,W,2,09,1.03,335.8,M,-17.3,M,0000,0000*54
$GPVTG,187.15,T,,M,0.00,N,0.00,K,D*32
$GPGGA,000238.000,4739.3550,N,12219.2662,W,2,09,1.03,335.8,M,-17.3,M,0000,0000*59
$GPVTG,187.15,T,,M,0.00,N,0.00,K,D*32
$GPGGA,000238.250,4739.3550,N,12219.2662,W,2,09,1.03,335.8,M,-17.3,M,0000,0000*5E
$GPVTG,187.15,T,,M,0.00,N,0.00,K,D*32
$GPGGA,000238.500,4739.3550,N,12219.2662,W,2,09,1.03,335.8,M,-17.3,M,0000,0000*5C
$GPRMC,000238.500,A,4739.3550,N,12219.2662,W,0.00,187.15,170822,,,D*72
$GPVTG,187.15,T,,M,0.00,N,0.01,K,D*33
$GPGGA,000238.750,4739.3550,N,12219.2662,W,2,09,1.03,335.8,M,-17.3,M,0000,0000*5B
$GPVTG,187.15,T,,M,0.00,N,0.00,K,D*32
$GPGGA,000239.000,4739.3550,N,12219.2661,W,2,09,1.03,335.8,M,-17.3,M,0000,0000*5B
$GPVTG,187.15,T,,M,0.00,N,0.01,K,D*33
$GPGGA,000239.250,4739.3550,N,12219.2661,W,2,09,1.03,335.8,M,-17.3,M,0000,0000*5C
$GPVTG,187.15,T,,M,0.00,N,0.00,K,D*32
$GPGGA,000239.500,4739.3550,N,12219.2661,W,2,09,1.03,335.8,M,-17.3,M,0000,0000*5E
$GPRMC,000239.500,A,4739.3550,N,12219.2661,W,0.00,187.15,170822,,,D*70
$GPVTG,187.15,T,,M,0.00,N,0.00,K,D*32
$GPGGA,000239.750,4739.3550,N,12219.2661,W,2,09,1.03,335.8,M,-17.3,M,0000,0000*59
$GPVTG,187.15,T,,M,0.00,N,0.00,K,D*32
$GPGGA,000240.000,4739.3550,N,12219.2662,W,2,09,1.03,335.8,M,-17.3,M,0000,0000*56
$GPVTG,187.15,T,,M,0.01,N,0.02,K,D*31
$GPGGA,000240.250,4739.3550,N,12219.2662,W,2,09,1.03,335.8,M,-17.3,M,0000,0000*51
$GPVTG,187.15,T,,M,0.01,N,0.02,K,D*31
$GPGGA,000240.500,4739.3550,N,12219.2662,W,2,09,1.03,335.8,M,-17.3,M,0000,0000*53
$GPRMC,000240.500,A,4739.3550,N,12219.2662,W,0.02,187.15,170822,,,D*7F
$GPVTG,187.15,T,,M,0.02,N,0.03,K,D*33
$GPGGA,000240.750,4739.3550,N,12219.2662,W,2,09,1.03,335.8,M,-17.3,M,0000,0000*54
$GPVTG,187.15,T,,M,0.00,N,0.01,K,D*33
$GPGGA,000241.000,4739.3550,N,12219.2662,W,2,09,1.03,335.8,M,-17.3,M,0000,0000*57
$GPVTG,187.15,T,,M,0.00,N,0.00,K,D*32
$GPGGA,000241.250,4739.3550,N,12219.2662,W,2,09,1.03,335.8,M,-17.3,M,0000,0000*50
$GPVTG,187.15,T,,M,0.00,N,0.00,K,D*32
$GPGGA,000241.500,4739.3550,N,12219.2662,W,2,09,1.03,335.8,M,-17.3,M,0000,0000*52
$GPRMC,000241.500,A,4739.3550,N,12219.2662,W,0.00,187.15,170822,,,D*7C
$GPVTG,187.15,T,,M,0.00,N,0.00,K,D*32
$GPGGA,000241.750,4739.3550,N,12219.2662,W,2,09,1.03,335.8,M,-17.3,M,0000,0000*55
$GPVTG,187.15,T,,M,0.00,N,0.00,K,D*32
$GPGGA,000242.000,4739.3550,N,12219.2662,W,2,09,1.03,335.8,M,-17.3,M,0000,0000*54
$GPVTG,187.15,T,,M,0.00,N,0.00,K,D*32
$GPGGA,000242.250,4739.3550,N,12219.2662,W,2,09,1.03,335.8,M,-17.3,M,0000,0000*53
$GPVTG,187.15,T,,M,0.00,N,0.00,K,D*32
$GPGGA,000242.500,4739.3550,N,12219.2662,W,2,09,1.03,335.8,M,-17.3,M,0000,0000*51
$GPRMC,000242.500,A,4739.3550,N,12219.2662,W,0.00,187.15,170822,,,D*7F
$GPVTG,187.15,T,,M,0.00,N,0.00,K,D*32
$GPGGA,000242.750,4739.3550,N,12219.2662,W,2,09,1.03,335.8,M,-17.3,M,0000,0000*56
$GPVTG,187.15,T,,M,0.00,N,0.00,K,D*32
$GPGGA,000243.000,4739.3550,N,12219.2662,W,2,09,1.03,335.8,M,-17.3,M,0000,0000*55
$GPVTG,187.15,T,,M,0.00,N,0.00,K,D*32
$GPGGA,000243.250,4739.3550,N,12219.2662,W,2,09,1.03,335.8,M,-17.3,M,0000,0000*52
$GPVTG,187.15,T,,M,0.00,N,0.01,K,D*33
$GPGGA,000243.500,4739.3550,N,12219.2662,W,2,09,1.03,335.8,M,-17.3,M,0000,0000*50
$GPRMC,000243.500,A,4739.3550,N,12219.2662,W,0.00,187.15,170822,,,D*7E
$GPVTG,187.15,T,,M,0.00,N,0.01,K,D*33
$GPGGA,000243.750,4739.3550,N,12219.2662,W,2,09,1.03,335.8,M,-17.3,M,0000,0000*57
$GPVTG,187.15,T,,M,0.00,N,0.01,K,D*33
$GPGGA,000244.000,4739.3550,N,12219.2662,W,2,09,1.03,335.8,M,-17.3,M,0000,0000*52
$GPVTG,187.15,T,,M,0.00,N,0.01,K,D*33
$GPGGA,000244.250,4739.3550,N,12219.2662,W,2,09,1.03,335.8,M,-17.3,M,0000,0000*55
$GPVTG,187.15,T,,M,0.00,N,0.01,K,D*33
$GPGGA,000244.500,4739.3550,N,12219.2662,W,2,09,1.03,335.8,M,-17.3,M,0000,0000*57
$GPRMC,000244.500,A,4739.3550,N,12219.2662,W,0.00,187.15,170822,,,D*79
$GPVTG,187.15,T,,M,0.00,N,0.00,K,D*32
$GPGGA,000244.750,4739.3550,N,12219.2662,W,2,09,1.03,335.8,M,-17.3,M,0000,0000*50
$GPVTG,187.15,T,,M,0.00,N,0.00,K,D*32
$GPGGA,000245.000,4739.3550,N,12219.2662,W,2,09,1.03,335.8,M,-17.3,M,0000,0000*53
$GPVTG,187.15,T,,M,0.00,N,0.00,K,D*32
$GPGGA,000245.250,4739.3550,N,12219.2662,W,2,09,1.03,335.8,M,-17.3,M,0000,0000*54
$GPVTG,187.15,T,,M,0.00,N,0.00,K,D*32
$GPGGA,000245.500,4739.3550,N,12219.2662,W,2,09,1.03,335.8,M,-17.3,M,0000,0000*56
$GPRMC,000245.500,A,4739.3550,N,12219.2662,W,0.00,187.15,170822,,,D*78
$GPVTG,187.15,T,,M,0.00,N,0.00,K,D*32
$GPGGA,000245.750,4739.3550,N,12219.2662,W,2,09,1.03,335.8,M,-17.3,M,0000,0000*51
$GPVTG,187.15,T,,M,0.00,N,0.00,K,D*32
$GPGGA,000246.000,4739.3550,N,12219.2662,W,2,09,1.03,335.8,M,-17.3,M,0000,0000*50
$GPVTG,187.15,T,,M,0.00,N,0.00,K,D*32
$GPGGA,000246.250,4739.3550,N,12219.2662,W,2,09,1.03,335.8,M,-17.3,M,0000,0000*57
$GPVTG,187.15,T,,M,0.00,N,0.00,K,D*32
$GPGGA,000246.500,4739.3550,N,12219.2662,W,2,09,1.03,335.8,M,-17.3,M,0000,0000*55
$GPRMC,000246.500,A,4739.3550,N,12219.2662,W,0.00,187.15,170822,,,D*7B
$GPVTG,187.15,T,,M,0.00,N,0.00,K,D*32
$GPGGA,000246.750,4739.3550,N,12219.2662,W,2,09,1.03,335.8,M,-17.3,M,0000,0000*52
$GPVTG,187.15,T,,M,0.00,N,0.01,K,D*33
$GPGGA,000247.000,4739.3550,N,12219.2662,W,2,09,1.03,335.8,M,-17.3,M,0000,0000*51
$GPVTG,187.15,T,,M,0.00,N,0.01,K,D*33
$GPGGA,000247.250,4739.3550,N,12219.2662,W,2,09,1.03,335.8,M,-17.3,M,0000,0000*56
$GPVTG,187.15,T,,M,0.00,N,0.01,K,D*33
$GPGGA,000247.500,4739.3550,N,12219.2662,W,2,09,1.03,335.8,M,-17.3,M,0000,0000*54
$GPRMC,000247.500,A,4739.3550,N,12219.2662,W,0.00,187.15,170822,,,D*7A
$GPVTG,187.15,T,,M,0.00,N,0.01,K,D*33
$GPGGA,000247.750,4739.3550,N,12219.2662,W,2,09,1.03,335.8,M,-17.3,M,0000,0000*53
$GPVTG,187.15,T,,M,0.00,N,0.01,K,D*33
$GPGGA,000248.000,4739.3550,N,12219.2662,W,2,09,1.03,335.8,M,-17.3,M,0000,0000*5E
$GPVTG,187.15,T,,M,0.00,N,0.00,K,D*32
$GPGGA,000248.250,4739.3550,N,12219.2662,W,2,09,1.03,335.8,M,-17.3,M,0000,0000*59
$GPVTG,187.15,T,,M,0.00,N,0.00,K,D*32
$GPGGA,000248.500,4739.3550,N,12219.2662,W,2,09,1.03,335.8,M,-17.3,M,0000,0000*5B
$GPRMC,000248.500,A,4739.3550,N,12219.2662,W,0.00,187.15,170822,,,D*75
$GPVTG,187.15,T,,M,0.00,N,0.01,K,D*33
$GPGGA,000248.750,4739.3550,N,12219.2662,W,2,09,1.03,335.8,M,-17.3,M,0000,0000*5C
$GPVTG,187.15,T,,M,0.00,N,0.00,K,D*32
$GPGGA,000249.000,4739.3550,N,12219.2662,W,2,09,1.15,335.8,M,-17.3,M,0000,0000*58
$GPVTG,187.15,T,,M,0.00,N,0.01,K,D*33
$GPGGA,000249.250,4739.3550,N,12219.2662,W,2,09,1.03,335.8,M,-17.3,M,0000,0000*58
$GPVTG,187.15,T,,M,0.00,N,0.00,K,D*32
$GPGGA,000249.500,4739.3550,N,12219.2662,W,2,09,1.03,335.8,M,-17.3,M,0000,0000*5A
$GPRMC,000249.500,A,4739.3550,N,12219.2662,W,0.00,187.15,170822,,,D*74
$GPVTG,187.15,T,,M,0.00,N,0.00,K,D*32
$GPGGA,000249.750,4739.3550,N,12219.2662,W,2,09,1.03,335.8,M,-17.3,M,0000,0000*5D
$GPVTG,187.15,T,,M,0.00,N,0.01,K,D*33
$GPGGA,000250.000,4739.3550,N,12219.2662,W,2,09,1.15,335.8,M,-17.3,M,0000,0000*50
$GPVTG,187.15,T,,M,0.01,N,0.01,K,D*32
$GPGGA,000250.250,4739.3550,N,12219.2662,W,2,09,1.03,335.8,M,-17.3,M,0000,0000*50
$GPVTG,187.15,T,,M,0.00,N,0.00,K,D*32
$GPGGA,000250.500,4739.3550,N,12219.2662,W,2,09,1.03,335.8,M,-17.3,M,0000,0000*52
$GPRMC,000250.500,A,4739.3550,N,12219.2662,W,0.00,187.15,170822,,,D*7C
$GPVTG,187.15,T,,M,0.00,N,0.00,K,D*32
$GPGGA,000250.750,4739.3550,N,12219.2662,W,2,09,1.03,335.8,M,-17.3,M,0000,0000*55
$GPVTG,187.15,T,,M,0.00,N,0.00,K,D*32
$GPGGA,000251.000,4739.3550,N,12219.2662,W,2,09,1.03,335.8,M,-17.3,M,0000,0000*56
$GPVTG,187.15,T,,M,0.00,N,0.01,K,D*33
$GPGGA,000251.250,4739.3550,N,12219.2662,W,2,09,1.03,335.8,M,-17.3,M,0000,0000*51
$GPVTG,187.15,T,,M,0.00,N,0.00,K,D*32
$GPGGA,000251.500,4739.3550,N,12219.2662,W,2,09,1.03,335.8,M,-17.3,M,0000,0000*53
$GPRMC,000251.500,A,4739.3550,N,12219.2662,W,0.00,187.15,170822,,,D*7D
$GPVTG,187.15,T,,M,0.00,N,0.00,K,D*32
$GPGGA,000251.750,4739.3550,N,12219.2662,W,2,09,1.03,335.8,M,-17.3,M,0000,0000*54
$GPVTG,187.15,T,,M,0.00,N,0.00,K,D*32
$GPGGA,000252.000,4739.3550,N,12219.2662,W,2,09,1.03,335.8,M,-17.3,M,0000,0000*55
$GPVTG,187.15,T,,M,0.01,N,0.03,K,D*30
$GPGGA,000252.250,4739.3550,N,12219.2662,W,2,09,1.03,335.8,M,-17.3,M,0000,0000*52
$GPVTG,187.15,T,,M,0.01,N,0.02,K,D*31
$GPGGA,000252.500,4739.3550,N,12219.2662,W,2,09,1.03,335.8,M,-17.3,M,0000,0000*50
$GPRMC,000252.500,A,4739.3550,N,12219.2662,W,0.02,187.15,170822,,,D*7C
$GPVTG,187.15,T,,M,0.02,N,0.03,K,D*33
$GPGGA,000252.750,4739.3550,N,12219.2662,W,2,09,1.03,335.8,M,-17.3,M,0000,0000*57
$GPVTG,187.15,T,,M,0.01,N,0.02,K,D*31
$GPGGA,000253.000,4739.3550,N,12219.2662,W,2,09,1.03,335.8,M,-17.3,M,0000,0000*54
$GPVTG,187.15,T,,M,0.01,N,0.02,K,D*31
$GPGGA,000253.250,4739.3550,N,12219.2662,W,2,09,1.03,335.8,M,-17.3,M,0000,0000*53
$GPVTG,187.15,T,,M,0.01,N,0.02,K,D*31
$GPGGA,000253.500,4739.3550,N,12219.2662,W,2,09,1.03,335.8,M,-17.3,M,0000,0000*51
$GPRMC,000253.500,A,4739.3550,N,12219.2662,W,0.01,187.15,170822,,,D*7E
$GPVTG,187.15,T,,M,0.01,N,0.01,K,D*32
$GPGGA,000253.750,4739.3550,N,12219.2662,W,2,09,1.03,335.8,M,-17.3,M,0000,0000*56
$GPVTG,187.15,T,,M,0.01,N,0.02,K,D*31
$GPGGA,000254.000,4739.3550,N,12219.2662,W,2,09,1.03,335.8,M,-17.3,M,0000,0000*53
$GPVTG,187.15,T,,M,0.01,N,0.02,K,D*31
$GPGGA,000254.250,4739.3550,N,12219.2662,W,2,09,1.03,335.8,M,-17.3,M,0000,0000*54
$GPVTG,187.15,T,,M,0.01,N,0.02,K,D*31
$GPGGA,000254.500,4739.3549,N,12219.2662,W,2,09,1.03,335.8,M,-17.3,M,0000,0000*5E
$GPRMC,000254.500,A,4739.3549,N,12219.2662,W,0.00,187.15,170822,,,D*70
$GPVTG,187.15,T,,M,0.00,N,0.01,K,D*33
$GPGGA,000254.750,4739.3549,N,12219.2662,W,2,09,1.03,335.8,M,-17.3,M,0000,0000*59
$GPVTG,187.15,T,,M,0.01,N,0.02,K,D*31
$GPGGA,000255.000,4739.3549,N,12219.2661,W,2,09,1.15,335.8,M,-17.3,M,0000,0000*5E
$GPVTG,187.15,T,,M,0.00,N,0.01,K,D*33
$GPGGA,000255.250,4739.3549,N,12219.2661,W,2,09,1.03,335.8,M,-17.3,M,0000,0000*5E
$GPVTG,187.15,T,,M,0.01,N,0.02,K,D*31
$GPGGA,000255.500,4739.3549,N,12219.2661,W,2,09,1.03,335.8,M,-17.3,M,0000,0000*5C
$GPRMC,000255.500,A,4739.3549,N,12219.2661,W,0.01,187.15,170822,,,D*73
$GPVTG,187.15,T,,M,0.01,N,0.01,K,D*32
$GPGGA,000255.750,4739.3549,N,12219.2661,W,2,09,1.03,335.8,M,-17.3,M,0000,0000*5B
$GPVTG,187.15,T,,M,0.00,N,0.00,K,D*32
$GPGGA,000256.000,4739.3549,N,12219.2661,W,2,09,1.03,335.8,M,-17.3,M,0000,0000*5A
$GPVTG,187.15,T,,M,0.01,N,0.01,K,D*32
$GPGGA,000256.250,4739.3549,N,12219.2661,W,2,09,1.03,335.8,M,-17.3,M,0000,0000*5D
$GPVTG,187.15,T,,M,0.00,N,0.01,K,D*33
$GPGGA,000256.500,4739.3549,N,12219.2661,W,2,09,1.03,335.8,M,-17.3,M,0000,0000*5F
$GPRMC,000256.500,A,4739.3549,N,12219.2661,W,0.01,187.15,170822,,,D*70
$GPVTG,187.15,T,,M,0.01,N,0.01,K,D*32
$GPGGA,000256.750,4739.3549,N,12219.2661,W,2,09,1.03,335.8,M,-17.3,M,0000,0000*58
$GPVTG,187.15,T,,M,0.01,N,0.01,K,D*32
$GPGGA,000257.000,4739.3549,N,12219.2661,W,2,09,1.03,335.8,M,-17.3,M,0000,0000*5B
$GPVTG,187.15,T,,M,0.01,N,0.02,K,D*31
$GPGGA,000257.250,4739.3549,N,12219.2661,W,2,09,1.03,335.8,M,-17.3,M,0000,0000*5C
$GPVTG,187.15,T,,M,0.01,N,0.01,K,D*32
$GPGGA,000257.500,4739.3549,N,12219.2661,W,2,09,1.03,335.8,M,-17.3,M,0000,0000*5E
$GPRMC,000257.500,A,4739.3549,N,12219.2661,W,0.01,187.15,170822,,,D*71
$GPVTG,187.15,T,,M,0.01,N,0.02,K,D*31
$GPGGA,000257.750,4739.3549,N,12219.2661,W,2,09,1.03,335.8,M,-17.3,M,0000,0000*59
$GPVTG,187.15,T,,M,0.01,N,0.01,K,D*32
$GPGGA,000258.000,4739.3549,N,12219.2661,W,2,09,1.15,335.8,M,-17.3,M,0000,0000*53
$GPVTG,187.15,T,,M,0.00,N,0.00,K,D*32
$GPGGA,000258.250,4739.3549,N,12219.2661,W,2,09,1.15,335.8,M,-17.3,M,0000,0000*54
$GPVTG,187.15,T,,M,0.00,N,0.00,K,D*32
$GPGGA,000258.500,4739.3549,N,12219.2661,W,2,09,1.15,335.8,M,-17.3,M,0000,0000*56
$GPRMC,000258.500,A,4739.3549,N,12219.2661,W,0.00,187.15,170822,,,D*7F
$GPVTG,187.15,T,,M,0.00,N,0.00,K,D*32
$GPGGA,000258.750,4739.3549,N,12219.2661,W,2,09,1.03,335.8,M,-17.3,M,0000,0000*56
$GPVTG,187.15,T,,M,0.00,N,0.00,K,D*32
$GPGGA,000259.000,4739.3549,N,12219.2661,W,2,09,1.15,335.8,M,-17.3,M,0000,0000*52
$GPVTG,187.15,T,,M,0.00,N,0.00,K,D*32
$GPGGA,000259.250,4739.3549,N,12219.2661,W,2,09,1.15,335.8,M,-17.3,M,0000,0000*55
$GPVTG,187.15,T,,M,0.00,N,0.00,K,D*32
$GPGGA,000259.500,4739.3549,N,12219.2661,W,2,09,1.03,335.8,M,-17.3,M,0000,0000*50
$GPRMC,000259.500,A,4739.3549,N,12219.2661,W,0.00,187.15,170822,,,D*7E
$GPVTG,187.15,T,,M,0.00,N,0.00,K,D*32
$GPGGA,000259.750,4739.3549,N,12219.2661,W,2,09,1.03,335.8,M,-17.3,M,0000,0000*57
$GPVTG,187.15,T,,M,0.00,N,0.00,K,D*32
$GPGGA,000300.000,4739.3549,N,12219.2661,W,2,09,1.15,335.8,M,-17.3,M,0000,0000*5F
$GPVTG,187.15,T,,M,0.00,N,0.00,K,D*32
$GPGGA,000300.250,4739.3549,N,12219.2661,W,2,09,1.03,335.8,M,-17.3,M,0000,0000*5F
$GPVTG,187.15,T,,M,0.00,N,0.00,K,D*32
$GPGGA,000300.500,4739.3549,N,12219.2661,W,2,09,1.03,335.8,M,-17.3,M,0000,0000*5D
$GPRMC,000300.500,A,4739.3549,N,12219.2661,W,0.00,187.15,170822,,,D*73
$GPVTG,187.15,T,,M,0.00,N,0.00,K,D*32
$GPGGA,000300.750,4739.3549,N,12219.2661,W,2,09,1.03,335.8,M,-17.3,M,0000,0000*5A
$GPVTG,187.15,T,,M,0.00,N,0.00,K,D*32
$GPGGA,000301.000,4739.3549,N,12219.2661,W,2,09,1.03,335.8,M,-17.3,M,0000,0000*59
$GPVTG,187.15,T,,M,0.00,N,0.00,K,D*32
$GPGGA,000301.250,4739.3549,N,12219.2661,W,2,09,1.03,335.8,M,-17.3,M,0000,0000*5E
$GPVTG,187.15,T,,M,0.00,N,0.00,K,D*32
$GPGGA,000301.500,4739.3549,N,12219.2661,W,2,09,1.03,335.8,M,-17.3,M,0000,0000*5C
$GPRMC,000301.500,A,4739.3549,N,12219.2661,W,0.00,187.15,170822,,,D*72
$GPVTG,187.15,T,,M,0.00,N,0.00,K,D*32
$GPGGA,000301.750,4739.3549,N,12219.2661,W,2,09,1.03,335.8,M,-17.3,M,0000,0000*5B
$GPVTG,187.15,T,,M,0.00,N,0.01,K,D*33
$GPGGA,000302.000,4739.3549,N,12219.2661,W,2,09,1.03,335.8,M,-17.3,M,0000,0000*5A
$GPVTG,187.15,T,,M,0.00,N,0.01,K,D*33
$GPGGA,000302.250,4739.3549,N,12219.2661,W,2,09,1.03,335.8,M,-17.3,M,0000,0000*5D
$GPVTG,187.15,T,,M,0.00,N,0.01,K,D*33
$GPGGA,000302.500,4739.3549,N,12219.2661,W,2,09,1.15,335.8,M,-17.3,M,0000,0000*58
$GPRMC,000302.500,A,4739.3549,N,12219.2661,W,0.00,187.15,170822,,,D*71
$GPVTG,187.15,T,,M,0.00,N,0.01,K,D*33
$GPGGA,000302.750,4739.3549,N,12219.2661,W,2,09,1.15,335.8,M,-17.3,M,0000,0000*5F
$GPVTG,187.15,T,,M,0.00,N,0.01,K,D*33
$GPGGA,000303.000,4739.3549,N,12219.2661,W,2,09,1.15,335.8,M,-17.3,M,0000,0000*5C
$GPVTG,187.15,T,,M,0.00,N,0.00,K,D*32
$GPGGA,000303.250,4739.3549,N,12219.2661,W,2,09,1.03,335.8,M,-17.3,M,0000,0000*5C
$GPVTG,187.15,T,,M,0.00,N,0.00,K,D*32
$GPGGA,000303.500,4739.3549,N,12219.2661,W,2,09,1.03,335.8,M,-17.3,M,0000,0000*5E
$GPRMC,000303.500,A,4739.3549,N,12219.2661,W,0.00,187.15,170822,,,D*70
$GPVTG,187.15,T,,M,0.00,N,0.00,K,D*32
$GPGGA,000303.750,4739.3549,N,12219.2661,W,2,09,1.15,335.8,M,-17.3,M,0000,0000*5E
$GPVTG,187.15,T,,M,0.00,N,0.01,K,D*33
$GPGGA,000304.000,4739.3549,N,12219.2661,W,2,09,1.15,335.8,M,-17.3,M,0000,0000*5B
$GPVTG,187.15,T,,M,0.00,N,0.00,K,D*32
$GPGGA,000304.250,4739.3549,N,12219.2661,W,2,09,1.03,335.8,M,-17.3,M,0000,0000*5B
$GPVTG,187.15,T,,M,0.00,N,0.00,K,D*32
$GPGGA,000304.500,4739.3549,N,12219.2661,W,2,09,1.15,335.8,M,-17.3,M,0000,0000*5E
$GPRMC,000304.500,A,4739.3549,N,12219.2661,W,0.00,187.15,170822,,,D*77
$GPVTG,187.15,T,,M,0.00,N,0.01,K,D*33
$GPGGA,000304.750,4739.3549,N,12219.2661,W,2,09,1.15,335.8,M,-17.3,M,0000,0000*59
$GPVTG,187.15,T,,M,0.00,N,0.00,K,D*32
$GPGGA,000305.000,4739.3549,N,12219.2661,W,2,09,1.15,335.8,M,-17.3,M,0000,0000*5A
$GPVTG,187.15,T,,M,0.00,N,0.01,K,D*33
$GPGGA,000305.250,4739.3549,N,12219.2661,W,2,09,1.03,335.8,M,-17.3,M,0000,0000*5A
$GPVTG,187.15,T,,M,0.00,N,0.00,K,D*32
$GPGGA,000305.500,4739.3549,N,12219.2661,W,2,09,1.03,335.8,M,-17.3,M,0000,0000*58
$GPRMC,000305.500,A,4739.3549,N,12219.2661,W,0.00,187.15,170822,,,D*76
$GPVTG,187.15,T,,M,0.00,N,0.00,K,D*32
$GPGGA,000305.750,4739.3549,N,12219.2661,W,2,09,1.03,335.8,M,-17.3,M,0000,0000*5F
$GPVTG,187.15,T,,M,0.00,N,0.00,K,D*32
$GPGGA,000306.000,4739.3549,N,12219.2661,W,2,09,1.03,335.8,M,-17.3,M,0000,0000*5E
$GPVTG,187.15,T,,M,0.01,N,0.01,K,D*32
$GPGGA,000306.250,4739.3549,N,12219.2661,W,2,09,1.03,335.8,M,-17.3,M,0000,0000*59
$GPVTG,187.15,T,,M,0.00,N,0.01,K,D*33
$GPGGA,000306.500,4739.3549,N,12219.2661,W,2,09,1.03,335.8,M,-17.3,M,0000,0000*5B
$GPRMC,000306.500,A,4739.3549,N,12219.2661,W,0.00,187.15,170822,,,D*75
$GPVTG,187.15,T,,M,0.00,N,0.00,K,D*32
$GPGGA,000306.750,4739.3549,N,12219.2661,W,2,09,1.03,335.8,M,-17.3,M,0000,0000*5C
$GPVTG,187.15,T,,M,0.00,N,0.00,K,D*32
$GPGGA,000307.000,4739.3549,N,12219.2661,W,2,09,1.03,335.8,M,-17.3,M,0000,0000*5F
$GPVTG,187.15,T,,M,0.00,N,0.00,K,D*32
$GPGGA,000307.250,4739.3549,N,12219.2661,W,2,09,1.03,335.8,M,-17.3,M,0000,0000*58
$GPVTG,187.15,T,,M,0.00,N,0.00,K,D*32
$GPGGA,000307.500,4739.3549,N,12219.2661,W,2,09,1.03,335.8,M,-17.3,M,0000,0000*5A
$GPRMC,000307.500,A,4739.3549,N,12219.2661,W,0.01,187.15,170822,,,D*75
$GPVTG,187.15,T,,M,0.01,N,0.01,K,D*32
$GPGGA,000307.750,4739.3549,N,12219.2661,W,2,09,1.03,335.8,M,-17.3,M,0000,0000*5D
$GPVTG,187.15,T,,M,0.00,N,0.01,K,D*33
$GPGGA,000308.000,4739.3549,N,12219.2661,W,2,09,1.03,335.8,M,-17.3,M,0000,0000*50
$GPVTG,187.15,T,,M,0.00,N,0.01,K,D*33
$GPGGA,000308.250,4739.3549,N,12219.2661,W,2,09,1.03,335.8,M,-17.3,M,0000,0000*57
$GPVTG,187.15,T,,M,0.01,N,0.01,K,D*32
$GPGGA,000308.500,4739.3549,N,12219.2661,W,2,09,1.03,335.8,M,-17.3,M,0000,0000*55
$GPRMC,000308.500,A,4739.3549,N,12219.2661,W,0.01,187.15,170822,,,D*7A
$GPVTG,187.15,T,,M,0.01,N,0.01,K,D*32
$GPGGA,000308.750,4739.3549,N,12219.2661,W,2,09,1.03,335.8,M,-17.3,M,0000,0000*52
$GPVTG,187.15,T,,M,0.00,N,0.01,K,D*33
$GPGGA,000309.000,4739.3549,N,12219.2661,W,2,09,1.03,335.8,M,-17.3,M,0000,0000*51
$GPVTG,187.15,T,,M,0.00,N,0.01,K,D*33
$GPGGA,000309.250,4739.3549,N,12219.2661,W,2,09,1.03,335.8,M,-17.3,M,0000,0000*56
$GPVTG,187.15,T,,M,0.00,N,0.00,K,D*32
$GPGGA,000309.500,4739.3549,N,12219.2661,W,2,09,1.03,335.8,M,-17.3,M,0000,0000*54
$GPRMC,000309.500,A,4739.3549,N,12219.2661,W,0.00,187.15,170822,,,D*7A
$GPVTG,187.15,T,,M,0.00,N,0.00,K,D*32
$GPGGA,000309.750,4739.3549,N,12219.2661,W,2,09,1.03,335.8,M,-17.3,M,0000,0000*53
$GPVTG,187.15,T,,M,0.01,N,0.01,K,D*32
$GPGGA,000310.000,4739.3549,N,12219.2661,W,2,09,1.03,335.8,M,-17.3,M,0000,0000*59
$GPVTG,187.15,T,,M,0.00,N,0.00,K,D*32
$GPGGA,000310.250,4739.3549,N,12219.2661,W,2,09,1.03,335.8,M,-17.3,M,0000,0000*5E
$GPVTG,187.15,T,,M,0.00,N,0.00,K,D*32
$GPGGA,000310.500,4739.3549,N,12219.2661,W,2,09,1.03,335.8,M,-17.3,M,0000,0000*5C
$GPRMC,000310.500,A,4739.3549,N,12219.2661,W,0.00,187.15,170822,,,D*72
$GPVTG,187.15,T,,M,0.00,N,0.00,K,D*32
$GPGGA,000310.750,4739.3549,N,12219.2661,W,2,09,1.03,335.8,M,-17.3,M,0000,0000*5B
$GPVTG,187.15,T,,M,0.01,N,0.02,K,D*31
$GPGGA,000311.000,4739.3549,N,12219.2661,W,2,09,1.03,335.8,M,-17.3,M,0000,0000*58
$GPVTG,187.15,T,,M,0.02,N,0.03,K,D*33
$GPGGA,000311.250,4739.3549,N,12219.2661,W,2,09,1.03,335.8,M,-17.3,M,0000,0000*5F
$GPVTG,187.15,T,,M,0.02,N,0.04,K,D*34
$GPGGA,000311.500,4739.3549,N,12219.2661,W,2,09,1.03,335.8,M,-17.3,M,0000,0000*5D
$GPRMC,000311.500,A,4739.3549,N,12219.2661,W,0.01,187.15,170822,,,D*72
$GPVTG,187.15,T,,M,0.01,N,0.02,K,D*31
$GPGGA,000311.750,4739.3549,N,12219.2661,W,2,09,1.03,335.8,M,-17.3,M,0000,0000*5A
$GPVTG,187.15,T,,M,0.01,N,0.01,K,D*32
$GPGGA,000312.000,4739.3549,N,12219.2661,W,2,09,1.03,335.8,M,-17.3,M,0000,0000*5B
$GPVTG,187.15,T,,M,0.01,N,0.02,K,D*31
$GPGGA,000312.250,4739.3549,N,12219.2661,W,2,09,1.03,335.8,M,-17.3,M,0000,0000*5C
$GPVTG,187.15,T,,M,0.02,N,0.05,K,D*35
$GPGGA,000312.500,4739.3549,N,12219.2661,W,2,09,1.03,335.8,M,-17.3,M,0000,0000*5E
$GPRMC,000312.500,A,4739.3549,N,12219.2661,W,0.01,187.15,170822,,,D*71
$GPVTG,187.15,T,,M,0.01,N,0.02,K,D*31
$GPGGA,000312.750,4739.3549,N,12219.2661,W,2,09,1.03,335.8,M,-17.3,M,0000,0000*59
$GPVTG,187.15,T,,M,0.00,N,0.00,K,D*32
$GPGGA,000313.000,4739.3549,N,12219.2661,W,2,09,1.03,335.8,M,-17.3,M,0000,0000*5A
$GPVTG,187.15,T,,M,0.00,N,0.01,K,D*33
$GPGGA,000313.250,4739.3549,N,12219.2661,W,2,09,1.03,335.8,M,-17.3,M,0000,0000*5D
$GPVTG,187.15,T,,M,0.01,N,0.02,K,D*31
$GPGGA,000313.500,4739.3549,N,12219.2661,W,2,09,1.03,335.8,M,-17.3,M,0000,0000*5F
$GPRMC,000313.500,A,4739.3549,N,12219.2661,W,0.00,187.15,170822,,,D*71
$GPVTG,187.15,T,,M,0.00,N,0.00,K,D*32
$GPGGA,000313.750,4739.3549,N,12219.2661,W,2,09,1.03,335.8,M,-17.3,M,0000,0000*58
$GPVTG,187.15,T,,M,0.01,N,0.02,K,D*31
$GPGGA,000314.000,4739.3549,N,12219.2661,W,2,09,1.03,335.8,M,-17.3,M,0000,0000*5D
$GPVTG,187.15,T,,M,0.01,N,0.01,K,D*32
$GPGGA,000314.250,4739.3549,N,12219.2661,W,2,09,1.03,335.8,M,-17.3,M,0000,0000*5A
$GPVTG,187.15,T,,M,0.01,N,0.02,K,D*31
$GPGGA,000314.500,4739.3549,N,12219.2661,W,2,09,1.03,335.8,M,-17.3,M,0000,0000*58
$GPRMC,000314.500,A,4739.3549,N,12219.2661,W,0.01,187.15,170822,,,D*77
$GPVTG,187.15,T,,M,0.01,N,0.01,K,D*32
$GPGGA,000314.750,4739.3549,N,12219.2661,W,2,09,1.03,335.8,M,-17.3,M,0000,0000*5F
$GPVTG,187.15,T,,M,0.00,N,0.01,K,D*33
$GPGGA,000315.000,4739.3549,N,12219.2661,W,2,09,1.03,335.8,M,-17.3,M,0000,0000*5C
$GPVTG,187.15,T,,M,0.00,N,0.01,K,D*33
$GPGGA,000315.250,4739.3549,N,12219.2661,W,2,09,1.03,335.8,M,-17.3,M,0000,0000*5B
$GPVTG,187.15,T,,M,0.01,N,0.02,K,D*31
$GPGGA,000315.500,4739.3549,N,12219.2661,W,2,09,1.03,335.8,M,-17.3,M,0000,0000*59
$GPRMC,000315.500,A,4739.3549,N,12219.2661,W,0.01,187.15,170822,,,D*76
$GPVTG,187.15,T,,M,0.01,N,0.02,K,D*31
$GPGGA,000315.750,4739.3549,N,12219.2661,W,2,09,1.03,335.8,M,-17.3,M,0000,0000*5E
$GPVTG,187.15,T,,M,0.00,N,0.00,K,D*32
$GPGGA,000316.000,4739.3549,N,12219.2661,W,2,09,1.03,335.8,M,-17.3,M,0000,0000*5F
$GPVTG,187.15,T,,M,0.00,N,0.01,K,D*33
$GPGGA,000316.250,4739.3549,N,12219.2661,W,2,09,1.03,335.8,M,-17.3,M,0000,0000*58
$GPVTG,187.15,T,,M,0.01,N,0.02,K,D*31
$GPGGA,000316.500,4739.3549,N,12219.2661,W,2,09,1.03,335.8,M,-17.3,M,0000,0000*5A
$GPRMC,000316.500,A,4739.3549,N,12219.2661,W,0.01,187.15,170822,,,D*75
$GPVTG,187.15,T,,M,0.01,N,0.02,K,D*31
$GPGGA,000316.750,4739.3549,N,12219.2661,W,2,09,1.03,335.8,M,-17.3,M,0000,0000*5D
$GPVTG,187.15,T,,M,0.01,N,0.01,K,D*32
$GPGGA,000317.000,4739.3549,N,12219.2661,W,2,09,1.03,335.8,M,-17.3,M,0000,0000*5E
$GPVTG,187.15,T,,M,0.01,N,0.01,K,D*32
$GPGGA,000317.250,4739.3549,N,12219.2661,W,2,09,1.03,335.8,M,-17.3,M,0000,0000*59
$GPVTG,187.15,T,,M,0.01,N,0.02,K,D*31
$GPGGA,000317.500,4739.3549,N,12219.2660,W,2,09,1.03,335.8,M,-17.3,M,0000,0000*5A
$GPRMC,000317.500,A,4739.3549,N,12219.2660,W,0.01,187.15,170822,,,D*75
$GPVTG,187.15,T,,M,0.01,N,0.01,K,D*32
$GPGGA,000317.750,4739.3549,N,12219.2660,W,2,09,1.03,335.8,M,-17.3,M,0000,0000*5D
$GPVTG,187.15,T,,M,0.01,N,0.01,K,D*32
$GPGGA,000318.000,4739.3549,N,12219.2660,W,2,09,1.03,335.8,M,-17.3,M,0000,0000*50
$GPVTG,187.15,T,,M,0.01,N,0.02,K,D*31
$GPGGA,000318.250,4739.3549,N,12219.2660,W,2,09,1.03,335.8,M,-17.3,M,0000,0000*57
$GPVTG,187.15,T,,M,0.00,N,0.01,K,D*33
$GPGGA,000318.500,4739.3549,N,12219.2660,W,2,09,1.03,335.8,M,-17.3,M,0000,0000*55
$GPRMC,000318.500,A,4739.3549,N,12219.2660,W,0.01,187.15,170822,,,D*7A
$GPVTG,187.15,T,,M,0.01,N,0.01,K,D*32
$GPGGA,000318.750,4739.3549,N,12219.2660,W,2,09,1.03,335.8,M,-17.3,M,0000,0000*52
$GPVTG,187.15,T,,M,0.01,N,0.02,K,D*31
$GPGGA,000319.000,4739.3549,N,12219.2660,W,2,09,1.03,335.8,M,-17.3,M,0000,0000*51
$GPVTG,187.15,T,,M,0.01,N,0.02,K,D*31
$GPGGA,000319.250,4739.3549,N,12219.2660,W,2,09,1.03,335.8,M,-17.3,M,0000,0000*56
$GPVTG,187.15,T,,M,0.01,N,0.01,K,D*32
$GPGGA,000319.500,4739.3549,N,12219.2660,W,2,09,1.03,335.8,M,-17.3,M,0000,0000*54
$GPRMC,000319.500,A,4739.3549,N,12219.2660,W,0.00,187.15,170822,,,D*7A
$GPVTG,187.15,T,,M,0.00,N,0.01,K,D*33
$GPGGA,000319.750,4739.3549,N,12219.2660,W,2,09,1.03,335.8,M,-17.3,M,0000,0000*53
$GPVTG,187.15,T,,M,0.01,N,0.01,K,D*32
$GPGGA,000320.000,4739.3549,N,12219.2660,W,2,09,1.03,335.8,M,-17.3,M,0000,0000*5B
$GPVTG,187.15,T,,M,0.01,N,0.01,K,D*32
$GPGGA,000320.250,4739.3549,N,12219.2660,W,2,09,1.03,335.8,M,-17.3,M,0000,0000*5C
$GPVTG,187.15,T,,M,0.00,N,0.00,K,D*32
$GPGGA,000320.500,4739.3549,N,12219.2660,W,2,09,1.03,335.8,M,-17.3,M,0000,0000*5E
$GPRMC,000320.500,A,4739.3549,N,12219.2660,W,0.00,187.15,170822,,,D*70
$GPVTG,187.15,T,,M,0.00,N,0.00,K,D*32
$GPGGA,000320.750,4739.3549,N,12219.2660,W,2,09,1.03,335.8,M,-17.3,M,0000,0000*59
$GPVTG,187.15,T,,M,0.01,N,0.01,K,D*32
$GPGGA,000321.000,4739.3549,N,12219.2660,W,2,09,1.03,335.8,M,-17.3,M,0000,0000*5A
$GPVTG,187.15,T,,M,0.00,N,0.01,K,D*33
$GPGGA,000321.250,4739.3549,N,12219.2660,W,2,09,1.03,335.8,M,-17.3,M,0000,0000*5D
$GPVTG,187.15,T,,M,0.00,N,0.00,K,D*32
$GPGGA,000321.500,4739.3549,N,12219.2660,W,2,09,1.03,335.8,M,-17.3,M,0000,0000*5F
$GPRMC,000321.500,A,4739.3549,N,12219.2660,W,0.01,187.15,170822,,,D*70
$GPVTG,187.15,T,,M,0.01,N,0.02,K,D*31
$GPGGA,000321.750,4739.3549,N,12219.2660,W,2,09,1.03,335.8,M,-17.3,M,0000,0000*58
$GPVTG,187.15,T,,M,0.01,N,0.02,K,D*31
$GPGGA,000322.000,4739.3549,N,12219.2660,W,2,09,1.03,335.8,M,-17.3,M,0000,0000*59
$GPVTG,187.15,T,,M,0.01,N,0.02,K,D*31
$GPGGA,000322.250,4739.3548,N,12219.2660,W,2,09,1.03,335.8,M,-17.3,M,0000,0000*5F
$GPVTG,187.15,T,,M,0.01,N,0.01,K,D*32
$GPGGA,000322.500,4739.3548,N,12219.2660,W,2,09,1.03,335.8,M,-17.3,M,0000,0000*5D
$GPRMC,000322.500,A,4739.3548,N,12219.2660,W,0.00,187.15,170822,,,D*73
$GPVTG,187.15,T,,M,0.00,N,0.01,K,D*33
$GPGGA,000322.750,4739.3548,N,12219.2660,W,2,09,1.03,335.8,M,-17.3,M,0000,0000*5A
$GPVTG,187.15,T,,M,0.01,N,0.01,K,D*32
$GPGGA,000323.000,4739.3548,N,12219.2660,W,2,09,1.03,335.8,M,-17.3,M,0000,0000*59
$GPVTG,187.15,T,,M,0.01,N,0.01,K,D*32
$GPGGA,000323.250,4739.3548,N,12219.2660,W,2,09,1.03,335.8,M,-17.3,M,0000,0000*5E
$GPVTG,187.15,T,,M,0.00,N,0.00,K,D*32
$GPGGA,000323.500,4739.3548,N,12219.2660,W,2,09,1.03,335.8,M,-17.3,M,0000,0000*5C
$GPRMC,000323.500,A,4739.3548,N,12219.2660,W,0.01,187.15,170822,,,D*73
$GPVTG,187.15,T,,M,0.01,N,0.01,K,D*32
$GPGGA,000323.750,4739.3548,N,12219.2660,W,2,09,1.03,335.8,M,-17.3,M,0000,0000*5B
$GPVTG,187.15,T,,M,0.01,N,0.02,K,D*31
$GPGGA,000324.000,4739.3548,N,12219.2660,W,2,09,1.03,335.8,M,-17.3,M,0000,0000*5E
$GPVTG,187.15,T,,M,0.00,N,0.01,K,D*33
$GPGGA,000324.250,4739.3548,N,12219.2660,W,2,09,1.03,335.8,M,-17.3,M,0000,0000*59
$GPVTG,187.15,T,,M,0.01,N,0.01,K,D*32
$GPGGA,000324.500,4739.3548,N,12219.2660,W,2,09,1.03,335.8,M,-17.3,M,0000,0000*5B
$GPRMC,000324.500,A,4739.3548,N,12219.2660,W,0.01,187.15,170822,,,D*74
$GPVTG,187.15,T,,M,0.01,N,0.02,K,D*31
$GPGGA,000324.750,4739.3548,N,12219.2660,W,2,09,1.03,335.8,M,-17.3,M,0000,0000*5C
$GPVTG,187.15,T,,M,0.00,N,0.01,K,D*33
$GPGGA,000325.000,4739.3548,N,12219.2660,W,2,09,1.03,335.8,M,-17.3,M,0000,0000*5F
$GPVTG,187.15,T,,M,0.00,N,0.01,K,D*33
$GPGGA,000325.250,4739.3548,N,12219.2660,W,2,09,1.03,335.8,M,-17.3,M,0000,0000*58
$GPVTG,187.15,T,,M,0.01,N,0.01,K,D*32
$GPGGA,000325.500,4739.3548,N,12219.2660,W,2,09,1.03,335.8,M,-17.3,M,0000,0000*5A
$GPRMC,000325.500,A,4739.3548,N,12219.2660,W,0.02,187.15,170822,,,D*76
$GPVTG,187.15,T,,M,0.02,N,0.03,K,D*33
$GPGGA,000325.750,4739.3548,N,12219.2660,W,2,09,1.03,335.8,M,-17.3,M,0000,0000*5D
$GPVTG,187.15,T,,M,0.02,N,0.03,K,D*33
$GPGGA,000326.000,4739.3548,N,12219.2660,W,2,09,1.03,335.8,M,-17.3,M,0000,0000*5C
$GPVTG,187.15,T,,M,0.01,N,0.01,K,D*32
$GPGGA,000326.250,4739.3548,N,12219.2660,W,2,09,1.03,335.8,M,-17.3,M,0000,0000*5B
$GPVTG,187.15,T,,M,0.01,N,0.02,K,D*31
$GPGGA,000326.500,4739.3548,N,12219.2660,W,2,09,1.03,335.8,M,-17.3,M,0000,0000*59
$GPRMC,000326.500,A,4739.3548,N,12219.2660,W,0.01,187.15,170822,,,D*76
$GPVTG,187.15,T,,M,0.01,N,0.02,K,D*31
$GPGGA,000326.750,4739.3548,N,12219.2660,W,2,09,1.03,335.8,M,-17.3,M,0000,0000*5E
$GPVTG,187.15,T,,M,0.00,N,0.01,K,D*33
$GPGGA,000327.000,4739.3548,N,12219.2660,W,2,09,1.03,335.8,M,-17.3,M,0000,0000*5D
$GPVTG,187.15,T,,M,0.01,N,0.01,K,D*32
$GPGGA,000327.250,4739.3548,N,12219.2660,W,2,09,1.03,335.8,M,-17.3,M,0000,0000*5A
$GPVTG,187.15,T,,M,0.00,N,0.01,K,D*33
$GPGGA,000327.500,4739.3548,N,12219.2660,W,2,09,1.03,335.8,M,-17.3,M,0000,0000*58
$GPRMC,000327.500,A,4739.3548,N,12219.2660,W,0.00,187.15,170822,,,D*76
$GPVTG,187.15,T,,M,0.00,N,0.01,K,D*33
$GPGGA,000327.750,4739.3548,N,12219.2660,W,2,09,1.03,335.8,M,-17.3,M,0000,0000*5F
$GPVTG,187.15,T,,M,0.00,N,0.00,K,D*32
$GPGGA,000328.000,4739.3548,N,12219.2660,W,2,09,1.03,335.8,M,-17.3,M,0000,0000*52
$GPVTG,187.15,T,,M,0.01,N,0.02,K,D*31
$GPGGA,000328.250,4739.3548,N,12219.2660,W,2,09,1.03,335.8,M,-17.3,M,0000,0000*55
$GPVTG,187.15,T,,M,0.00,N,0.01,K,D*33
$GPGGA,000328.500,4739.3548,N,12219.2660,W,2,09,1.03,335.8,M,-17.3,M,0000,0000*57
$GPRMC,000328.500,A,4739.3548,N,12219.2660,W,0.00,187.15,170822,,,D*79
$GPVTG,187.15,T,,M,0.00,N,0.01,K,D*33
$GPGGA,000328.750,4739.3548,N,12219.2660,W,2,09,1.03,335.8,M,-17.3,M,0000,0000*50
$GPVTG,187.15,T,,M,0.01,N,0.01,K,D*32
$GPGGA,000329.000,4739.3548,N,12219.2660,W,2,09,1.14,335.8,M,-17.3,M,0000,0000*55
$GPVTG,187.15,T,,M,0.01,N,0.01,K,D*32
$GPGGA,000329.250,4739.3548,N,12219.2660,W,2,09,1.03,335.8,M,-17.3,M,0000,0000*54
$GPVTG,187.15,T,,M,0.01,N,0.01,K,D*32
$GPGGA,000329.500,4739.3548,N,12219.2660,W,2,09,1.03,335.8,M,-17.3,M,0000,0000*56
$GPRMC,000329.500,A,4739.3548,N,12219.2660,W,0.01,187.15,170822,,,D*79
$GPVTG,187.15,T,,M,0.01,N,0.01,K,D*32
$GPGGA,000329.750,4739.3548,N,12219.2660,W,2,09,1.03,335.8,M,-17.3,M,0000,0000*51
$GPVTG,187.15,T,,M,0.01,N,0.01,K,D*32
$GPGGA,000330.000,4739.3548,N,12219.2660,W,2,09,1.03,335.8,M,-17.3,M,0000,0000*5B
$GPVTG,187.15,T,,M,0.00,N,0.01,K,D*33
$GPGGA,000330.250,4739.3548,N,12219.2660,W,2,09,1.03,335.8,M,-17.3,M,0000,0000*5C
$GPVTG,187.15,T,,M,0.01,N,0.02,K,D*31
$GPGGA,000330.500,4739.3548,N,12219.2660,W,2,09,1.03,335.8,M,-17.3,M,0000,0000*5E
$GPRMC,000330.500,A,4739.3548,N,12219.2660,W,0.00,187.15,170822,,,D*70
$GPVTG,187.15,T,,M,0.00,N,0.01,K,D*33
$GPGGA,000330.750,4739.3548,N,12219.2660,W,2,09,1.14,335.8,M,-17.3,M,0000,0000*5F
$GPVTG,187.15,T,,M,0.01,N,0.02,K,D*31
$GPGGA,000331.000,4739.3548,N,12219.2660,W,2,09,1.14,335.8,M,-17.3,M,0000,0000*5C
$GPVTG,187.15,T,,M,0.00,N,0.01,K,D*33
$GPGGA,000331.250,4739.3548,N,12219.2660,W,2,09,1.03,335.8,M,-17.3,M,0000,0000*5D
$GPVTG,187.15,T,,M,0.01,N,0.01,K,D*32
$GPGGA,000331.500,4739.3548,N,12219.2660,W,2,09,1.03,335.8,M,-17.3,M,0000,0000*5F
$GPRMC,000331.500,A,4739.3548,N,12219.2660,W,0.00,187.15,170822,,,D*71
$GPVTG,187.15,T,,M,0.00,N,0.00,K,D*32
$GPGGA,000331.750,4739.3548,N,12219.2660,W,2,09,1.03,335.8,M,-17.3,M,0000,0000*58
$GPVTG,187.15,T,,M,0.00,N,0.00,K,D*32
$GPGGA,000332.000,4739.3548,N,12219.2660,W,2,09,1.03,335.8,M,-17.3,M,0000,0000*59
$GPVTG,187.15,T,,M,0.01,N,0.02,K,D*31
$GPGGA,000332.250,4739.3548,N,12219.2660,W,2,09,1.03,335.8,M,-17.3,M,0000,0000*5E
$GPVTG,187.15,T,,M,0.00,N,0.00,K,D*32
$GPGGA,000332.500,4739.3548,N,12219.2660,W,2,09,1.03,335.8,M,-17.3,M,0000,0000*5C
$GPRMC,000332.500,A,4739.3548,N,12219.2660,W,0.01,187.15,170822,,,D*73
$GPVTG,187.15,T,,M,0.01,N,0.01,K,D*32
$GPGGA,000332.750,4739.3548,N,12219.2660,W,2,09,1.03,335.8,M,-17.3,M,0000,0000*5B
$GPVTG,187.15,T,,M,0.00,N,0.01,K,D*33
$GPGGA,000333.000,4739.3548,N,12219.2660,W,2,09,1.03,335.8,M,-17.3,M,0000,0000*58
$GPVTG,187.15,T,,M,0.00,N,0.00,K,D*32
$GPGGA,000333.250,4739.3548,N,12219.2660,W,2,09,1.03,335.8,M,-17.3,M,0000,0000*5F
$GPVTG,187.15,T,,M,0.01,N,0.01,K,D*32
$GPGGA,000333.500,4739.3548,N,12219.2660,W,2,09,1.03,335.8,M,-17.3,M,0000,0000*5D
$GPRMC,000333.500,A,4739.3548,N,12219.2660,W,0.01,187.15,170822,,,D*72
$GPVTG,187.15,T,,M,0.01,N,0.01,K,D*32
$GPGGA,000333.750,4739.3548,N,12219.2660,W,2,09,1.03,335.8,M,-17.3,M,0000,0000*5A
$GPVTG,187.15,T,,M,0.00,N,0.01,K,D*33
$GPGGA,000334.000,4739.3548,N,12219.2660,W,2,09,1.03,335.8,M,-17.3,M,0000,0000*5F
$GPVTG,187.15,T,,M,0.00,N,0.01,K,D*33
$GPGGA,000334.250,4739.3548,N,12219.2660,W,2,09,1.03,335.8,M,-17.3,M,0000,0000*58
$GPVTG,187.15,T,,M,0.01,N,0.02,K,D*31
$GPGGA,000334.500,4739.3548,N,12219.2660,W,2,09,1.03,335.8,M,-17.3,M,0000,0000*5A
$GPRMC,000334.500,A,4739.3548,N,12219.2660,W,0.00,187.15,170822,,,D*74
$GPVTG,187.15,T,,M,0.00,N,0.00,K,D*32
$GPGGA,000334.750,4739.3548,N,12219.2660,W,2,09,1.03,335.8,M,-17.3,M,0000,0000*5D
$GPVTG,187.15,T,,M,0.00,N,0.01,K,D*33
$GPGGA,000335.000,4739.3548,N,12219.2660,W,2,09,1.03,335.8,M,-17.3,M,0000,0000*5E
$GPVTG,187.15,T,,M,0.01,N,0.01,K,D*32
$GPGGA,000335.250,4739.3548,N,12219.2660,W,2,09,1.03,335.8,M,-17.3,M,0000,0000*59
$GPVTG,187.15,T,,M,0.01,N,0.03,K,D*30
$GPGGA,000335.500,4739.3548,N,12219.2660,W,2,09,1.03,335.8,M,-17.3,M,0000,0000*5B
$GPRMC,000335.500,A,4739.3548,N,12219.2660,W,0.01,187.15,170822,,,D*74
$GPVTG,187.15,T,,M,0.01,N,0.02,K,D*31
$GPGGA,000335.750,4739.3548,N,12219.2660,W,2,09,1.03,335.8,M,-17.3,M,0000,0000*5C
$GPVTG,187.15,T,,M,0.00,N,0.00,K,D*32
$GPGGA,000336.000,4739.3548,N,12219.2660,W,2,09,1.03,335.8,M,-17.3,M,0000,0000*5D
$GPVTG,187.15,T,,M,0.01,N,0.02,K,D*31
$GPGGA,000336.250,4739.3548,N,12219.2660,W,2,09,1.03,335.8,M,-17.3,M,0000,0000*5A
$GPVTG,187.15,T,,M,0.01,N,0.02,K,D*31
$GPGGA,000336.500,4739.3548,N,12219.2660,W,2,09,1.03,335.8,M,-17.3,M,0000,0000*58
$GPRMC,000336.500,A,4739.3548,N,12219.2660,W,0.01,187.15,170822,,,D*77
$GPVTG,187.15,T,,M,0.01,N,0.02,K,D*31
$GPGGA,000336.750,4739.3548,N,12219.2660,W,2,09,1.03,335.8,M,-17.3,M,0000,0000*5F
$GPVTG,187.15,T,,M,0.01,N,0.02,K,D*31
$GPGGA,000337.000,4739.3548,N,12219.2660,W,2,09,1.03,335.8,M,-17.3,M,0000,0000*5C
$GPVTG,187.15,T,,M,0.00,N,0.00,K,D*32
$GPGGA,000337.250,4739.3548,N,12219.2660,W,2,09,1.03,335.8,M,-17.3,M,0000,0000*5B
$GPVTG,187.15,T,,M,0.02,N,0.04,K,D*34
$GPGGA,000337.500,4739.3548,N,12219.2660,W,2,09,1.03,335.8,M,-17.3,M,0000,0000*59
$GPRMC,000337.500,A,4739.3548,N,12219.2660,W,0.01,187.15,170822,,,D*76
$GPVTG,187.15,T,,M,0.01,N,0.02,K,D*31
$GPGGA,000337.750,4739.3548,N,12219.2660,W,2,09,1.03,335.8,M,-17.3,M,0000,0000*5E
$GPVTG,187.15,T,,M,0.01,N,0.02,K,D*31
$GPGGA,000338.000,4739.3548,N,12219.2660,W,2,09,1.03,335.8,M,-17.3,M,0000,0000*53
$GPVTG,187.15,T,,M,0.00,N,0.01,K,D*33
$GPGGA,000338.250,4739.3548,N,12219.2660,W,2,09,1.03,335.8,M,-17.3,M,0000,0000*54
$GPVTG,187.15,T,,M,0.00,N,0.01,K,D*33
$GPGGA,000338.500,4739.3548,N,12219.2660,W,2,09,1.03,335.8,M,-17.3,M,0000,0000*56
$GPRMC,000338.500,A,4739.3548,N,12219.2660,W,0.01,187.15,170822,,,D*79
$GPVTG,187.15,T,,M,0.01,N,0.01,K,D*32
$GPGGA,000338.750,4739.3548,N,12219.2660,W,2,09,1.03,335.8,M,-17.3,M,0000,0000*51
$GPVTG,187.15,T,,M,0.01,N,0.02,K,D*31
$GPGGA,000339.000,4739.3548,N,12219.2660,W,2,09,1.03,335.8,M,-17.3,M,0000,0000*52
$GPVTG,187.15,T,,M,0.01,N,0.02,K,D*31
$GPGGA,000339.250,4739.3548,N,12219.2660,W,2,09,1.03,335.8,M,-17.3,M,0000,0000*55
$GPVTG,187.15,T,,M,0.00,N,0.00,K,D*32
$GPGGA,000339.500,4739.3548,N,12219.2660,W,2,09,1.03,335.8,M,-17.3,M,0000,0000*57
$GPRMC,000339.500,A,4739.3548,N,12219.2660,W,0.00,187.15,170822,,,D*79
$GPVTG,187.15,T,,M,0.00,N,0.01,K,D*33
$GPGGA,000339.750,4739.3548,N,12219.2660,W,2,09,1.03,335.8,M,-17.3,M,0000,0000*50
$GPVTG,187.15,T,,M,0.01,N,0.02,K,D*31
