$GPGGA,222013.500,4738.9749,N,12215.7727,W,2,10,0.79,-3.0,M,-17.3,M,0000,0000*7A
$GPVTG,285.84,T,,M,0.02,N,0.04,K,D*3D
$GPGGA,222013.750,4738.9749,N,12215.7727,W,2,10,0.79,-3.0,M,-17.3,M,0000,0000*7D
$GPVTG,285.84,T,,M,0.03,N,0.06,K,D*3E
$GPGGA,222014.000,4738.9749,N,12215.7727,W,2,10,0.79,-3.0,M,-17.3,M,0000,0000*78
$GPVTG,285.84,T,,M,0.03,N,0.06,K,D*3E
$GPGGA,222014.250,4738.9749,N,12215.7727,W,2,10,0.79,-3.0,M,-17.3,M,0000,0000*7F
$GPRMC,222014.250,A,4738.9749,N,12215.7727,W,0.03,285.84,230822,,,D*7B
$GPVTG,285.84,T,,M,0.03,N,0.05,K,D*3D
$GPGGA,222014.500,4738.9749,N,12215.7727,W,2,10,0.79,-3.0,M,-17.3,M,0000,0000*7D
$GPVTG,285.84,T,,M,0.14,N,0.26,K,D*3A
$GPGGA,222014.750,4738.9749,N,12215.7727,W,2,10,0.79,-3.0,M,-17.3,M,0000,0000*7A
$GPVTG,285.84,T,,M,0.16,N,0.30,K,D*3F
$GPGGA,222015.000,4738.9749,N,12215.7727,W,2,10,0.79,-3.0,M,-17.3,M,0000,0000*79
$GPVTG,285.84,T,,M,0.07,N,0.13,K,D*3E
$GPGGA,222015.250,4738.9749,N,12215.7727,W,2,10,0.79,-3.0,M,-17.3,M,0000,0000*7E
$GPRMC,222015.250,A,4738.9749,N,12215.7727,W,0.06,285.84,230822,,,D*7F
$GPVTG,285.84,T,,M,0.06,N,0.12,K,D*3E
$GPGGA,222015.500,4738.9749,N,12215.7727,W,2,10,0.79,-3.0,M,-17.3,M,0000,0000*7C
$GPVTG,285.84,T,,M,0.11,N,0.21,K,D*38
$GPGGA,222015.750,4738.9749,N,12215.7727,W,2,10,0.79,-3.0,M,-17.3,M,0000,0000*7B
$GPVTG,285.84,T,,M,0.08,N,0.15,K,D*37
$GPGGA,222016.000,4738.9749,N,12215.7727,W,2,10,0.79,-3.0,M,-17.3,M,0000,0000*7A
$GPVTG,285.84,T,,M,0.01,N,0.02,K,D*38
$GPGGA,222016.250,4738.9749,N,12215.7727,W,2,10,0.79,-3.0,M,-17.3,M,0000,0000*7D
$GPRMC,222016.250,A,4738.9749,N,12215.7727,W,0.01,285.84,230822,,,D*7B
$GPVTG,285.84,T,,M,0.01,N,0.02,K,D*38
$GPGGA,222016.500,4738.9749,N,12215.7727,W,2,10,0.79,-3.0,M,-17.3,M,0000,0000*7F
$GPVTG,285.84,T,,M,0.01,N,0.01,K,D*3B
$GPGGA,222016.750,4738.9749,N,12215.7727,W,2,10,0.79,-3.0,M,-17.3,M,0000,0000*78
$GPVTG,285.84,T,,M,0.02,N,0.03,K,D*3A
$GPGGA,222017.000,4738.9749,N,12215.7727,W,2,10,0.79,-3.0,M,-17.3,M,0000,0000*7B
$GPVTG,285.84,T,,M,0.01,N,0.02,K,D*38
$GPGGA,222017.250,4738.9749,N,12215.7727,W,2,10,0.79,-3.0,M,-17.3,M,0000,0000*7C
$GPRMC,222017.250,A,4738.9749,N,12215.7727,W,0.00,285.84,230822,,,D*7B
$GPVTG,285.84,T,,M,0.00,N,0.01,K,D*3A
$GPGGA,222017.500,4738.9749,N,12215.7727,W,2,10,0.79,-3.0,M,-17.3,M,0000,0000*7E
$GPVTG,285.84,T,,M,0.02,N,0.03,K,D*3A
$GPGGA,222017.750,4738.9749,N,12215.7727,W,2,10,0.79,-3.0,M,-17.3,M,0000,0000*79
$GPVTG,285.84,T,,M,0.02,N,0.04,K,D*3D
$GPGGA,222018.000,4738.9748,N,12215.7727,W,2,10,0.79,-3.0,M,-17.3,M,0000,0000*75
$GPVTG,285.84,T,,M,0.01,N,0.02,K,D*38
$GPGGA,222018.250,4738.9748,N,12215.7727,W,2,10,0.79,-3.0,M,-17.3,M,0000,0000*72
$GPRMC,222018.250,A,4738.9748,N,12215.7727,W,0.02,285.84,230822,,,D*77
$GPVTG,285.84,T,,M,0.02,N,0.03,K,D*3A
$GPGGA,222018.500,4738.9748,N,12215.7727,W,2,10,0.79,-3.0,M,-17.3,M,0000,0000*70
$GPVTG,285.84,T,,M,0.02,N,0.04,K,D*3D
$GPGGA,222018.750,4738.9748,N,12215.7727,W,2,10,0.79,-3.0,M,-17.3,M,0000,0000*77
$GPVTG,285.84,T,,M,0.07,N,0.12,K,D*3F
$GPGGA,222019.000,4738.9748,N,12215.7727,W,2,10,0.79,-3.0,M,-17.3,M,0000,0000*74
$GPVTG,285.84,T,,M,0.00,N,0.01,K,D*3A
$GPGGA,222019.250,4738.9748,N,12215.7727,W,2,10,0.79,-3.0,M,-17.3,M,0000,0000*73
$GPRMC,222019.250,A,4738.9748,N,12215.7727,W,0.02,285.84,230822,,,D*76
$GPVTG,285.84,T,,M,0.02,N,0.04,K,D*3D
$GPGGA,222019.500,4738.9748,N,12215.7727,W,2,10,0.79,-3.0,M,-17.3,M,0000,0000*71
$GPVTG,285.84,T,,M,0.05,N,0.08,K,D*36
$GPGGA,222019.750,4738.9748,N,12215.7727,W,2,10,0.79,-3.0,M,-17.3,M,0000,0000*76
$GPVTG,285.84,T,,M,0.04,N,0.07,K,D*38
$GPGGA,222020.000,4738.9748,N,12215.7727,W,2,10,0.79,-3.0,M,-17.3,M,0000,0000*7E
$GPVTG,285.84,T,,M,0.01,N,0.01,K,D*3B
$GPGGA,222020.250,4738.9748,N,12215.7727,W,2,10,0.79,-3.0,M,-17.3,M,0000,0000*79
$GPRMC,222020.250,A,4738.9748,N,12215.7727,W,0.02,285.84,230822,,,D*7C
$GPVTG,285.84,T,,M,0.02,N,0.03,K,D*3A
$GPGGA,222020.500,4738.9748,N,12215.7727,W,2,10,0.79,-3.0,M,-17.3,M,0000,0000*7B
$GPVTG,285.84,T,,M,0.03,N,0.06,K,D*3E
$GPGGA,222020.750,4738.9748,N,12215.7727,W,2,10,0.79,-3.0,M,-17.3,M,0000,0000*7C
$GPVTG,285.84,T,,M,0.02,N,0.03,K,D*3A
$GPGGA,222021.000,4738.9748,N,12215.7727,W,2,10,0.79,-3.0,M,-17.3,M,0000,0000*7F
$GPVTG,285.84,T,,M,0.03,N,0.05,K,D*3D
$GPGGA,222021.250,4738.9748,N,12215.7727,W,2,10,0.79,-3.0,M,-17.3,M,0000,0000*78
$GPRMC,222021.250,A,4738.9748,N,12215.7727,W,0.08,285.84,230822,,,D*77
$GPVTG,285.84,T,,M,0.08,N,0.15,K,D*37
$GPGGA,222021.500,4738.9748,N,12215.7727,W,2,10,0.79,-3.0,M,-17.3,M,0000,0000*7A
$GPVTG,285.84,T,,M,0.10,N,0.19,K,D*32
$GPGGA,222021.750,4738.9748,N,12215.7727,W,2,10,0.79,-3.0,M,-17.3,M,0000,0000*7D
$GPVTG,285.84,T,,M,0.13,N,0.23,K,D*38
$GPGGA,222022.000,4738.9748,N,12215.7727,W,2,10,0.79,-3.0,M,-17.3,M,0000,0000*7C
$GPVTG,285.84,T,,M,0.04,N,0.07,K,D*38
$GPGGA,222022.250,4738.9748,N,12215.7727,W,2,10,0.79,-3.0,M,-17.3,M,0000,0000*7B
$GPRMC,222022.250,A,4738.9748,N,12215.7727,W,0.06,285.84,230822,,,D*7A
$GPVTG,285.84,T,,M,0.06,N,0.10,K,D*3C
$GPGGA,222022.500,4738.9748,N,12215.7727,W,2,10,0.79,-3.0,M,-17.3,M,0000,0000*79
$GPVTG,285.84,T,,M,0.06,N,0.12,K,D*3E
$GPGGA,222022.750,4738.9748,N,12215.7727,W,2,10,0.79,-3.0,M,-17.3,M,0000,0000*7E
$GPVTG,285.84,T,,M,0.04,N,0.08,K,D*37
$GPGGA,222023.000,4738.9748,N,12215.7727,W,2,10,0.79,-3.0,M,-17.3,M,0000,0000*7D
$GPVTG,285.84,T,,M,0.02,N,0.03,K,D*3A
$GPGGA,222023.250,4738.9748,N,12215.7727,W,2,10,0.79,-3.0,M,-17.3,M,0000,0000*7A
$GPRMC,222023.250,A,4738.9748,N,12215.7727,W,0.01,285.84,230822,,,D*7C
$GPVTG,285.84,T,,M,0.01,N,0.02,K,D*38
$GPGGA,222023.500,4738.9748,N,12215.7727,W,2,10,0.79,-3.0,M,-17.3,M,0000,0000*78
$GPVTG,285.84,T,,M,0.04,N,0.07,K,D*38
$GPGGA,222023.750,4738.9748,N,12215.7727,W,2,10,0.79,-3.0,M,-17.3,M,0000,0000*7F
$GPVTG,285.84,T,,M,0.03,N,0.05,K,D*3D
$GPGGA,222024.000,4738.9748,N,12215.7727,W,2,10,0.79,-3.0,M,-17.3,M,0000,0000*7A
$GPVTG,285.84,T,,M,0.03,N,0.06,K,D*3E
$GPGGA,222024.250,4738.9748,N,12215.7727,W,2,10,0.79,-3.0,M,-17.3,M,0000,0000*7D
$GPRMC,222024.250,A,4738.9748,N,12215.7727,W,0.05,285.84,230822,,,D*7F
$GPVTG,285.84,T,,M,0.05,N,0.09,K,D*37
$GPGGA,222024.500,4738.9748,N,12215.7727,W,2,10,0.79,-3.0,M,-17.3,M,0000,0000*7F
$GPVTG,285.84,T,,M,0.03,N,0.06,K,D*3E
$GPGGA,222024.750,4738.9748,N,12215.7727,W,2,10,0.79,-3.0,M,-17.3,M,0000,0000*78
$GPVTG,285.84,T,,M,0.01,N,0.02,K,D*38
$GPGGA,222025.000,4738.9748,N,12215.7727,W,2,10,0.79,-3.0,M,-17.3,M,0000,0000*7B
$GPVTG,285.84,T,,M,0.02,N,0.04,K,D*3D
$GPGGA,222025.250,4738.9748,N,12215.7727,W,2,10,0.79,-3.0,M,-17.3,M,0000,0000*7C
$GPRMC,222025.250,A,4738.9748,N,12215.7727,W,0.03,285.84,230822,,,D*78
$GPVTG,285.84,T,,M,0.03,N,0.05,K,D*3D
$GPGGA,222025.500,4738.9748,N,12215.7727,W,2,10,0.79,-3.0,M,-17.3,M,0000,0000*7E
$GPVTG,285.84,T,,M,0.02,N,0.03,K,D*3A
$GPGGA,222025.750,4738.9748,N,12215.7727,W,2,10,0.79,-3.0,M,-17.3,M,0000,0000*79
$GPVTG,285.84,T,,M,0.04,N,0.07,K,D*38
$GPGGA,222026.000,4738.9748,N,12215.7727,W,2,10,0.79,-3.0,M,-17.3,M,0000,0000*78
$GPVTG,285.84,T,,M,0.09,N,0.16,K,D*35
$GPGGA,222026.250,4738.9748,N,12215.7727,W,2,10,0.79,-3.0,M,-17.3,M,0000,0000*7F
$GPRMC,222026.250,A,4738.9748,N,12215.7727,W,0.06,285.84,230822,,,D*7E
$GPVTG,285.84,T,,M,0.06,N,0.11,K,D*3D
$GPGGA,222026.500,4738.9748,N,12215.7727,W,2,10,0.79,-3.0,M,-17.3,M,0000,0000*7D
$GPVTG,285.84,T,,M,0.02,N,0.04,K,D*3D
$GPGGA,222026.750,4738.9748,N,12215.7727,W,2,10,0.79,-3.0,M,-17.3,M,0000,0000*7A
$GPVTG,285.84,T,,M,0.04,N,0.07,K,D*38
$GPGGA,222027.000,4738.9748,N,12215.7727,W,2,10,0.79,-3.0,M,-17.3,M,0000,0000*79
$GPVTG,285.84,T,,M,0.04,N,0.07,K,D*38
$GPGGA,222027.250,4738.9748,N,12215.7727,W,2,10,0.79,-3.0,M,-17.3,M,0000,0000*7E
$GPRMC,222027.250,A,4738.9748,N,12215.7727,W,0.03,285.84,230822,,,D*7A
$GPVTG,285.84,T,,M,0.03,N,0.05,K,D*3D
$GPGGA,222027.500,4738.9748,N,12215.7727,W,2,10,0.79,-3.0,M,-17.3,M,0000,0000*7C
$GPVTG,285.84,T,,M,0.04,N,0.07,K,D*38
$GPGGA,222027.750,4738.9748,N,12215.7727,W,2,10,0.79,-3.0,M,-17.3,M,0000,0000*7B
$GPVTG,285.84,T,,M,0.06,N,0.11,K,D*3D
$GPGGA,222028.000,4738.9748,N,12215.7727,W,2,10,0.79,-3.0,M,-17.3,M,0000,0000*76
$GPVTG,285.84,T,,M,0.06,N,0.11,K,D*3D
$GPGGA,222028.250,4738.9748,N,12215.7727,W,2,10,0.79,-3.0,M,-17.3,M,0000,0000*71
$GPRMC,222028.250,A,4738.9748,N,12215.7727,W,0.01,285.84,230822,,,D*77
$GPVTG,285.84,T,,M,0.01,N,0.02,K,D*38
$GPGGA,222028.500,4738.9748,N,12215.7727,W,2,10,0.79,-3.0,M,-17.3,M,0000,0000*73
$GPVTG,285.84,T,,M,0.05,N,0.10,K,D*3F
$GPGGA,222028.750,4738.9748,N,12215.7727,W,2,10,0.79,-3.0,M,-17.3,M,0000,0000*74
$GPVTG,285.84,T,,M,0.06,N,0.11,K,D*3D
$GPGGA,222029.000,4738.9748,N,12215.7727,W,2,10,0.79,-3.0,M,-17.3,M,0000,0000*77
$GPVTG,285.84,T,,M,0.04,N,0.08,K,D*37
$GPGGA,222029.250,4738.9748,N,12215.7727,W,2,10,0.79,-3.0,M,-17.3,M,0000,0000*70
$GPRMC,222029.250,A,4738.9748,N,12215.7727,W,0.07,285.84,230822,,,D*70
$GPVTG,285.84,T,,M,0.07,N,0.13,K,D*3E
$GPGGA,222029.500,4738.9748,N,12215.7727,W,2,10,0.79,-3.0,M,-17.3,M,0000,0000*72
$GPVTG,285.84,T,,M,0.06,N,0.11,K,D*3D
$GPGGA,222029.750,4738.9748,N,12215.7727,W,2,10,0.79,-3.0,M,-17.3,M,0000,0000*75
$GPVTG,285.84,T,,M,0.04,N,0.08,K,D*37
$GPGGA,222030.000,4738.9748,N,12215.7727,W,2,10,0.79,-3.0,M,-17.3,M,0000,0000*7F
$GPVTG,285.84,T,,M,0.03,N,0.06,K,D*3E
$GPGGA,222030.250,4738.9748,N,12215.7727,W,2,10,0.79,-3.0,M,-17.3,M,0000,0000*78
$GPRMC,222030.250,A,4738.9748,N,12215.7727,W,0.07,285.84,230822,,,D*78
$GPVTG,285.84,T,,M,0.07,N,0.13,K,D*3E
$GPGGA,222030.500,4738.9748,N,12215.7727,W,2,10,0.79,-3.0,M,-17.3,M,0000,0000*7A
$GPVTG,285.84,T,,M,0.02,N,0.04,K,D*3D
$GPGGA,222030.750,4738.9748,N,12215.7727,W,2,10,0.79,-3.0,M,-17.3,M,0000,0000*7D
$GPVTG,285.84,T,,M,0.19,N,0.35,K,D*35
$GPGGA,222031.000,4738.9748,N,12215.7727,W,2,10,0.79,-3.0,M,-17.3,M,0000,0000*7E
$GPVTG,285.84,T,,M,0.08,N,0.14,K,D*36
$GPGGA,222031.250,4738.9748,N,12215.7727,W,2,10,0.79,-3.0,M,-17.3,M,0000,0000*79
$GPRMC,222031.250,A,4738.9748,N,12215.7727,W,0.10,285.84,230822,,,D*7F
$GPVTG,285.84,T,,M,0.10,N,0.19,K,D*32
$GPGGA,222031.500,4738.9748,N,12215.7727,W,2,10,0.79,-3.0,M,-17.3,M,0000,0000*7B
$GPVTG,285.84,T,,M,0.03,N,0.06,K,D*3E
$GPGGA,222031.750,4738.9747,N,12215.7727,W,2,10,0.79,-3.0,M,-17.3,M,0000,0000*73
$GPVTG,285.84,T,,M,0.03,N,0.05,K,D*3D
$GPGGA,222032.000,4738.9747,N,12215.7727,W,2,10,0.79,-3.0,M,-17.3,M,0000,0000*72
$GPVTG,285.84,T,,M,0.09,N,0.16,K,D*35
$GPGGA,222032.250,4738.9747,N,12215.7727,W,2,10,0.79,-3.0,M,-17.3,M,0000,0000*75
$GPRMC,222032.250,A,4738.9747,N,12215.7727,W,0.13,285.84,230822,,,D*70
$GPVTG,285.84,T,,M,0.13,N,0.24,K,D*3F
$GPGGA,222032.500,4738.9747,N,12215.7727,W,2,10,0.79,-3.0,M,-17.3,M,0000,0000*77
$GPVTG,285.84,T,,M,0.03,N,0.05,K,D*3D
$GPGGA,222032.750,4738.9747,N,12215.7727,W,2,10,0.79,-3.0,M,-17.3,M,0000,0000*70
$GPVTG,285.84,T,,M,0.02,N,0.04,K,D*3D
$GPGGA,222033.000,4738.9747,N,12215.7727,W,2,10,0.79,-3.0,M,-17.3,M,0000,0000*73
$GPVTG,285.84,T,,M,0.04,N,0.07,K,D*38
$GPGGA,222033.250,4738.9747,N,12215.7727,W,2,10,0.79,-3.0,M,-17.3,M,0000,0000*74
$GPRMC,222033.250,A,4738.9747,N,12215.7727,W,0.03,285.84,230822,,,D*70
$GPVTG,285.84,T,,M,0.03,N,0.05,K,D*3D
$GPGGA,222033.500,4738.9747,N,12215.7727,W,2,10,0.79,-3.0,M,-17.3,M,0000,0000*76
$GPVTG,285.84,T,,M,0.05,N,0.10,K,D*3F
$GPGGA,222033.750,4738.9747,N,12215.7727,W,2,10,0.79,-3.0,M,-17.3,M,0000,0000*71
$GPVTG,285.84,T,,M,0.02,N,0.04,K,D*3D
$GPGGA,222034.000,4738.9747,N,12215.7727,W,2,10,0.79,-3.0,M,-17.3,M,0000,0000*74
$GPVTG,285.84,T,,M,0.02,N,0.03,K,D*3A
$GPGGA,222034.250,4738.9747,N,12215.7727,W,2,10,0.79,-3.0,M,-17.3,M,0000,0000*73
$GPRMC,222034.250,A,4738.9747,N,12215.7727,W,0.02,285.84,230822,,,D*76
$GPVTG,285.84,T,,M,0.02,N,0.03,K,D*3A
$GPGGA,222034.500,4738.9747,N,12215.7727,W,2,10,0.79,-3.0,M,-17.3,M,0000,0000*71
$GPVTG,285.84,T,,M,0.05,N,0.10,K,D*3F
$GPGGA,222034.750,4738.9747,N,12215.7727,W,2,10,0.79,-3.0,M,-17.3,M,0000,0000*76
$GPVTG,285.84,T,,M,0.06,N,0.11,K,D*3D
$GPGGA,222035.000,4738.9747,N,12215.7727,W,2,10,0.80,-3.0,M,-17.3,M,0000,0000*73
$GPVTG,285.84,T,,M,0.08,N,0.16,K,D*34
$GPGGA,222035.250,4738.9747,N,12215.7727,W,2,10,0.79,-3.0,M,-17.3,M,0000,0000*72
$GPRMC,222035.250,A,4738.9747,N,12215.7727,W,0.04,285.84,230822,,,D*71
$GPVTG,285.84,T,,M,0.04,N,0.08,K,D*37
$GPGGA,222035.500,4738.9747,N,12215.7727,W,2,10,0.79,-3.0,M,-17.3,M,0000,0000*70
$GPVTG,285.84,T,,M,0.02,N,0.04,K,D*3D
$GPGGA,222035.750,4738.9747,N,12215.7727,W,2,10,0.79,-3.0,M,-17.3,M,0000,0000*77
$GPVTG,285.84,T,,M,0.01,N,0.02,K,D*38
$GPGGA,222036.000,4738.9747,N,12215.7727,W,2,10,0.79,-3.0,M,-17.3,M,0000,0000*76
$GPVTG,285.84,T,,M,0.02,N,0.03,K,D*3A
$GPGGA,222036.250,4738.9747,N,12215.7727,W,2,10,0.79,-3.0,M,-17.3,M,0000,0000*71
$GPRMC,222036.250,A,4738.9747,N,12215.7727,W,0.02,285.84,230822,,,D*74
$GPVTG,285.84,T,,M,0.02,N,0.03,K,D*3A
$GPGGA,222036.500,4738.9747,N,12215.7727,W,2,10,0.79,-3.0,M,-17.3,M,0000,0000*73
$GPVTG,285.84,T,,M,0.03,N,0.06,K,D*3E
$GPGGA,222036.750,4738.9747,N,12215.7727,W,2,10,0.79,-3.0,M,-17.3,M,0000,0000*74
$GPVTG,285.84,T,,M,0.05,N,0.10,K,D*3F
$GPGGA,222037.000,4738.9747,N,12215.7727,W,2,10,0.79,-3.0,M,-17.3,M,0000,0000*77
$GPVTG,285.84,T,,M,0.06,N,0.11,K,D*3D
$GPGGA,222037.250,4738.9747,N,12215.7727,W,2,10,0.79,-3.0,M,-17.3,M,0000,0000*70
$GPRMC,222037.250,A,4738.9747,N,12215.7727,W,0.03,285.84,230822,,,D*74
$GPVTG,285.84,T,,M,0.03,N,0.05,K,D*3D
$GPGGA,222037.500,4738.9747,N,12215.7727,W,2,10,0.79,-3.0,M,-17.3,M,0000,0000*72
$GPVTG,285.84,T,,M,0.03,N,0.05,K,D*3D
$GPGGA,222037.750,4738.9747,N,12215.7727,W,2,10,0.79,-3.0,M,-17.3,M,0000,0000*75
$GPVTG,285.84,T,,M,0.05,N,0.09,K,D*37
$GPGGA,222038.000,4738.9747,N,12215.7727,W,2,10,0.79,-3.0,M,-17.3,M,0000,0000*78
$GPVTG,285.84,T,,M,0.06,N,0.11,K,D*3D
$GPGGA,222038.250,4738.9747,N,12215.7727,W,2,10,0.79,-2.9,M,-17.3,M,0000,0000*77
$GPRMC,222038.250,A,4738.9747,N,12215.7727,W,0.03,285.84,230822,,,D*7B
$GPVTG,285.84,T,,M,0.03,N,0.05,K,D*3D
$GPGGA,222038.500,4738.9747,N,12215.7727,W,2,10,0.79,-2.9,M,-17.3,M,0000,0000*75
$GPVTG,285.84,T,,M,0.04,N,0.07,K,D*38
$GPGGA,222038.750,4738.9747,N,12215.7727,W,2,10,0.79,-2.9,M,-17.3,M,0000,0000*72
$GPVTG,285.84,T,,M,0.05,N,0.09,K,D*37
$GPGGA,222039.000,4738.9747,N,12215.7727,W,2,10,0.79,-3.0,M,-17.3,M,0000,0000*79
$GPVTG,285.84,T,,M,0.02,N,0.04,K,D*3D
$GPGGA,222039.250,4738.9747,N,12215.7727,W,2,10,0.79,-2.9,M,-17.3,M,0000,0000*76
$GPRMC,222039.250,A,4738.9747,N,12215.7727,W,0.04,285.84,230822,,,D*7D
$GPVTG,285.84,T,,M,0.04,N,0.08,K,D*37
$GPGGA,222039.500,4738.9747,N,12215.7727,W,2,10,0.79,-3.0,M,-17.3,M,0000,0000*7C
$GPVTG,285.84,T,,M,0.07,N,0.12,K,D*3F
$GPGGA,222039.750,4738.9747,N,12215.7727,W,2,10,0.79,-3.0,M,-17.3,M,0000,0000*7B
$GPVTG,285.84,T,,M,0.05,N,0.09,K,D*37
$GPGGA,222040.000,4738.9747,N,12215.7727,W,2,10,0.79,-3.0,M,-17.3,M,0000,0000*77
$GPVTG,285.84,T,,M,0.06,N,0.11,K,D*3D
$GPGGA,222040.250,4738.9747,N,12215.7727,W,2,10,0.79,-3.0,M,-17.3,M,0000,0000*70
$GPRMC,222040.250,A,4738.9747,N,12215.7727,W,0.08,285.84,230822,,,D*7F
$GPVTG,285.84,T,,M,0.08,N,0.14,K,D*36
$GPGGA,222040.500,4738.9747,N,12215.7727,W,2,10,0.80,-3.0,M,-17.3,M,0000,0000*74
$GPVTG,285.84,T,,M,0.02,N,0.03,K,D*3A
$GPGGA,222040.750,4738.9747,N,12215.7727,W,2,10,0.79,-3.0,M,-17.3,M,0000,0000*75
$GPVTG,285.84,T,,M,0.05,N,0.09,K,D*37
$GPGGA,222041.000,4738.9747,N,12215.7727,W,2,10,0.79,-3.0,M,-17.3,M,0000,0000*76
$GPVTG,285.84,T,,M,0.02,N,0.03,K,D*3A
$GPGGA,222041.250,4738.9747,N,12215.7727,W,2,10,0.79,-3.0,M,-17.3,M,0000,0000*71
$GPRMC,222041.250,A,4738.9747,N,12215.7727,W,0.06,285.84,230822,,,D*70
$GPVTG,285.84,T,,M,0.06,N,0.11,K,D*3D
$GPGGA,222041.500,4738.9747,N,12215.7727,W,2,10,0.79,-3.0,M,-17.3,M,0000,0000*73
$GPVTG,285.84,T,,M,0.06,N,0.11,K,D*3D
$GPGGA,222041.750,4738.9747,N,12215.7727,W,2,10,0.79,-3.0,M,-17.3,M,0000,0000*74
$GPVTG,285.84,T,,M,0.03,N,0.05,K,D*3D
$GPGGA,222042.000,4738.9747,N,12215.7727,W,2,10,0.79,-3.0,M,-17.3,M,0000,0000*75
$GPVTG,285.84,T,,M,0.02,N,0.05,K,D*3C
$GPGGA,222042.250,4738.9747,N,12215.7727,W,2,10,0.79,-3.0,M,-17.3,M,0000,0000*72
$GPRMC,222042.250,A,4738.9747,N,12215.7727,W,0.02,285.84,230822,,,D*77
$GPVTG,285.84,T,,M,0.02,N,0.04,K,D*3D
$GPGGA,222042.500,4738.9747,N,12215.7727,W,2,10,0.79,-3.0,M,-17.3,M,0000,0000*70
$GPVTG,285.84,T,,M,0.01,N,0.03,K,D*39
$GPGGA,222042.750,4738.9747,N,12215.7727,W,2,10,0.79,-3.0,M,-17.3,M,0000,0000*77
$GPVTG,285.84,T,,M,0.02,N,0.04,K,D*3D
$GPGGA,222043.000,4738.9747,N,12215.7727,W,2,10,0.79,-3.0,M,-17.3,M,0000,0000*74
$GPVTG,285.84,T,,M,0.02,N,0.04,K,D*3D
$GPGGA,222043.250,4738.9747,N,12215.7727,W,2,10,0.79,-3.0,M,-17.3,M,0000,0000*73
$GPRMC,222043.250,A,4738.9747,N,12215.7727,W,0.07,285.84,230822,,,D*73
$GPVTG,285.84,T,,M,0.07,N,0.13,K,D*3E
$GPGGA,222043.500,4738.9747,N,12215.7727,W,2,10,0.79,-3.0,M,-17.3,M,0000,0000*71
$GPVTG,285.84,T,,M,0.03,N,0.06,K,D*3E
$GPGGA,222043.750,4738.9747,N,12215.7727,W,2,10,0.79,-3.0,M,-17.3,M,0000,0000*76
$GPVTG,285.84,T,,M,0.05,N,0.09,K,D*37
$GPGGA,222044.000,4738.9747,N,12215.7727,W,2,10,0.79,-3.0,M,-17.3,M,0000,0000*73
$GPVTG,285.84,T,,M,0.08,N,0.15,K,D*37
$GPGGA,222044.250,4738.9747,N,12215.7727,W,2,10,0.79,-3.0,M,-17.3,M,0000,0000*74
$GPRMC,222044.250,A,4738.9747,N,12215.7727,W,0.27,285.84,230822,,,D*76
$GPVTG,285.84,T,,M,0.27,N,0.50,K,D*3B
$GPGGA,222044.500,4738.9747,N,12215.7727,W,2,10,0.79,-3.0,M,-17.3,M,0000,0000*76
$GPVTG,285.84,T,,M,0.20,N,0.36,K,D*3C
$GPGGA,222044.750,4738.9747,N,12215.7727,W,2,10,0.79,-3.0,M,-17.3,M,0000,0000*71
$GPVTG,285.84,T,,M,0.19,N,0.35,K,D*35
$GPGGA,222045.000,4738.9747,N,12215.7727,W,2,10,0.79,-3.0,M,-17.3,M,0000,0000*72
$GPVTG,285.84,T,,M,0.04,N,0.07,K,D*38
$GPGGA,222045.250,4738.9747,N,12215.7727,W,2,10,0.79,-3.0,M,-17.3,M,0000,0000*75
$GPRMC,222045.250,A,4738.9747,N,12215.7727,W,0.00,285.84,230822,,,D*72
$GPVTG,285.84,T,,M,0.00,N,0.01,K,D*3A
$GPGGA,222045.500,4738.9747,N,12215.7727,W,2,10,0.79,-3.0,M,-17.3,M,0000,0000*77
$GPVTG,285.84,T,,M,0.01,N,0.02,K,D*38
$GPGGA,222045.750,4738.9747,N,12215.7727,W,2,10,0.79,-3.0,M,-17.3,M,0000,0000*70
$GPVTG,285.84,T,,M,0.01,N,0.01,K,D*3B
$GPGGA,222046.000,4738.9747,N,12215.7727,W,2,10,0.79,-3.0,M,-17.3,M,0000,0000*71
$GPVTG,285.84,T,,M,0.00,N,0.00,K,D*3B
$GPGGA,222046.250,4738.9747,N,12215.7727,W,2,10,0.79,-3.0,M,-17.3,M,0000,0000*76
$GPRMC,222046.250,A,4738.9747,N,12215.7727,W,0.00,285.84,230822,,,D*71
$GPVTG,285.84,T,,M,0.00,N,0.00,K,D*3B
$GPGGA,222046.500,4738.9747,N,12215.7727,W,2,10,0.79,-3.0,M,-17.3,M,0000,0000*74
$GPVTG,285.84,T,,M,0.00,N,0.00,K,D*3B
$GPGGA,222046.750,4738.9747,N,12215.7727,W,2,10,0.79,-3.0,M,-17.3,M,0000,0000*73
$GPVTG,285.84,T,,M,0.01,N,0.01,K,D*3B
$GPGGA,222047.000,4738.9747,N,12215.7727,W,2,10,0.79,-3.0,M,-17.3,M,0000,0000*70
$GPVTG,285.84,T,,M,0.00,N,0.00,K,D*3B
$GPGGA,222047.250,4738.9747,N,12215.7727,W,2,10,0.79,-3.0,M,-17.3,M,0000,0000*77
$GPRMC,222047.250,A,4738.9747,N,12215.7727,W,0.00,285.84,230822,,,D*70
$GPVTG,285.84,T,,M,0.00,N,0.01,K,D*3A
$GPGGA,222047.500,4738.9747,N,12215.7727,W,2,10,0.79,-3.0,M,-17.3,M,0000,0000*75
$GPVTG,285.84,T,,M,0.01,N,0.01,K,D*3B
$GPGGA,222047.750,4738.9747,N,12215.7727,W,2,10,0.79,-3.0,M,-17.3,M,0000,0000*72
$GPVTG,285.84,T,,M,0.01,N,0.02,K,D*38
$GPGGA,222048.000,4738.9746,N,12215.7727,W,2,10,0.79,-3.0,M,-17.3,M,0000,0000*7E
$GPVTG,285.84,T,,M,0.02,N,0.03,K,D*3A
$GPGGA,222048.250,4738.9746,N,12215.7727,W,2,10,0.79,-3.0,M,-17.3,M,0000,0000*79
$GPRMC,222048.250,A,4738.9746,N,12215.7727,W,0.02,285.84,230822,,,D*7C
$GPVTG,285.84,T,,M,0.02,N,0.03,K,D*3A
$GPGGA,222048.500,4738.9746,N,12215.7727,W,2,10,0.79,-2.9,M,-17.3,M,0000,0000*73
$GPVTG,285.84,T,,M,0.00,N,0.00,K,D*3B
$GPGGA,222048.750,4738.9746,N,12215.7727,W,2,10,0.79,-2.9,M,-17.3,M,0000,0000*74
$GPVTG,285.84,T,,M,0.01,N,0.01,K,D*3B
$GPGGA,222049.000,4738.9746,N,12215.7727,W,2,10,0.79,-2.9,M,-17.3,M,0000,0000*77
$GPVTG,285.84,T,,M,0.02,N,0.03,K,D*3A
$GPGGA,222049.250,4738.9746,N,12215.7727,W,2,10,0.79,-2.9,M,-17.3,M,0000,0000*70
$GPRMC,222049.250,A,4738.9746,N,12215.7727,W,0.01,285.84,230822,,,D*7E
$GPVTG,285.84,T,,M,0.01,N,0.02,K,D*38
$GPGGA,222049.500,4738.9746,N,12215.7727,W,2,10,0.79,-2.9,M,-17.3,M,0000,0000*72
$GPVTG,285.84,T,,M,0.01,N,0.02,K,D*38
$GPGGA,222049.750,4738.9746,N,12215.7727,W,2,10,0.79,-2.9,M,-17.3,M,0000,0000*75
$GPVTG,285.84,T,,M,0.01,N,0.02,K,D*38
$GPGGA,222050.000,4738.9746,N,12215.7727,W,2,10,0.79,-2.9,M,-17.3,M,0000,0000*7F
$GPVTG,285.84,T,,M,0.01,N,0.02,K,D*38
$GPGGA,222050.250,4738.9746,N,12215.7727,W,2,10,0.79,-2.9,M,-17.3,M,0000,0000*78
$GPRMC,222050.250,A,4738.9746,N,12215.7727,W,0.01,285.84,230822,,,D*76
$GPVTG,285.84,T,,M,0.01,N,0.01,K,D*3B
$GPGGA,222050.500,4738.9746,N,12215.7727,W,2,10,0.79,-2.9,M,-17.3,M,0000,0000*7A
$GPVTG,285.84,T,,M,0.01,N,0.02,K,D*38
$GPGGA,222050.750,4738.9746,N,12215.7727,W,2,10,0.79,-2.9,M,-17.3,M,0000,0000*7D
$GPVTG,285.84,T,,M,0.02,N,0.03,K,D*3A
$GPGGA,222051.000,4738.9746,N,12215.7727,W,2,10,0.79,-2.9,M,-17.3,M,0000,0000*7E
$GPVTG,285.84,T,,M,0.01,N,0.02,K,D*38
$GPGGA,222051.250,4738.9746,N,12215.7727,W,2,10,0.79,-2.9,M,-17.3,M,0000,0000*79
$GPRMC,222051.250,A,4738.9746,N,12215.7727,W,0.01,285.84,230822,,,D*77
$GPVTG,285.84,T,,M,0.01,N,0.01,K,D*3B
$GPGGA,222051.500,4738.9746,N,12215.7727,W,2,10,0.79,-2.9,M,-17.3,M,0000,0000*7B
$GPVTG,285.84,T,,M,0.01,N,0.02,K,D*38
$GPGGA,222051.750,4738.9746,N,12215.7727,W,2,10,0.79,-2.9,M,-17.3,M,0000,0000*7C
$GPVTG,285.84,T,,M,0.02,N,0.03,K,D*3A
$GPGGA,222052.000,4738.9746,N,12215.7727,W,2,10,0.79,-2.9,M,-17.3,M,0000,0000*7D
$GPVTG,285.84,T,,M,0.02,N,0.04,K,D*3D
$GPGGA,222052.250,4738.9746,N,12215.7727,W,2,10,0.79,-2.9,M,-17.3,M,0000,0000*7A
$GPRMC,222052.250,A,4738.9746,N,12215.7727,W,0.01,285.84,230822,,,D*74
$GPVTG,285.84,T,,M,0.01,N,0.02,K,D*38
$GPGGA,222052.500,4738.9746,N,12215.7727,W,2,10,0.80,-2.9,M,-17.3,M,0000,0000*7E
$GPVTG,285.84,T,,M,0.01,N,0.02,K,D*38
$GPGGA,222052.750,4738.9746,N,12215.7727,W,2,10,0.79,-2.9,M,-17.3,M,0000,0000*7F
$GPVTG,285.84,T,,M,0.01,N,0.02,K,D*38
$GPGGA,222053.000,4738.9746,N,12215.7727,W,2,10,0.79,-2.9,M,-17.3,M,0000,0000*7C
$GPVTG,285.84,T,,M,0.03,N,0.06,K,D*3E
$GPGGA,222053.250,4738.9746,N,12215.7727,W,2,10,0.79,-2.9,M,-17.3,M,0000,0000*7B
$GPRMC,222053.250,A,4738.9746,N,12215.7727,W,0.02,285.84,230822,,,D*76
$GPVTG,285.84,T,,M,0.02,N,0.04,K,D*3D
$GPGGA,222053.500,4738.9746,N,12215.7727,W,2,10,0.79,-2.9,M,-17.3,M,0000,0000*79
$GPVTG,285.84,T,,M,0.01,N,0.02,K,D*38
$GPGGA,222053.750,4738.9746,N,12215.7727,W,2,10,0.79,-2.9,M,-17.3,M,0000,0000*7E
$GPVTG,285.84,T,,M,0.00,N,0.00,K,D*3B
$GPGGA,222054.000,4738.9746,N,12215.7727,W,2,10,0.79,-2.9,M,-17.3,M,0000,0000*7B
$GPVTG,285.84,T,,M,0.00,N,0.01,K,D*3A
$GPGGA,222054.250,4738.9746,N,12215.7727,W,2,10,0.79,-2.9,M,-17.3,M,0000,0000*7C
$GPRMC,222054.250,A,4738.9746,N,12215.7727,W,0.01,285.84,230822,,,D*72
$GPVTG,285.84,T,,M,0.01,N,0.02,K,D*38
$GPGGA,222054.500,4738.9746,N,12215.7727,W,2,10,0.79,-2.9,M,-17.3,M,0000,0000*7E
$GPVTG,285.84,T,,M,0.01,N,0.02,K,D*38
$GPGGA,222054.750,4738.9746,N,12215.7727,W,2,10,0.79,-2.9,M,-17.3,M,0000,0000*79
$GPVTG,285.84,T,,M,0.06,N,0.12,K,D*3E
$GPGGA,222055.000,4738.9746,N,12215.7727,W,2,10,0.79,-2.9,M,-17.3,M,0000,0000*7A
$GPVTG,285.84,T,,M,0.08,N,0.14,K,D*36
$GPGGA,222055.250,4738.9746,N,12215.7727,W,2,10,0.79,-2.9,M,-17.3,M,0000,0000*7D
$GPRMC,222055.250,A,4738.9746,N,12215.7727,W,0.09,285.84,230822,,,D*7B
$GPVTG,285.84,T,,M,0.09,N,0.16,K,D*35
$GPGGA,222055.500,4738.9746,N,12215.7727,W,2,10,0.79,-2.9,M,-17.3,M,0000,0000*7F
$GPVTG,285.84,T,,M,0.07,N,0.12,K,D*3F
$GPGGA,222055.750,4738.9746,N,12215.7727,W,2,10,0.79,-2.9,M,-17.3,M,0000,0000*78
$GPVTG,285.84,T,,M,0.03,N,0.05,K,D*3D
$GPGGA,222056.000,4738.9746,N,12215.7727,W,2,10,0.79,-2.9,M,-17.3,M,0000,0000*79
$GPVTG,285.84,T,,M,0.01,N,0.01,K,D*3B
$GPGGA,222056.250,4738.9746,N,12215.7727,W,2,10,0.79,-2.9,M,-17.3,M,0000,0000*7E
$GPRMC,222056.250,A,4738.9746,N,12215.7727,W,0.00,285.84,230822,,,D*71
$GPVTG,285.84,T,,M,0.00,N,0.00,K,D*3B
$GPGGA,222056.500,4738.9746,N,12215.7727,W,2,10,0.79,-2.9,M,-17.3,M,0000,0000*7C
$GPVTG,285.84,T,,M,0.00,N,0.00,K,D*3B
$GPGGA,222056.750,4738.9746,N,12215.7727,W,2,10,0.80,-2.9,M,-17.3,M,0000,0000*7D
$GPVTG,285.84,T,,M,0.00,N,0.01,K,D*3A
$GPGGA,222057.000,4738.9746,N,12215.7727,W,2,10,0.80,-2.9,M,-17.3,M,0000,0000*7E
$GPVTG,285.84,T,,M,0.00,N,0.01,K,D*3A
$GPGGA,222057.250,4738.9746,N,12215.7727,W,2,10,0.79,-2.9,M,-17.3,M,0000,0000*7F
$GPRMC,222057.250,A,4738.9746,N,12215.7727,W,0.00,285.84,230822,,,D*70
$GPVTG,285.84,T,,M,0.00,N,0.01,K,D*3A
$GPGGA,222057.500,4738.9746,N,12215.7727,W,2,10,0.79,-2.9,M,-17.3,M,0000,0000*7D
$GPVTG,285.84,T,,M,0.01,N,0.01,K,D*3B
$GPGGA,222057.750,4738.9746,N,12215.7727,W,2,10,0.80,-2.9,M,-17.3,M,0000,0000*7C
$GPVTG,285.84,T,,M,0.00,N,0.01,K,D*3A
$GPGGA,222058.000,4738.9746,N,12215.7727,W,2,10,0.79,-2.9,M,-17.3,M,0000,0000*77
$GPVTG,285.84,T,,M,0.00,N,0.01,K,D*3A
$GPGGA,222058.250,4738.9746,N,12215.7727,W,2,10,0.79,-2.9,M,-17.3,M,0000,0000*70
$GPRMC,222058.250,A,4738.9746,N,12215.7727,W,0.00,285.84,230822,,,D*7F
$GPVTG,285.84,T,,M,0.00,N,0.00,K,D*3B
$GPGGA,222058.500,4738.9746,N,12215.7727,W,2,10,0.79,-2.9,M,-17.3,M,0000,0000*72
$GPVTG,285.84,T,,M,0.00,N,0.01,K,D*3A
$GPGGA,222058.750,4738.9746,N,12215.7727,W,2,10,0.79,-2.9,M,-17.3,M,0000,0000*75
$GPVTG,285.84,T,,M,0.00,N,0.00,K,D*3B
$GPGGA,222059.000,4738.9746,N,12215.7727,W,2,10,0.79,-2.9,M,-17.3,M,0000,0000*76
$GPVTG,285.84,T,,M,0.00,N,0.00,K,D*3B
$GPGGA,222059.250,4738.9746,N,12215.7727,W,2,10,0.79,-2.9,M,-17.3,M,0000,0000*71
$GPRMC,222059.250,A,4738.9746,N,12215.7727,W,0.00,285.84,230822,,,D*7E
$GPVTG,285.84,T,,M,0.00,N,0.00,K,D*3B
$GPGGA,222059.500,4738.9746,N,12215.7727,W,2,10,0.79,-2.9,M,-17.3,M,0000,0000*73
$GPVTG,285.84,T,,M,0.00,N,0.01,K,D*3A
$GPGGA,222059.750,4738.9746,N,12215.7727,W,2,10,0.79,-2.9,M,-17.3,M,0000,0000*74
$GPVTG,285.84,T,,M,0.01,N,0.01,K,D*3B
$GPGGA,222100.000,4738.9746,N,12215.7727,W,2,10,0.79,-2.9,M,-17.3,M,0000,0000*7B
$GPVTG,285.84,T,,M,0.00,N,0.01,K,D*3A
$GPGGA,222100.250,4738.9746,N,12215.7727,W,2,10,0.79,-2.9,M,-17.3,M,0000,0000*7C
$GPRMC,222100.250,A,4738.9746,N,12215.7727,W,0.00,285.84,230822,,,D*73
$GPVTG,285.84,T,,M,0.00,N,0.01,K,D*3A
$GPGGA,222100.500,4738.9746,N,12215.7727,W,2,10,0.79,-2.9,M,-17.3,M,0000,0000*7E
$GPVTG,285.84,T,,M,0.01,N,0.01,K,D*3B
$GPGGA,222100.750,4738.9746,N,12215.7727,W,2,10,0.80,-2.9,M,-17.3,M,0000,0000*7F
$GPVTG,285.84,T,,M,0.02,N,0.03,K,D*3A
$GPGGA,222101.000,4738.9746,N,12215.7727,W,2,10,0.79,-2.9,M,-17.3,M,0000,0000*7A
$GPVTG,285.84,T,,M,0.01,N,0.03,K,D*39
$GPGGA,222101.250,4738.9746,N,12215.7727,W,2,10,0.79,-2.9,M,-17.3,M,0000,0000*7D
$GPRMC,222101.250,A,4738.9746,N,12215.7727,W,0.00,285.84,230822,,,D*72
$GPVTG,285.84,T,,M,0.00,N,0.01,K,D*3A
$GPGGA,222101.500,4738.9746,N,12215.7727,W,2,10,0.79,-2.9,M,-17.3,M,0000,0000*7F
$GPVTG,285.84,T,,M,0.01,N,0.01,K,D*3B
$GPGGA,222101.750,4738.9746,N,12215.7727,W,2,10,0.79,-2.9,M,-17.3,M,0000,0000*78
$GPVTG,285.84,T,,M,0.01,N,0.02,K,D*38
$GPGGA,222102.000,4738.9746,N,12215.7727,W,2,10,0.79,-2.9,M,-17.3,M,0000,0000*79
$GPVTG,285.84,T,,M,0.01,N,0.03,K,D*39
$GPGGA,222102.250,4738.9746,N,12215.7727,W,2,10,0.79,-2.9,M,-17.3,M,0000,0000*7E
$GPRMC,222102.250,A,4738.9746,N,12215.7727,W,0.01,285.84,230822,,,D*70
$GPVTG,285.84,T,,M,0.01,N,0.02,K,D*38
$GPGGA,222102.500,4738.9746,N,12215.7727,W,2,10,0.80,-2.9,M,-17.3,M,0000,0000*7A
$GPVTG,285.84,T,,M,0.01,N,0.03,K,D*39
$GPGGA,222102.750,4738.9746,N,12215.7727,W,2,10,0.79,-2.9,M,-17.3,M,0000,0000*7B
$GPVTG,285.84,T,,M,0.01,N,0.02,K,D*38
$GPGGA,222103.000,4738.9746,N,12215.7727,W,2,10,0.79,-2.9,M,-17.3,M,0000,0000*78
$GPVTG,285.84,T,,M,0.02,N,0.03,K,D*3A
$GPGGA,222103.250,4738.9746,N,12215.7727,W,2,10,0.80,-2.9,M,-17.3,M,0000,0000*79
$GPRMC,222103.250,A,4738.9746,N,12215.7727,W,0.01,285.84,230822,,,D*71
$GPVTG,285.84,T,,M,0.01,N,0.02,K,D*38
$GPGGA,222103.500,4738.9745,N,12215.7727,W,2,10,0.80,-2.9,M,-17.3,M,0000,0000*78
$GPVTG,285.84,T,,M,0.03,N,0.06,K,D*3E
$GPGGA,222103.750,4738.9745,N,12215.7727,W,2,10,0.80,-2.9,M,-17.3,M,0000,0000*7F
$GPVTG,285.84,T,,M,0.04,N,0.08,K,D*37
$GPGGA,222104.000,4738.9745,N,12215.7727,W,2,10,0.80,-2.9,M,-17.3,M,0000,0000*7A
$GPVTG,285.84,T,,M,0.02,N,0.04,K,D*3D
$GPGGA,222104.250,4738.9745,N,12215.7727,W,2,10,0.79,-2.9,M,-17.3,M,0000,0000*7B
$GPRMC,222104.250,A,4738.9745,N,12215.7727,W,0.01,285.84,230822,,,D*75
$GPVTG,285.84,T,,M,0.01,N,0.01,K,D*3B
$GPGGA,222104.500,4738.9745,N,12215.7727,W,2,10,0.79,-2.9,M,-17.3,M,0000,0000*79
$GPVTG,285.84,T,,M,0.00,N,0.01,K,D*3A
$GPGGA,222104.750,4738.9745,N,12215.7727,W,2,10,0.79,-2.9,M,-17.3,M,0000,0000*7E
$GPVTG,285.84,T,,M,0.03,N,0.06,K,D*3E
$GPGGA,222105.000,4738.9745,N,12215.7727,W,2,10,0.79,-2.9,M,-17.3,M,0000,0000*7D
$GPVTG,285.84,T,,M,0.04,N,0.08,K,D*37
$GPGGA,222105.250,4738.9745,N,12215.7727,W,2,10,0.79,-2.9,M,-17.3,M,0000,0000*7A
$GPRMC,222105.250,A,4738.9745,N,12215.7727,W,0.03,285.84,230822,,,D*76
$GPVTG,285.84,T,,M,0.03,N,0.05,K,D*3D
$GPGGA,222105.500,4738.9745,N,12215.7727,W,2,10,0.79,-2.9,M,-17.3,M,0000,0000*78
$GPVTG,285.84,T,,M,0.09,N,0.16,K,D*35
$GPGGA,222105.750,4738.9745,N,12215.7727,W,2,10,0.79,-2.9,M,-17.3,M,0000,0000*7F
$GPVTG,285.84,T,,M,0.08,N,0.15,K,D*37
$GPGGA,222106.000,4738.9745,N,12215.7727,W,2,10,0.80,-2.9,M,-17.3,M,0000,0000*78
$GPVTG,285.84,T,,M,0.04,N,0.08,K,D*37
$GPGGA,222106.250,4738.9745,N,12215.7727,W,2,10,0.80,-2.9,M,-17.3,M,0000,0000*7F
$GPRMC,222106.250,A,4738.9745,N,12215.7727,W,0.02,285.84,230822,,,D*74
$GPVTG,285.84,T,,M,0.02,N,0.03,K,D*3A
$GPGGA,222106.500,4738.9745,N,12215.7727,W,2,10,0.80,-2.9,M,-17.3,M,0000,0000*7D
$GPVTG,285.84,T,,M,0.06,N,0.11,K,D*3D
$GPGGA,222106.750,4738.9745,N,12215.7727,W,2,10,0.80,-3.0,M,-17.3,M,0000,0000*72
$GPVTG,285.84,T,,M,0.11,N,0.21,K,D*38
$GPGGA,222107.000,4738.9745,N,12215.7727,W,2,10,0.79,-2.9,M,-17.3,M,0000,0000*7F
$GPVTG,285.84,T,,M,0.20,N,0.38,K,D*32
$GPGGA,222107.250,4738.9745,N,12215.7727,W,2,10,0.79,-2.9,M,-17.3,M,0000,0000*78
$GPRMC,222107.250,A,4738.9745,N,12215.7727,W,0.09,285.84,230822,,,D*7E
$GPVTG,285.84,T,,M,0.09,N,0.16,K,D*35
$GPGGA,222107.500,4738.9745,N,12215.7727,W,2,10,0.79,-2.9,M,-17.3,M,0000,0000*7A
$GPVTG,285.84,T,,M,0.02,N,0.05,K,D*3C
$GPGGA,222107.750,4738.9745,N,12215.7727,W,2,10,0.80,-2.9,M,-17.3,M,0000,0000*7B
$GPVTG,285.84,T,,M,0.01,N,0.02,K,D*38
$GPGGA,222108.000,4738.9745,N,12215.7727,W,2,10,0.79,-2.9,M,-17.3,M,0000,0000*70
$GPVTG,285.84,T,,M,0.08,N,0.15,K,D*37
$GPGGA,222108.250,4738.9745,N,12215.7727,W,2,10,0.79,-2.9,M,-17.3,M,0000,0000*77
$GPRMC,222108.250,A,4738.9745,N,12215.7727,W,0.36,285.84,230822,,,D*7D
$GPVTG,285.84,T,,M,0.36,N,0.66,K,D*3E
$GPGGA,222108.500,4738.9745,N,12215.7727,W,2,10,0.79,-2.9,M,-17.3,M,0000,0000*75
$GPVTG,285.84,T,,M,0.77,N,1.43,K,D*3D
$GPGGA,222108.750,4738.9743,N,12215.7727,W,2,10,0.79,-2.9,M,-17.3,M,0000,0000*74
$GPVTG,152.19,T,,M,0.94,N,1.75,K,D*38
$GPGGA,222109.000,4738.9741,N,12215.7726,W,2,10,0.79,-2.9,M,-17.3,M,0000,0000*74
$GPVTG,147.75,T,,M,1.01,N,1.87,K,D*36
$GPGGA,222109.250,4738.9740,N,12215.7725,W,2,10,0.79,-2.9,M,-17.3,M,0000,0000*71
$GPRMC,222109.250,A,4738.9740,N,12215.7725,W,1.19,144.33,230822,,,D*75
$GPVTG,144.33,T,,M,1.19,N,2.21,K,D*31
$GPGGA,222109.500,4738.9739,N,12215.7724,W,2,10,0.79,-2.9,M,-17.3,M,0000,0000*7C
$GPVTG,139.72,T,,M,1.24,N,2.29,K,D*38
$GPGGA,222109.750,4738.9738,N,12215.7722,W,2,10,0.79,-2.9,M,-17.3,M,0000,0000*7C
$GPVTG,137.71,T,,M,1.27,N,2.35,K,D*3B
$GPGGA,222110.000,4738.9737,N,12215.7721,W,2,10,0.79,-2.8,M,-17.3,M,0000,0000*7B
$GPVTG,133.40,T,,M,1.28,N,2.38,K,D*3F
$GPGGA,222110.250,4738.9737,N,12215.7720,W,2,10,0.79,-2.8,M,-17.3,M,0000,0000*7D
$GPRMC,222110.250,A,4738.9737,N,12215.7720,W,1.30,132.44,230822,,,D*72
$GPVTG,132.44,T,,M,1.30,N,2.40,K,D*3C
$GPGGA,222110.500,4738.9736,N,12215.7719,W,2,10,0.79,-2.8,M,-17.3,M,0000,0000*74
$GPVTG,134.30,T,,M,1.32,N,2.45,K,D*3E
$GPGGA,222110.750,4738.9735,N,12215.7718,W,2,10,0.79,-2.8,M,-17.3,M,0000,0000*71
$GPVTG,134.77,T,,M,1.34,N,2.49,K,D*37
$GPGGA,222111.000,4738.9733,N,12215.7717,W,2,10,0.79,-2.8,M,-17.3,M,0000,0000*7B
$GPVTG,136.40,T,,M,1.37,N,2.53,K,D*39
$GPGGA,222111.250,4738.9732,N,12215.7716,W,2,10,0.79,-2.8,M,-17.3,M,0000,0000*7C
$GPRMC,222111.250,A,4738.9732,N,12215.7716,W,1.40,137.26,230822,,,D*75
$GPVTG,137.26,T,,M,1.40,N,2.59,K,D*32
$GPGGA,222111.500,4738.9731,N,12215.7715,W,2,10,0.79,-2.8,M,-17.3,M,0000,0000*7E
$GPVTG,137.87,T,,M,1.44,N,2.67,K,D*30
$GPGGA,222111.750,4738.9730,N,12215.7714,W,2,10,0.79,-2.8,M,-17.3,M,0000,0000*79
$GPVTG,135.77,T,,M,1.45,N,2.70,K,D*3A
$GPGGA,222112.000,4738.9730,N,12215.7713,W,2,10,0.79,-2.8,M,-17.3,M,0000,0000*7F
$GPVTG,133.68,T,,M,1.44,N,2.67,K,D*35
$GPGGA,222112.250,4738.9729,N,12215.7712,W,2,10,0.79,-2.8,M,-17.3,M,0000,0000*71
$GPRMC,222112.250,A,4738.9729,N,12215.7712,W,1.27,132.64,230822,,,D*7A
$GPVTG,132.64,T,,M,1.27,N,2.35,K,D*3A
$GPGGA,222112.500,4738.9729,N,12215.7711,W,2,10,0.79,-2.8,M,-17.3,M,0000,0000*70
$GPVTG,131.04,T,,M,1.25,N,2.31,K,D*39
$GPGGA,222112.750,4738.9728,N,12215.7710,W,2,10,0.79,-2.8,M,-17.3,M,0000,0000*77
$GPVTG,127.09,T,,M,1.22,N,2.27,K,D*33
$GPGGA,222113.000,4738.9728,N,12215.7708,W,2,10,0.79,-2.8,M,-17.3,M,0000,0000*7D
$GPVTG,122.79,T,,M,1.19,N,2.21,K,D*3F
$GPGGA,222113.250,4738.9727,N,12215.7708,W,2,10,0.79,-2.8,M,-17.3,M,0000,0000*75
$GPRMC,222113.250,A,4738.9727,N,12215.7708,W,1.17,123.00,230822,,,D*7F
$GPVTG,123.00,T,,M,1.17,N,2.17,K,D*3B
$GPGGA,222113.500,4738.9727,N,12215.7707,W,2,10,0.79,-2.8,M,-17.3,M,0000,0000*78
$GPVTG,121.70,T,,M,1.15,N,2.13,K,D*38
$GPGGA,222113.750,4738.9727,N,12215.7706,W,2,10,0.79,-2.9,M,-17.3,M,0000,0000*7F
$GPVTG,119.09,T,,M,1.12,N,2.08,K,D*30
$GPGGA,222114.000,4738.9726,N,12215.7705,W,2,10,0.79,-2.9,M,-17.3,M,0000,0000*78
$GPVTG,115.34,T,,M,1.10,N,2.04,K,D*3C
$GPGGA,222114.250,4738.9726,N,12215.7704,W,2,10,0.79,-2.9,M,-17.3,M,0000,0000*7E
$GPRMC,222114.250,A,4738.9726,N,12215.7704,W,1.08,111.19,230822,,,D*72
$GPVTG,111.19,T,,M,1.08,N,2.00,K,D*3A
$GPGGA,222114.500,4738.9726,N,12215.7702,W,2,10,0.79,-2.9,M,-17.3,M,0000,0000*7A
$GPVTG,108.47,T,,M,1.06,N,1.96,K,D*3B
$GPGGA,222114.750,4738.9726,N,12215.7700,W,2,10,0.79,-2.9,M,-17.3,M,0000,0000*7F
$GPVTG,103.43,T,,M,1.06,N,1.97,K,D*35
$GPGGA,222115.000,4738.9726,N,12215.7699,W,2,10,0.79,-2.9,M,-17.3,M,0000,0000*7D
$GPVTG,98.80,T,,M,1.07,N,1.98,K,D*07
$GPGGA,222115.250,4738.9726,N,12215.7698,W,2,10,0.79,-2.9,M,-17.3,M,0000,0000*7B
$GPRMC,222115.250,A,4738.9726,N,12215.7698,W,1.08,97.53,230822,,,D*46
$GPVTG,97.53,T,,M,1.08,N,2.01,K,D*0A
$GPGGA,222115.500,4738.9726,N,12215.7697,W,2,10,0.79,-2.9,M,-17.3,M,0000,0000*76
$GPVTG,94.91,T,,M,1.10,N,2.04,K,D*0B
$GPGGA,222115.750,4738.9726,N,12215.7696,W,2,10,0.79,-2.9,M,-17.3,M,0000,0000*70
$GPVTG,92.98,T,,M,1.11,N,2.06,K,D*07
$GPGGA,222116.000,4738.9727,N,12215.7695,W,2,10,0.79,-2.9,M,-17.3,M,0000,0000*73
$GPVTG,90.67,T,,M,1.12,N,2.07,K,D*07
$GPGGA,222116.250,4738.9726,N,12215.7694,W,2,10,0.79,-2.9,M,-17.3,M,0000,0000*74
$GPRMC,222116.250,A,4738.9726,N,12215.7694,W,1.11,90.63,230822,,,D*45
$GPVTG,90.63,T,,M,1.11,N,2.07,K,D*00
$GPGGA,222116.500,4738.9726,N,12215.7693,W,2,10,0.79,-2.9,M,-17.3,M,0000,0000*71
$GPVTG,89.21,T,,M,1.10,N,2.04,K,D*0C
$GPGGA,222116.750,4738.9726,N,12215.7692,W,2,10,0.80,-2.9,M,-17.3,M,0000,0000*71
$GPVTG,89.13,T,,M,1.07,N,1.98,K,D*0D
$GPGGA,222117.000,4738.9727,N,12215.7692,W,2,10,0.79,-2.9,M,-17.3,M,0000,0000*75
$GPVTG,83.86,T,,M,1.03,N,1.91,K,D*06
$GPGGA,222117.250,4738.9727,N,12215.7691,W,2,10,0.79,-2.9,M,-17.3,M,0000,0000*71
$GPRMC,222117.250,A,4738.9727,N,12215.7691,W,0.98,83.82,230822,,,D*4D
$GPVTG,83.82,T,,M,0.98,N,1.82,K,D*03
$GPGGA,222117.500,4738.9727,N,12215.7691,W,2,10,0.79,-2.9,M,-17.3,M,0000,0000*73
$GPVTG,83.69,T,,M,0.94,N,1.74,K,D*03
$GPGGA,222117.750,4738.9727,N,12215.7691,W,2,10,0.79,-2.9,M,-17.3,M,0000,0000*74
$GPVTG,83.54,T,,M,0.89,N,1.64,K,D*00
$GPGGA,222118.000,4738.9727,N,12215.7691,W,2,10,0.79,-2.9,M,-17.3,M,0000,0000*79
$GPVTG,83.40,T,,M,0.84,N,1.57,K,D*08
$GPGGA,222118.250,4738.9727,N,12215.7690,W,2,10,0.79,-2.9,M,-17.3,M,0000,0000*7F
$GPRMC,222118.250,A,4738.9727,N,12215.7690,W,0.81,83.15,230822,,,D*45
$GPVTG,83.15,T,,M,0.81,N,1.50,K,D*0A
$GPGGA,222118.500,4738.9727,N,12215.7691,W,2,10,0.80,-2.9,M,-17.3,M,0000,0000*7A
$GPVTG,82.67,T,,M,0.77,N,1.43,K,D*05
$GPGGA,222118.750,4738.9728,N,12215.7691,W,2,10,0.79,-2.9,M,-17.3,M,0000,0000*74
$GPVTG,81.94,T,,M,0.74,N,1.36,K,D*0B
$GPGGA,222119.000,4738.9728,N,12215.7691,W,2,10,0.80,-2.9,M,-17.3,M,0000,0000*71
$GPVTG,81.15,T,,M,0.71,N,1.31,K,D*00
$GPGGA,222119.250,4738.9728,N,12215.7691,W,2,10,0.80,-3.0,M,-17.3,M,0000,0000*7E
$GPRMC,222119.250,A,4738.9728,N,12215.7691,W,0.68,80.32,230822,,,D*4B
$GPVTG,80.32,T,,M,0.68,N,1.26,K,D*0A
$GPGGA,222119.500,4738.9729,N,12215.7691,W,2,10,0.79,-3.0,M,-17.3,M,0000,0000*7B
$GPVTG,79.48,T,,M,0.66,N,1.23,K,D*0A
$GPGGA,222119.750,4738.9729,N,12215.7691,W,2,10,0.79,-3.0,M,-17.3,M,0000,0000*7C
$GPVTG,78.55,T,,M,0.65,N,1.20,K,D*07
$GPGGA,222120.000,4738.9729,N,12215.7692,W,2,10,0.79,-3.0,M,-17.3,M,0000,0000*77
$GPVTG,77.36,T,,M,0.63,N,1.16,K,D*0E
$GPGGA,222120.250,4738.9730,N,12215.7692,W,2,10,0.80,-3.0,M,-17.3,M,0000,0000*7E
$GPRMC,222120.250,A,4738.9730,N,12215.7692,W,0.60,46.46,230822,,,D*4A
$GPVTG,46.46,T,,M,0.60,N,1.12,K,D*0C
$GPGGA,222120.500,4738.9730,N,12215.7694,W,2,10,0.80,-3.0,M,-17.3,M,0000,0000*7A
$GPVTG,37.69,T,,M,0.58,N,1.07,K,D*08
$GPGGA,222120.750,4738.9730,N,12215.7694,W,2,10,0.80,-3.0,M,-17.3,M,0000,0000*7D
$GPVTG,30.85,T,,M,0.55,N,1.02,K,D*05
$GPGGA,222121.000,4738.9732,N,12215.7698,W,2,10,0.80,-3.0,M,-17.3,M,0000,0000*70
$GPVTG,7.12,T,,M,0.55,N,1.03,K,D*3E
$GPGGA,222121.250,4738.9732,N,12215.7702,W,2,10,0.79,-3.1,M,-17.3,M,0000,0000*72
$GPRMC,222121.250,A,4738.9732,N,12215.7702,W,0.58,344.66,230822,,,D*79
$GPVTG,344.66,T,,M,0.58,N,1.08,K,D*3F
$GPGGA,222121.500,4738.9731,N,12215.7706,W,2,10,0.79,-3.1,M,-17.3,M,0000,0000*77
$GPVTG,327.07,T,,M,0.86,N,1.59,K,D*3A
$GPGGA,222121.750,4738.9730,N,12215.7709,W,2,10,0.79,-3.2,M,-17.3,M,0000,0000*7D
$GPVTG,320.65,T,,M,0.90,N,1.66,K,D*32
$GPGGA,222122.000,4738.9729,N,12215.7710,W,2,10,0.79,-3.2,M,-17.3,M,0000,0000*7C
$GPVTG,317.72,T,,M,0.96,N,1.79,K,D*38
$GPGGA,222122.250,4738.9728,N,12215.7711,W,2,10,0.79,-3.2,M,-17.3,M,0000,0000*7B
$GPRMC,222122.250,A,4738.9728,N,12215.7711,W,1.14,321.83,230822,,,D*72
$GPVTG,321.83,T,,M,1.14,N,2.11,K,D*35
$GPGGA,222122.500,4738.9727,N,12215.7712,W,2,10,0.79,-3.2,M,-17.3,M,0000,0000*75
$GPVTG,317.68,T,,M,1.20,N,2.21,K,D*31
$GPGGA,222122.750,4738.9726,N,12215.7713,W,2,10,0.79,-3.2,M,-17.3,M,0000,0000*72
$GPVTG,308.72,T,,M,1.26,N,2.33,K,D*31
$GPGGA,222123.000,4738.9725,N,12215.7714,W,2,10,0.79,-3.2,M,-17.3,M,0000,0000*75
$GPVTG,292.46,T,,M,1.48,N,2.74,K,D*3F
$GPGGA,222123.250,4738.9724,N,12215.7715,W,2,10,0.79,-3.2,M,-17.3,M,0000,0000*72
$GPRMC,222123.250,A,4738.9724,N,12215.7715,W,1.54,289.91,230822,,,D*7F
$GPVTG,289.91,T,,M,1.54,N,2.85,K,D*3C
$GPGGA,222123.500,4738.9723,N,12215.7716,W,2,10,0.79,-3.2,M,-17.3,M,0000,0000*74
$GPVTG,292.06,T,,M,1.59,N,2.95,K,D*34
$GPGGA,222123.750,4738.9722,N,12215.7717,W,2,10,0.79,-3.2,M,-17.3,M,0000,0000*73
$GPVTG,295.83,T,,M,1.66,N,3.08,K,D*37
$GPGGA,222124.000,4738.9722,N,12215.7718,W,2,10,0.79,-3.1,M,-17.3,M,0000,0000*7A
$GPVTG,298.38,T,,M,1.88,N,3.49,K,D*3F
$GPGGA,222124.250,4738.9721,N,12215.7720,W,2,10,0.79,-3.1,M,-17.3,M,0000,0000*75
$GPRMC,222124.250,A,4738.9721,N,12215.7720,W,2.08,299.30,230822,,,D*7B
$GPVTG,299.30,T,,M,2.08,N,3.86,K,D*3E
$GPGGA,222124.500,4738.9721,N,12215.7722,W,2,10,0.79,-3.1,M,-17.3,M,0000,0000*75
$GPVTG,298.16,T,,M,2.45,N,4.55,K,D*3B
$GPGGA,222124.750,4738.9719,N,12215.7724,W,2,10,0.79,-3.1,M,-17.3,M,0000,0000*7F
$GPVTG,295.49,T,,M,2.80,N,5.19,K,D*3C
$GPGGA,222125.000,4738.9718,N,12215.7726,W,2,10,0.79,-3.1,M,-17.3,M,0000,0000*7F
$GPVTG,306.58,T,,M,3.13,N,5.80,K,D*3C
$GPGGA,222125.250,4738.9718,N,12215.7729,W,2,10,0.79,-3.0,M,-17.3,M,0000,0000*76
$GPRMC,222125.250,A,4738.9718,N,12215.7729,W,3.18,315.20,230822,,,D*7D
$GPVTG,315.20,T,,M,3.18,N,5.90,K,D*3B
$GPGGA,222125.500,4738.9719,N,12215.7730,W,2,10,0.79,-3.0,M,-17.3,M,0000,0000*7D
$GPVTG,321.21,T,,M,3.39,N,6.28,K,D*3E
$GPGGA,222125.750,4738.9720,N,12215.7733,W,2,10,0.79,-3.0,M,-17.3,M,0000,0000*73
$GPVTG,318.78,T,,M,3.59,N,6.66,K,D*34
$GPGGA,222126.000,4738.9720,N,12215.7735,W,2,10,0.79,-3.0,M,-17.3,M,0000,0000*74
$GPVTG,307.88,T,,M,3.66,N,6.78,K,D*36
$GPGGA,222126.250,4738.9721,N,12215.7738,W,2,10,0.79,-3.0,M,-17.3,M,0000,0000*7F
$GPRMC,222126.250,A,4738.9721,N,12215.7738,W,3.62,310.58,230822,,,D*73
$GPVTG,310.58,T,,M,3.62,N,6.70,K,D*31
$GPGGA,222126.500,4738.9722,N,12215.7740,W,2,10,0.79,-3.0,M,-17.3,M,0000,0000*71
$GPVTG,320.18,T,,M,3.23,N,5.98,K,D*36
$GPGGA,222126.750,4738.9723,N,12215.7741,W,2,10,0.79,-3.0,M,-17.3,M,0000,0000*76
$GPVTG,324.52,T,,M,3.15,N,5.85,K,D*35
$GPGGA,222127.000,4738.9724,N,12215.7742,W,2,10,0.79,-2.9,M,-17.3,M,0000,0000*79
$GPVTG,327.51,T,,M,2.81,N,5.20,K,D*36
$GPGGA,222127.250,4738.9725,N,12215.7744,W,2,10,0.79,-2.9,M,-17.3,M,0000,0000*79
$GPRMC,222127.250,A,4738.9725,N,12215.7744,W,2.65,322.33,230822,,,D*77
$GPVTG,322.33,T,,M,2.65,N,4.91,K,D*36
$GPGGA,222127.500,4738.9726,N,12215.7745,W,2,10,0.79,-2.9,M,-17.3,M,0000,0000*79
$GPVTG,323.37,T,,M,2.68,N,4.96,K,D*39
$GPGGA,222127.750,4738.9727,N,12215.7745,W,2,10,0.79,-2.9,M,-17.3,M,0000,0000*7F
$GPVTG,325.79,T,,M,2.47,N,4.57,K,D*35
$GPGGA,222128.000,4738.9728,N,12215.7747,W,2,10,0.79,-2.9,M,-17.3,M,0000,0000*7F
$GPVTG,327.79,T,,M,2.43,N,4.51,K,D*35
$GPGGA,222128.250,4738.9729,N,12215.7748,W,2,10,0.79,-2.9,M,-17.3,M,0000,0000*76
$GPRMC,222128.250,A,4738.9729,N,12215.7748,W,2.39,328.88,230822,,,D*7B
$GPVTG,328.88,T,,M,2.39,N,4.43,K,D*3A
$GPGGA,222128.500,4738.9730,N,12215.7749,W,2,10,0.79,-2.9,M,-17.3,M,0000,0000*7D
$GPVTG,326.25,T,,M,2.40,N,4.44,K,D*3A
$GPGGA,222128.750,4738.9731,N,12215.7750,W,2,10,0.79,-2.9,M,-17.3,M,0000,0000*73
$GPVTG,324.46,T,,M,2.45,N,4.53,K,D*3E
$GPGGA,222129.000,4738.9733,N,12215.7751,W,2,10,0.79,-2.8,M,-17.3,M,0000,0000*72
$GPVTG,327.63,T,,M,2.66,N,4.94,K,D*30
$GPGGA,222129.250,4738.9734,N,12215.7753,W,2,10,0.79,-2.8,M,-17.3,M,0000,0000*70
$GPRMC,222129.250,A,4738.9734,N,12215.7753,W,2.87,328.46,230822,,,D*7B
$GPVTG,328.46,T,,M,2.87,N,5.31,K,D*39
$GPGGA,222129.500,4738.9736,N,12215.7755,W,2,10,0.79,-2.8,M,-17.3,M,0000,0000*76
$GPVTG,324.44,T,,M,2.69,N,4.98,K,D*35
$GPGGA,222129.750,4738.9737,N,12215.7756,W,2,10,0.79,-2.8,M,-17.3,M,0000,0000*73
$GPVTG,325.85,T,,M,2.66,N,4.94,K,D*3A
$GPGGA,222130.000,4738.9738,N,12215.7758,W,2,10,0.79,-2.8,M,-17.3,M,0000,0000*78
$GPVTG,321.89,T,,M,2.48,N,4.60,K,D*35
$GPGGA,222130.250,4738.9739,N,12215.7760,W,2,10,0.79,-2.8,M,-17.3,M,0000,0000*75
$GPRMC,222130.250,A,4738.9739,N,12215.7760,W,2.52,319.65,230822,,,D*75
$GPVTG,319.65,T,,M,2.52,N,4.67,K,D*30
$GPGGA,222130.500,4738.9741,N,12215.7761,W,2,10,0.79,-2.8,M,-17.3,M,0000,0000*79
$GPVTG,321.26,T,,M,2.54,N,4.70,K,D*3C
$GPGGA,222130.750,4738.9742,N,12215.7763,W,2,10,0.79,-2.8,M,-17.3,M,0000,0000*7F
$GPVTG,324.89,T,,M,2.58,N,4.78,K,D*38
$GPGGA,222131.000,4738.9743,N,12215.7764,W,2,10,0.79,-2.8,M,-17.3,M,0000,0000*7A
$GPVTG,325.83,T,,M,2.25,N,4.17,K,D*30
$GPGGA,222131.250,4738.9744,N,12215.7766,W,2,10,0.79,-2.8,M,-17.3,M,0000,0000*78
$GPRMC,222131.250,A,4738.9744,N,12215.7766,W,2.31,324.40,230822,,,D*74
$GPVTG,324.40,T,,M,2.31,N,4.28,K,D*37
$GPGGA,222131.500,4738.9746,N,12215.7767,W,2,10,0.79,-2.8,M,-17.3,M,0000,0000*79
$GPVTG,317.95,T,,M,2.32,N,4.31,K,D*34
$GPGGA,222131.750,4738.9746,N,12215.7769,W,2,10,0.79,-2.8,M,-17.3,M,0000,0000*70
$GPVTG,318.43,T,,M,2.31,N,4.29,K,D*3A
$GPGGA,222132.000,4738.9747,N,12215.7770,W,2,10,0.79,-2.8,M,-17.3,M,0000,0000*78
$GPVTG,312.78,T,,M,2.34,N,4.34,K,D*31
$GPGGA,222132.250,4738.9748,N,12215.7772,W,2,10,0.79,-2.8,M,-17.3,M,0000,0000*72
$GPRMC,222132.250,A,4738.9748,N,12215.7772,W,2.69,309.83,230822,,,D*73
$GPVTG,309.83,T,,M,2.69,N,4.98,K,D*31
$GPGGA,222132.500,4738.9749,N,12215.7774,W,2,10,0.79,-2.8,M,-17.3,M,0000,0000*77
$GPVTG,311.20,T,,M,2.42,N,4.48,K,D*35
$GPGGA,222132.750,4738.9749,N,12215.7775,W,2,10,0.79,-2.8,M,-17.3,M,0000,0000*71
$GPVTG,315.90,T,,M,2.43,N,4.49,K,D*3A
$GPGGA,222133.000,4738.9750,N,12215.7776,W,2,10,0.79,-2.8,M,-17.3,M,0000,0000*79
$GPVTG,320.84,T,,M,2.00,N,3.71,K,D*32
$GPGGA,222133.250,4738.9751,N,12215.7778,W,2,10,0.79,-2.8,M,-17.3,M,0000,0000*71
$GPRMC,222133.250,A,4738.9751,N,12215.7778,W,1.85,319.77,230822,,,D*7B
$GPVTG,319.77,T,,M,1.85,N,3.42,K,D*3A
$GPGGA,222133.500,4738.9752,N,12215.7779,W,2,10,0.79,-2.9,M,-17.3,M,0000,0000*70
$GPVTG,325.01,T,,M,2.12,N,3.92,K,D*34
$GPGGA,222133.750,4738.9753,N,12215.7780,W,2,10,0.79,-2.9,M,-17.3,M,0000,0000*70
$GPVTG,328.46,T,,M,2.55,N,4.73,K,D*31
$GPGGA,222134.000,4738.9754,N,12215.7781,W,2,10,0.79,-2.8,M,-17.3,M,0000,0000*72
$GPVTG,330.45,T,,M,2.52,N,4.67,K,D*39
$GPGGA,222134.250,4738.9755,N,12215.7782,W,2,10,0.79,-2.7,M,-17.3,M,0000,0000*78
$GPRMC,222134.250,A,4738.9755,N,12215.7782,W,2.59,320.58,230822,,,D*78
$GPVTG,320.58,T,,M,2.59,N,4.80,K,D*36
$GPGGA,222134.500,4738.9757,N,12215.7784,W,2,10,0.79,-2.7,M,-17.3,M,0000,0000*7E
$GPVTG,315.84,T,,M,2.61,N,4.84,K,D*3E
$GPGGA,222134.750,4738.9758,N,12215.7786,W,2,10,0.79,-2.7,M,-17.3,M,0000,0000*74
$GPVTG,308.31,T,,M,2.59,N,4.80,K,D*33
$GPGGA,222135.000,4738.9759,N,12215.7788,W,2,10,0.79,-2.8,M,-17.3,M,0000,0000*77
$GPVTG,308.45,T,,M,2.15,N,3.99,K,D*37
$GPGGA,222135.250,4738.9759,N,12215.7790,W,2,10,0.79,-2.8,M,-17.3,M,0000,0000*79
$GPRMC,222135.250,A,4738.9759,N,12215.7790,W,2.11,313.36,230822,,,D*72
$GPVTG,313.36,T,,M,2.11,N,3.91,K,D*35
$GPGGA,222135.500,4738.9760,N,12215.7791,W,2,10,0.79,-2.8,M,-17.3,M,0000,0000*70
$GPVTG,312.52,T,,M,2.08,N,3.86,K,D*38
$GPGGA,222135.750,4738.9761,N,12215.7792,W,2,10,0.79,-2.8,M,-17.3,M,0000,0000*75
$GPVTG,310.35,T,,M,2.44,N,4.51,K,D*3E
$GPGGA,222136.000,4738.9761,N,12215.7794,W,2,10,0.79,-2.7,M,-17.3,M,0000,0000*7D
$GPVTG,309.76,T,,M,2.40,N,4.44,K,D*31
$GPGGA,222136.250,4738.9762,N,12215.7796,W,2,10,0.79,-2.7,M,-17.3,M,0000,0000*7B
$GPRMC,222136.250,A,4738.9762,N,12215.7796,W,2.81,309.03,230822,,,D*7B
$GPVTG,309.03,T,,M,2.81,N,5.20,K,D*3D
$GPGGA,222136.500,4738.9764,N,12215.7798,W,2,10,0.79,-2.6,M,-17.3,M,0000,0000*70
$GPVTG,311.45,T,,M,3.47,N,6.42,K,D*3A
$GPGGA,222136.750,4738.9765,N,12215.7801,W,2,10,0.79,-2.6,M,-17.3,M,0000,0000*79
$GPVTG,319.15,T,,M,3.54,N,6.55,K,D*33
$GPGGA,222137.000,4738.9767,N,12215.7803,W,2,10,0.79,-2.6,M,-17.3,M,0000,0000*7A
$GPVTG,328.11,T,,M,4.02,N,7.45,K,D*31
$GPGGA,222137.250,4738.9770,N,12215.7805,W,2,10,0.79,-2.6,M,-17.3,M,0000,0000*7D
$GPRMC,222137.250,A,4738.9770,N,12215.7805,W,4.05,329.12,230822,,,D*74
$GPVTG,329.12,T,,M,4.05,N,7.50,K,D*30
$GPGGA,222137.500,4738.9772,N,12215.7807,W,2,10,0.80,-2.6,M,-17.3,M,0000,0000*79
$GPVTG,330.84,T,,M,3.98,N,7.37,K,D*35
$GPGGA,222137.750,4738.9774,N,12215.7809,W,2,10,0.79,-2.6,M,-17.3,M,0000,0000*70
$GPVTG,337.38,T,,M,3.56,N,6.59,K,D*3E
$GPGGA,222138.000,4738.9776,N,12215.7810,W,2,10,0.79,-2.7,M,-17.3,M,0000,0000*76
$GPVTG,345.92,T,,M,3.19,N,5.92,K,D*34
$GPGGA,222138.250,4738.9778,N,12215.7811,W,2,10,0.80,-2.7,M,-17.3,M,0000,0000*78
$GPRMC,222138.250,A,4738.9778,N,12215.7811,W,3.15,340.85,230822,,,D*71
$GPVTG,340.85,T,,M,3.15,N,5.83,K,D*3B
$GPGGA,222138.500,4738.9780,N,12215.7812,W,2,10,0.79,-2.7,M,-17.3,M,0000,0000*78
$GPVTG,339.60,T,,M,2.37,N,4.39,K,D*3F
$GPGGA,222138.750,4738.9781,N,12215.7813,W,2,10,0.79,-2.7,M,-17.3,M,0000,0000*7F
$GPVTG,341.23,T,,M,2.15,N,3.98,K,D*3B
$GPGGA,222139.000,4738.9783,N,12215.7814,W,2,10,0.79,-2.6,M,-17.3,M,0000,0000*78
$GPVTG,342.23,T,,M,2.18,N,4.04,K,D*37
$GPGGA,222139.250,4738.9784,N,12215.7815,W,2,10,0.79,-2.6,M,-17.3,M,0000,0000*79
$GPRMC,222139.250,A,4738.9784,N,12215.7815,W,2.22,340.78,230822,,,D*70
$GPVTG,340.78,T,,M,2.22,N,4.11,K,D*36
$GPGGA,222139.500,4738.9785,N,12215.7816,W,2,10,0.79,-2.6,M,-17.3,M,0000,0000*79
$GPVTG,333.48,T,,M,2.22,N,4.12,K,D*32
$GPGGA,222139.750,4738.9787,N,12215.7817,W,2,10,0.79,-2.6,M,-17.3,M,0000,0000*7D
$GPVTG,339.24,T,,M,2.57,N,4.76,K,D*32
$GPGGA,222140.000,4738.9788,N,12215.7818,W,2,10,0.79,-2.6,M,-17.3,M,0000,0000*71
$GPVTG,341.62,T,,M,2.39,N,4.43,K,D*31
$GPGGA,222140.250,4738.9790,N,12215.7818,W,2,10,0.79,-2.6,M,-17.3,M,0000,0000*7F
$GPRMC,222140.250,A,4738.9790,N,12215.7818,W,2.38,344.70,230822,,,D*71
$GPVTG,344.70,T,,M,2.38,N,4.42,K,D*37
$GPGGA,222140.500,4738.9792,N,12215.7819,W,2,10,0.79,-2.6,M,-17.3,M,0000,0000*7E
$GPVTG,348.41,T,,M,2.57,N,4.77,K,D*36
$GPGGA,222140.750,4738.9794,N,12215.7820,W,2,10,0.80,-2.5,M,-17.3,M,0000,0000*70
$GPVTG,348.40,T,,M,2.54,N,4.71,K,D*32
$GPGGA,222141.000,4738.9795,N,12215.7821,W,2,10,0.80,-2.5,M,-17.3,M,0000,0000*73
$GPVTG,340.68,T,,M,2.52,N,4.68,K,D*3E
$GPGGA,222141.250,4738.9797,N,12215.7822,W,2,10,0.79,-2.5,M,-17.3,M,0000,0000*73
$GPRMC,222141.250,A,4738.9797,N,12215.7822,W,2.51,333.94,230822,,,D*7B
$GPVTG,333.94,T,,M,2.51,N,4.64,K,D*36
$GPGGA,222141.500,4738.9798,N,12215.7823,W,2,10,0.79,-2.5,M,-17.3,M,0000,0000*7F
$GPVTG,334.13,T,,M,2.47,N,4.58,K,D*36
$GPGGA,222141.750,4738.9799,N,12215.7824,W,2,10,0.79,-2.5,M,-17.3,M,0000,0000*7E
$GPVTG,338.69,T,,M,2.40,N,4.45,K,D*3C
$GPGGA,222142.000,4738.9800,N,12215.7824,W,2,10,0.79,-2.5,M,-17.3,M,0000,0000*70
$GPVTG,342.80,T,,M,2.37,N,4.39,K,D*3D
$GPGGA,222142.250,4738.9802,N,12215.7825,W,2,10,0.79,-2.5,M,-17.3,M,0000,0000*74
$GPRMC,222142.250,A,4738.9802,N,12215.7825,W,2.32,339.59,230822,,,D*72
$GPVTG,339.59,T,,M,2.32,N,4.30,K,D*39
$GPGGA,222142.500,4738.9804,N,12215.7826,W,2,10,0.79,-2.5,M,-17.3,M,0000,0000*73
$GPVTG,340.67,T,,M,2.12,N,3.93,K,D*36
$GPGGA,222142.750,4738.9805,N,12215.7826,W,2,10,0.79,-2.6,M,-17.3,M,0000,0000*76
$GPVTG,343.82,T,,M,2.34,N,4.34,K,D*30
$GPGGA,222143.000,4738.9807,N,12215.7827,W,2,10,0.79,-2.6,M,-17.3,M,0000,0000*76
$GPVTG,337.33,T,,M,2.62,N,4.85,K,D*30
$GPGGA,222143.250,4738.9808,N,12215.7829,W,2,10,0.79,-2.5,M,-17.3,M,0000,0000*73
$GPRMC,222143.250,A,4738.9808,N,12215.7829,W,2.63,335.54,230822,,,D*70
$GPVTG,335.54,T,,M,2.63,N,4.87,K,D*30
$GPGGA,222143.500,4738.9810,N,12215.7830,W,2,10,0.79,-2.5,M,-17.3,M,0000,0000*70
$GPVTG,336.05,T,,M,2.65,N,4.91,K,D*36
$GPGGA,222143.750,4738.9812,N,12215.7831,W,2,10,0.79,-2.4,M,-17.3,M,0000,0000*75
$GPVTG,332.15,T,,M,2.58,N,4.79,K,D*3B
$GPGGA,222144.000,4738.9814,N,12215.7832,W,2,10,0.79,-2.4,M,-17.3,M,0000,0000*75
$GPVTG,333.39,T,,M,2.55,N,4.72,K,D*32
$GPGGA,222144.250,4738.9815,N,12215.7833,W,2,10,0.79,-2.4,M,-17.3,M,0000,0000*72
$GPRMC,222144.250,A,4738.9815,N,12215.7833,W,2.56,341.10,230822,,,D*75
$GPVTG,341.10,T,,M,2.56,N,4.75,K,D*38
$GPGGA,222144.500,4738.9817,N,12215.7834,W,2,10,0.79,-2.5,M,-17.3,M,0000,0000*74
$GPVTG,352.27,T,,M,2.54,N,4.70,K,D*39
$GPGGA,222144.750,4738.9819,N,12215.7834,W,2,10,0.80,-2.4,M,-17.3,M,0000,0000*7A
$GPVTG,357.50,T,,M,2.53,N,4.69,K,D*33
$GPGGA,222145.000,4738.9820,N,12215.7834,W,2,10,0.79,-2.4,M,-17.3,M,0000,0000*75
$GPVTG,345.19,T,,M,1.98,N,3.67,K,D*30
$GPGGA,222145.250,4738.9822,N,12215.7835,W,2,10,0.80,-2.4,M,-17.3,M,0000,0000*77
$GPRMC,222145.250,A,4738.9822,N,12215.7835,W,1.98,338.45,230822,,,D*79
$GPVTG,338.45,T,,M,1.98,N,3.67,K,D*33
$GPGGA,222145.500,4738.9823,N,12215.7835,W,2,10,0.79,-2.4,M,-17.3,M,0000,0000*72
$GPVTG,337.45,T,,M,1.95,N,3.60,K,D*36
$GPGGA,222145.750,4738.9824,N,12215.7836,W,2,10,0.79,-2.3,M,-17.3,M,0000,0000*76
$GPVTG,337.38,T,,M,1.90,N,3.52,K,D*38
$GPGGA,222146.000,4738.9825,N,12215.7837,W,2,10,0.79,-2.3,M,-17.3,M,0000,0000*77
$GPVTG,335.14,T,,M,2.10,N,3.88,K,D*38
$GPGGA,222146.250,4738.9827,N,12215.7837,W,2,10,0.79,-2.3,M,-17.3,M,0000,0000*72
$GPRMC,222146.250,A,4738.9827,N,12215.7837,W,2.02,339.44,230822,,,D*7D
$GPVTG,339.44,T,,M,2.02,N,3.75,K,D*30
$GPGGA,222146.500,4738.9828,N,12215.7838,W,2,10,0.79,-2.3,M,-17.3,M,0000,0000*70
$GPVTG,345.67,T,,M,1.97,N,3.65,K,D*34
$GPGGA,222146.750,4738.9829,N,12215.7838,W,2,10,0.80,-2.3,M,-17.3,M,0000,0000*70
$GPVTG,344.14,T,,M,2.00,N,3.71,K,D*39
$GPGGA,222147.000,4738.9831,N,12215.7839,W,2,10,0.79,-2.2,M,-17.3,M,0000,0000*7C
$GPVTG,339.39,T,,M,2.21,N,4.09,K,D*37
$GPGGA,222147.250,4738.9832,N,12215.7840,W,2,10,0.79,-2.2,M,-17.3,M,0000,0000*76
$GPRMC,222147.250,A,4738.9832,N,12215.7840,W,2.22,336.50,230822,,,D*70
$GPVTG,336.50,T,,M,2.22,N,4.11,K,D*3D
$GPGGA,222147.500,4738.9834,N,12215.7840,W,2,10,0.79,-2.2,M,-17.3,M,0000,0000*72
$GPVTG,336.24,T,,M,2.28,N,4.23,K,D*35
$GPGGA,222147.750,4738.9835,N,12215.7841,W,2,10,0.79,-2.2,M,-17.3,M,0000,0000*75
$GPVTG,333.94,T,,M,2.32,N,4.30,K,D*32
$GPGGA,222148.000,4738.9834,N,12215.7841,W,2,10,0.79,-2.1,M,-17.3,M,0000,0000*7A
$GPVTG,339.24,T,,M,2.38,N,4.42,K,D*3C
$GPGGA,222148.250,4738.9835,N,12215.7841,W,2,10,0.79,-2.0,M,-17.3,M,0000,0000*7D
$GPRMC,222148.250,A,4738.9835,N,12215.7841,W,2.43,340.46,230822,,,D*78
$GPVTG,340.46,T,,M,2.43,N,4.50,K,D*39
$GPGGA,222148.500,4738.9836,N,12215.7842,W,2,10,0.79,-2.0,M,-17.3,M,0000,0000*7F
$GPVTG,341.51,T,,M,2.44,N,4.53,K,D*3A
$GPGGA,222148.750,4738.9837,N,12215.7843,W,2,10,0.79,-1.9,M,-17.3,M,0000,0000*72
$GPVTG,343.72,T,,M,2.46,N,4.55,K,D*3D
$GPGGA,222149.000,4738.9839,N,12215.7842,W,2,10,0.79,-1.9,M,-17.3,M,0000,0000*7E
$GPVTG,346.31,T,,M,2.50,N,4.64,K,D*3A
$GPGGA,222149.250,4738.9841,N,12215.7843,W,2,10,0.80,-1.9,M,-17.3,M,0000,0000*71
$GPRMC,222149.250,A,4738.9841,N,12215.7843,W,2.53,349.43,230822,,,D*75
$GPVTG,349.43,T,,M,2.53,N,4.68,K,D*3F
$GPGGA,222149.500,4738.9842,N,12215.7844,W,2,10,0.80,-1.8,M,-17.3,M,0000,0000*76
$GPVTG,353.48,T,,M,2.32,N,4.31,K,D*34
$GPGGA,222149.750,4738.9844,N,12215.7844,W,2,10,0.80,-1.8,M,-17.3,M,0000,0000*77
$GPVTG,354.10,T,,M,2.26,N,4.20,K,D*3B
$GPGGA,222150.000,4738.9846,N,12215.7844,W,2,10,0.80,-1.8,M,-17.3,M,0000,0000*7F
$GPVTG,355.73,T,,M,2.28,N,4.23,K,D*32
$GPGGA,222150.250,4738.9848,N,12215.7845,W,2,09,0.90,-1.7,M,-17.3,M,0000,0000*71
$GPRMC,222150.250,A,4738.9848,N,12215.7845,W,2.29,354.83,230822,,,D*7F
$GPVTG,354.83,T,,M,2.29,N,4.25,K,D*3B
$GPGGA,222150.500,4738.9849,N,12215.7845,W,2,10,0.80,-1.7,M,-17.3,M,0000,0000*7B
$GPVTG,354.62,T,,M,2.33,N,4.31,K,D*3A
$GPGGA,222150.750,4738.9851,N,12215.7845,W,2,10,0.80,-1.7,M,-17.3,M,0000,0000*75
$GPVTG,354.50,T,,M,2.33,N,4.32,K,D*38
$GPGGA,222151.000,4738.9853,N,12215.7846,W,2,10,0.80,-1.6,M,-17.3,M,0000,0000*76
$GPVTG,355.85,T,,M,2.32,N,4.30,K,D*32
$GPGGA,222151.250,4738.9854,N,12215.7846,W,2,10,0.80,-1.6,M,-17.3,M,0000,0000*76
$GPRMC,222151.250,A,4738.9854,N,12215.7846,W,2.13,356.59,230822,,,D*7C
$GPVTG,356.59,T,,M,2.13,N,3.95,K,D*3B
$GPGGA,222151.500,4738.9856,N,12215.7846,W,2,10,0.80,-1.6,M,-17.3,M,0000,0000*76
$GPVTG,357.78,T,,M,2.08,N,3.85,K,D*32
$GPGGA,222151.750,4738.9857,N,12215.7846,W,2,10,0.80,-1.5,M,-17.3,M,0000,0000*73
$GPVTG,4.14,T,,M,1.87,N,3.46,K,D*36
$GPGGA,222152.000,4738.9858,N,12215.7846,W,2,10,0.80,-1.5,M,-17.3,M,0000,0000*7D
$GPVTG,8.52,T,,M,1.92,N,3.57,K,D*3C
$GPGGA,222152.250,4738.9860,N,12215.7846,W,2,10,0.80,-1.5,M,-17.3,M,0000,0000*71
$GPRMC,222152.250,A,4738.9860,N,12215.7846,W,1.97,7.64,230822,,,D*7E
$GPVTG,7.64,T,,M,1.97,N,3.65,K,D*32
$GPGGA,222152.500,4738.9861,N,12215.7845,W,2,10,0.80,-1.5,M,-17.3,M,0000,0000*71
$GPVTG,13.87,T,,M,2.36,N,4.37,K,D*02
$GPGGA,222152.750,4738.9863,N,12215.7844,W,2,10,0.80,-1.5,M,-17.3,M,0000,0000*75
$GPVTG,29.14,T,,M,2.89,N,5.35,K,D*06
$GPGGA,222153.000,4738.9864,N,12215.7842,W,2,10,0.79,-1.5,M,-17.3,M,0000,0000*71
$GPVTG,37.91,T,,M,3.55,N,6.57,K,D*03
$GPGGA,222153.250,4738.9866,N,12215.7839,W,2,09,0.85,-1.4,M,-17.3,M,0000,0000*72
$GPRMC,222153.250,A,4738.9866,N,12215.7839,W,5.08,41.89,230822,,,D*42
$GPVTG,41.89,T,,M,5.08,N,9.41,K,D*0D
$GPGGA,222153.500,4738.9868,N,12215.7836,W,2,10,0.80,-1.4,M,-17.3,M,0000,0000*7C
$GPVTG,39.46,T,,M,5.01,N,9.27,K,D*08
$GPGGA,222153.750,4738.9871,N,12215.7833,W,2,10,0.80,-1.4,M,-17.3,M,0000,0000*76
$GPVTG,38.79,T,,M,4.58,N,8.49,K,D*01
$GPGGA,222154.000,4738.9873,N,12215.7830,W,2,10,0.80,-1.3,M,-17.3,M,0000,0000*75
$GPVTG,34.65,T,,M,4.28,N,7.93,K,D*0F
$GPGGA,222154.250,4738.9875,N,12215.7828,W,2,10,0.80,-1.3,M,-17.3,M,0000,0000*7D
$GPRMC,222154.250,A,4738.9875,N,12215.7828,W,4.29,32.91,230822,,,D*48
$GPVTG,32.91,T,,M,4.29,N,7.94,K,D*04
$GPGGA,222154.500,4738.9877,N,12215.7825,W,2,10,0.80,-1.2,M,-17.3,M,0000,0000*71
$GPVTG,32.15,T,,M,4.52,N,8.38,K,D*0D
$GPGGA,222154.750,4738.9880,N,12215.7823,W,2,10,0.80,-1.2,M,-17.3,M,0000,0000*78
$GPVTG,31.35,T,,M,4.53,N,8.39,K,D*0C
$GPGGA,222155.000,4738.9883,N,12215.7820,W,2,10,0.80,-1.1,M,-17.3,M,0000,0000*78
$GPVTG,27.40,T,,M,4.56,N,8.45,K,D*07
$GPGGA,222155.250,4738.9886,N,12215.7819,W,2,09,0.90,-1.1,M,-17.3,M,0000,0000*79
$GPRMC,222155.250,A,4738.9886,N,12215.7819,W,4.37,24.50,230822,,,D*42
$GPVTG,24.50,T,,M,4.37,N,8.10,K,D*02
$GPGGA,222155.500,4738.9889,N,12215.7817,W,2,10,0.80,-1.1,M,-17.3,M,0000,0000*73
$GPVTG,20.19,T,,M,3.97,N,7.36,K,D*0D
$GPGGA,222155.750,4738.9891,N,12215.7816,W,2,10,0.80,-1.0,M,-17.3,M,0000,0000*7D
$GPVTG,17.60,T,,M,3.71,N,6.87,K,D*04
$GPGGA,222156.000,4738.9893,N,12215.7816,W,2,10,0.79,-1.0,M,-17.3,M,0000,0000*78
$GPVTG,14.64,T,,M,3.74,N,6.93,K,D*03
$GPGGA,222156.250,4738.9896,N,12215.7815,W,2,10,0.80,-1.0,M,-17.3,M,0000,0000*7F
$GPRMC,222156.250,A,4738.9896,N,12215.7815,W,3.69,11.72,230822,,,D*46
$GPVTG,11.72,T,,M,3.69,N,6.84,K,D*0B
$GPGGA,222156.500,4738.9898,N,12215.7813,W,2,10,0.80,-0.9,M,-17.3,M,0000,0000*7D
$GPVTG,4.80,T,,M,3.45,N,6.39,K,D*3A
$GPGGA,222156.750,4738.9900,N,12215.7813,W,2,10,0.80,-0.9,M,-17.3,M,0000,0000*7A
$GPVTG,358.68,T,,M,3.44,N,6.38,K,D*36
$GPGGA,222157.000,4738.9902,N,12215.7813,W,2,10,0.79,-0.9,M,-17.3,M,0000,0000*7D
$GPVTG,354.12,T,,M,3.45,N,6.39,K,D*37
$GPGGA,222157.250,4738.9904,N,12215.7813,W,2,10,0.80,-0.9,M,-17.3,M,0000,0000*7A
$GPRMC,222157.250,A,4738.9904,N,12215.7813,W,3.11,351.63,230822,,,D*73
$GPVTG,351.63,T,,M,3.11,N,5.77,K,D*3C
$GPGGA,222157.500,4738.9905,N,12215.7814,W,2,10,0.80,-0.9,M,-17.3,M,0000,0000*7E
$GPVTG,341.24,T,,M,2.68,N,4.97,K,D*3E
$GPGGA,222157.750,4738.9907,N,12215.7814,W,2,10,0.79,-0.8,M,-17.3,M,0000,0000*7C
$GPVTG,342.14,T,,M,2.69,N,4.99,K,D*31
$GPGGA,222158.000,4738.9909,N,12215.7815,W,2,10,0.79,-0.8,M,-17.3,M,0000,0000*7E
$GPVTG,338.99,T,,M,2.49,N,4.62,K,D*3F
$GPGGA,222158.250,4738.9911,N,12215.7816,W,2,10,0.79,-0.8,M,-17.3,M,0000,0000*73
$GPRMC,222158.250,A,4738.9911,N,12215.7816,W,2.43,332.79,230822,,,D*75
$GPVTG,332.79,T,,M,2.43,N,4.51,K,D*31
$GPGGA,222158.500,4738.9912,N,12215.7816,W,2,10,0.79,-0.7,M,-17.3,M,0000,0000*7D
$GPVTG,329.66,T,,M,1.98,N,3.68,K,D*3D
$GPGGA,222158.750,4738.9913,N,12215.7818,W,2,10,0.79,-0.8,M,-17.3,M,0000,0000*7A
$GPVTG,329.70,T,,M,1.70,N,3.15,K,D*36
$GPGGA,222159.000,4738.9915,N,12215.7819,W,2,10,0.79,-0.8,M,-17.3,M,0000,0000*7E
$GPVTG,325.59,T,,M,2.26,N,4.18,K,D*3B
$GPGGA,222159.250,4738.9916,N,12215.7820,W,2,10,0.79,-0.8,M,-17.3,M,0000,0000*70
$GPRMC,222159.250,A,4738.9916,N,12215.7820,W,2.25,324.43,230822,,,D*78
$GPVTG,324.43,T,,M,2.25,N,4.17,K,D*3D
$GPGGA,222159.500,4738.9918,N,12215.7822,W,2,10,0.79,-0.8,M,-17.3,M,0000,0000*7E
$GPVTG,322.77,T,,M,2.27,N,4.21,K,D*3B
$GPGGA,222159.750,4738.9919,N,12215.7823,W,2,10,0.79,-0.8,M,-17.3,M,0000,0000*79
$GPVTG,323.20,T,,M,2.22,N,4.11,K,D*3E
$GPGGA,222200.000,4738.9920,N,12215.7824,W,2,10,0.79,-0.9,M,-17.3,M,0000,0000*78
$GPVTG,325.19,T,,M,2.17,N,4.02,K,D*36
$GPGGA,222200.250,4738.9922,N,12215.7827,W,2,10,0.79,-0.9,M,-17.3,M,0000,0000*7E
$GPRMC,222200.250,A,4738.9922,N,12215.7827,W,2.55,314.49,230822,,,D*79
$GPVTG,314.49,T,,M,2.55,N,4.72,K,D*30
$GPGGA,222200.500,4738.9922,N,12215.7828,W,2,10,0.79,-0.9,M,-17.3,M,0000,0000*73
$GPVTG,301.48,T,,M,2.47,N,4.58,K,D*3E
$GPGGA,222200.750,4738.9922,N,12215.7831,W,2,10,0.79,-0.9,M,-17.3,M,0000,0000*7C
$GPVTG,278.25,T,,M,2.49,N,4.62,K,D*3D
$GPGGA,222201.000,4738.9918,N,12215.7845,W,2,10,0.79,-0.7,M,-17.3,M,0000,0000*7B
$GPVTG,257.84,T,,M,7.18,N,13.30,K,D*0B
$GPGGA,222201.250,4738.9917,N,12215.7852,W,2,10,0.80,-0.7,M,-17.3,M,0000,0000*73
$GPRMC,222201.250,A,4738.9917,N,12215.7852,W,7.16,257.44,230822,,,D*75
$GPVTG,257.44,T,,M,7.16,N,13.27,K,D*0F
