$GPGGA,190011.000,3545.7161,N,07521.2561,W,2,08,0.97,-10.8,M,-36.4,M,0000,0000*4C
$GPVTG,148.58,T,,M,1.27,N,2.34,K,D*39
$GPGGA,190011.250,3545.7161,N,07521.2560,W,2,08,0.97,-10.8,M,-36.4,M,0000,0000*4A
$GPVTG,144.94,T,,M,1.26,N,2.34,K,D*34
$GPGGA,190011.500,3545.7160,N,07521.2559,W,2,08,0.97,-10.9,M,-36.4,M,0000,0000*42
$GPVTG,143.35,T,,M,1.27,N,2.36,K,D*3B
$GPGGA,190011.750,3545.7159,N,07521.2558,W,2,08,0.97,-10.9,M,-36.4,M,0000,0000*4E
$GPRMC,190011.750,A,3545.7159,N,07521.2558,W,1.19,142.47,271021,,,D*7F
$GPVTG,142.47,T,,M,1.19,N,2.20,K,D*35
$GPGGA,190012.000,3545.7159,N,07521.2558,W,2,08,0.97,-11.0,M,-36.4,M,0000,0000*47
$GPVTG,142.41,T,,M,1.05,N,1.95,K,D*33
$GPGGA,190012.250,3545.7159,N,07521.2558,W,2,08,0.97,-11.0,M,-36.4,M,0000,0000*40
$GPVTG,143.02,T,,M,0.96,N,1.78,K,D*3D
$GPGGA,190012.500,3545.7158,N,07521.2558,W,2,08,0.97,-11.1,M,-36.4,M,0000,0000*42
$GPVTG,145.80,T,,M,0.94,N,1.74,K,D*3F
$GPGGA,190012.750,3545.7158,N,07521.2557,W,2,08,0.97,-11.1,M,-36.4,M,0000,0000*4A
$GPRMC,190012.750,A,3545.7158,N,07521.2557,W,0.93,144.36,271021,,,D*71
$GPVTG,144.36,T,,M,0.93,N,1.73,K,D*33
$GPGGA,190013.000,3545.7157,N,07521.2557,W,2,08,0.97,-11.2,M,-36.4,M,0000,0000*45
$GPVTG,143.27,T,,M,0.94,N,1.74,K,D*34
$GPGGA,190013.250,3545.7156,N,07521.2556,W,2,08,0.97,-11.2,M,-36.4,M,0000,0000*42
$GPVTG,141.65,T,,M,1.02,N,1.89,K,D*3C
$GPGGA,190013.500,3545.7155,N,07521.2554,W,2,08,0.97,-11.2,M,-36.4,M,0000,0000*41
$GPVTG,137.26,T,,M,1.17,N,2.17,K,D*3A
$GPGGA,190013.750,3545.7154,N,07521.2552,W,2,08,0.97,-11.3,M,-36.4,M,0000,0000*40
$GPRMC,190013.750,A,3545.7154,N,07521.2552,W,1.35,135.08,271021,,,D*7F
$GPVTG,135.08,T,,M,1.35,N,2.50,K,D*37
$GPGGA,190014.000,3545.7153,N,07521.2551,W,2,08,0.97,-11.3,M,-36.4,M,0000,0000*41
$GPVTG,134.81,T,,M,1.50,N,2.78,K,D*3E
$GPGGA,190014.250,3545.7151,N,07521.2549,W,2,08,0.97,-11.4,M,-36.4,M,0000,0000*4A
$GPVTG,136.88,T,,M,1.59,N,2.94,K,D*3E
$GPGGA,190014.500,3545.7150,N,07521.2548,W,2,08,0.97,-11.4,M,-36.4,M,0000,0000*48
$GPVTG,137.04,T,,M,1.55,N,2.87,K,D*35
$GPGGA,190014.750,3545.7149,N,07521.2548,W,2,08,0.97,-11.5,M,-36.4,M,0000,0000*46
$GPRMC,190014.750,A,3545.7149,N,07521.2548,W,1.40,140.93,271021,,,D*7D
$GPVTG,140.93,T,,M,1.40,N,2.59,K,D*3C
$GPGGA,190015.000,3545.7148,N,07521.2547,W,2,08,0.97,-11.5,M,-36.4,M,0000,0000*4B
$GPVTG,146.91,T,,M,1.26,N,2.33,K,D*34
$GPGGA,190015.250,3545.7148,N,07521.2547,W,2,08,0.97,-11.5,M,-36.4,M,0000,0000*4C
$GPVTG,153.53,T,,M,1.16,N,2.16,K,D*3A
$GPGGA,190015.500,3545.7147,N,07521.2547,W,2,08,0.97,-11.6,M,-36.4,M,0000,0000*42
$GPVTG,152.61,T,,M,1.12,N,2.07,K,D*3E
$GPGGA,190015.750,3545.7146,N,07521.2547,W,2,08,0.97,-11.6,M,-36.4,M,0000,0000*44
$GPRMC,190015.750,A,3545.7146,N,07521.2547,W,1.16,151.71,271021,,,D*73
$GPVTG,151.71,T,,M,1.16,N,2.15,K,D*3B
$GPGGA,190016.000,3545.7145,N,07521.2546,W,2,08,0.97,-11.6,M,-36.4,M,0000,0000*47
$GPVTG,149.89,T,,M,1.15,N,2.13,K,D*30
$GPGGA,190016.250,3545.7144,N,07521.2545,W,2,08,0.97,-11.7,M,-36.4,M,0000,0000*43
$GPVTG,148.86,T,,M,1.22,N,2.26,K,D*3C
$GPGGA,190016.500,3545.7143,N,07521.2545,W,2,08,0.97,-11.7,M,-36.4,M,0000,0000*46
$GPVTG,146.83,T,,M,1.17,N,2.17,K,D*33
$GPGGA,190016.750,3545.7143,N,07521.2545,W,2,08,0.97,-11.8,M,-36.4,M,0000,0000*4E
$GPRMC,190016.750,A,3545.7143,N,07521.2545,W,1.11,147.62,271021,,,D*75
$GPVTG,147.62,T,,M,1.11,N,2.06,K,D*3B
$GPGGA,190017.000,3545.7142,N,07521.2544,W,2,08,0.97,-11.8,M,-36.4,M,0000,0000*4D
$GPVTG,143.69,T,,M,1.08,N,2.00,K,D*3A
$GPGGA,190017.250,3545.7142,N,07521.2543,W,2,08,0.97,-11.8,M,-36.4,M,0000,0000*4D
$GPVTG,141.20,T,,M,1.07,N,1.99,K,D*39
$GPGGA,190017.500,3545.7141,N,07521.2543,W,2,08,0.97,-11.9,M,-36.4,M,0000,0000*4D
$GPVTG,139.74,T,,M,1.03,N,1.92,K,D*38
$GPGGA,190017.750,3545.7141,N,07521.2543,W,2,08,0.97,-11.9,M,-36.4,M,0000,0000*4A
$GPRMC,190017.750,A,3545.7141,N,07521.2543,W,0.94,139.37,271021,,,D*75
$GPVTG,139.37,T,,M,0.94,N,1.74,K,D*38
$GPGGA,190018.000,3545.7141,N,07521.2543,W,2,08,0.97,-11.9,M,-36.4,M,0000,0000*47
$GPVTG,139.18,T,,M,0.86,N,1.59,K,D*39
$GPGGA,190018.250,3545.7141,N,07521.2542,W,2,08,0.97,-12.0,M,-36.4,M,0000,0000*4B
$GPVTG,136.96,T,,M,0.89,N,1.66,K,D*33
$GPGGA,190018.500,3545.7140,N,07521.2541,W,2,08,0.97,-12.0,M,-36.4,M,0000,0000*4B
$GPVTG,137.12,T,,M,0.97,N,1.80,K,D*39
$GPGGA,190018.750,3545.7138,N,07521.2541,W,2,08,0.97,-12.0,M,-36.4,M,0000,0000*43
$GPRMC,190018.750,A,3545.7138,N,07521.2541,W,1.09,142.66,271021,,,D*7B
$GPVTG,142.66,T,,M,1.09,N,2.02,K,D*37
$GPGGA,190019.000,3545.7136,N,07521.2540,W,2,08,0.97,-12.1,M,-36.4,M,0000,0000*4E
$GPVTG,149.12,T,,M,1.20,N,2.22,K,D*36
$GPGGA,190019.250,3545.7134,N,07521.2540,W,2,08,0.97,-12.1,M,-36.4,M,0000,0000*4B
$GPVTG,153.86,T,,M,1.43,N,2.65,K,D*36
$GPGGA,190019.500,3545.7132,N,07521.2539,W,2,08,0.97,-12.1,M,-36.4,M,0000,0000*41
$GPVTG,152.66,T,,M,1.53,N,2.84,K,D*37
$GPGGA,190019.750,3545.7131,N,07521.2537,W,2,08,0.97,-12.1,M,-36.4,M,0000,0000*4B
$GPRMC,190019.750,A,3545.7131,N,07521.2537,W,2.02,140.44,271021,,,D*78
$GPVTG,140.44,T,,M,2.02,N,3.73,K,D*3A
$GPGGA,190020.000,3545.7130,N,07521.2536,W,2,08,0.97,-12.2,M,-36.4,M,0000,0000*40
$GPVTG,137.50,T,,M,2.18,N,4.04,K,D*33
$GPGGA,190020.250,3545.7128,N,07521.2535,W,2,08,0.97,-12.2,M,-36.4,M,0000,0000*4D
$GPVTG,155.54,T,,M,2.46,N,4.56,K,D*3F
$GPGGA,190020.500,3545.7126,N,07521.2535,W,2,08,0.97,-12.2,M,-36.4,M,0000,0000*41
$GPVTG,158.94,T,,M,2.62,N,4.86,K,D*35
$GPGGA,190020.750,3545.7124,N,07521.2534,W,2,08,0.97,-12.3,M,-36.4,M,0000,0000*44
$GPRMC,190020.750,A,3545.7124,N,07521.2534,W,2.80,157.84,271021,,,D*75
$GPVTG,157.84,T,,M,2.80,N,5.19,K,D*30
$GPGGA,190021.000,3545.7123,N,07521.2533,W,2,08,0.97,-12.3,M,-36.4,M,0000,0000*47
$GPVTG,159.28,T,,M,2.67,N,4.96,K,D*37
$GPGGA,190021.250,3545.7121,N,07521.2533,W,2,08,0.97,-12.3,M,-36.4,M,0000,0000*42
$GPVTG,164.49,T,,M,1.91,N,3.53,K,D*3A
$GPGGA,190021.500,3545.7120,N,07521.2533,W,2,08,0.97,-12.4,M,-36.4,M,0000,0000*46
$GPVTG,155.01,T,,M,1.26,N,2.34,K,D*38
$GPGGA,190021.750,3545.7120,N,07521.2533,W,2,08,0.97,-12.4,M,-36.4,M,0000,0000*41
$GPRMC,190021.750,A,3545.7120,N,07521.2533,W,0.90,141.43,271021,,,D*78
$GPVTG,141.43,T,,M,0.90,N,1.66,K,D*33
$GPGGA,190022.000,3545.7120,N,07521.2532,W,2,08,0.97,-12.4,M,-36.4,M,0000,0000*41
$GPVTG,138.27,T,,M,0.77,N,1.42,K,D*30
$GPGGA,190022.250,3545.7119,N,07521.2533,W,2,08,0.97,-12.4,M,-36.4,M,0000,0000*4D
$GPVTG,149.61,T,,M,0.54,N,1.00,K,D*33
$GPGGA,190022.500,3545.7119,N,07521.2533,W,2,08,0.97,-12.4,M,-36.4,M,0000,0000*4F
$GPVTG,154.80,T,,M,0.49,N,0.91,K,D*35
$GPGGA,190022.750,3545.7119,N,07521.2533,W,2,08,0.97,-12.4,M,-36.4,M,0000,0000*48
$GPRMC,190022.750,A,3545.7119,N,07521.2533,W,0.49,143.12,271021,,,D*73
$GPVTG,143.12,T,,M,0.49,N,0.90,K,D*39
$GPGGA,190023.000,3545.7119,N,07521.2533,W,2,08,0.97,-12.4,M,-36.4,M,0000,0000*4B
$GPVTG,132.78,T,,M,0.48,N,0.89,K,D*3A
$GPGGA,190023.250,3545.7119,N,07521.2532,W,2,08,0.97,-12.3,M,-36.4,M,0000,0000*4A
$GPVTG,110.24,T,,M,0.52,N,0.97,K,D*37
$GPGGA,190023.500,3545.7120,N,07521.2531,W,2,08,0.97,-12.3,M,-36.4,M,0000,0000*41
$GPVTG,91.50,T,,M,0.65,N,1.21,K,D*04
$GPGGA,190023.750,3545.7121,N,07521.2530,W,2,08,0.97,-12.3,M,-36.4,M,0000,0000*46
$GPRMC,190023.750,A,3545.7121,N,07521.2530,W,0.65,69.69,271021,,,D*41
$GPVTG,69.69,T,,M,0.65,N,1.21,K,D*09
$GPGGA,190024.000,3545.7120,N,07521.2532,W,2,08,0.97,-12.2,M,-36.4,M,0000,0000*41
$GPVTG,159.00,T,,M,0.20,N,0.38,K,D*3C
$GPGGA,190024.250,3545.7119,N,07521.2532,W,2,08,0.97,-12.2,M,-36.4,M,0000,0000*4C
$GPVTG,172.07,T,,M,0.30,N,0.56,K,D*3B
$GPGGA,190024.500,3545.7118,N,07521.2532,W,2,08,0.97,-12.2,M,-36.4,M,0000,0000*4F
$GPVTG,189.05,T,,M,0.51,N,0.95,K,D*35
$GPGGA,190024.750,3545.7116,N,07521.2532,W,2,08,0.97,-12.2,M,-36.4,M,0000,0000*46
$GPRMC,190024.750,A,3545.7116,N,07521.2532,W,0.93,171.61,271021,,,D*79
$GPVTG,171.61,T,,M,0.93,N,1.73,K,D*37
$GPGGA,190025.000,3545.7115,N,07521.2531,W,2,08,0.97,-12.2,M,-36.4,M,0000,0000*45
$GPVTG,136.63,T,,M,1.86,N,3.45,K,D*34
$GPGGA,190025.250,3545.7114,N,07521.2530,W,2,08,0.97,-12.2,M,-36.4,M,0000,0000*42
$GPVTG,146.63,T,,M,2.45,N,4.54,K,D*38
$GPGGA,190025.500,3545.7112,N,07521.2529,W,2,08,0.97,-12.2,M,-36.4,M,0000,0000*4E
$GPVTG,167.15,T,,M,2.31,N,4.27,K,D*3D
$GPGGA,190025.750,3545.7111,N,07521.2529,W,2,08,0.97,-12.3,M,-36.4,M,0000,0000*4B
$GPRMC,190025.750,A,3545.7111,N,07521.2529,W,2.12,173.03,271021,,,D*78
$GPVTG,173.03,T,,M,2.12,N,3.93,K,D*36
$GPGGA,190026.000,3545.7110,N,07521.2529,W,2,08,0.97,-12.3,M,-36.4,M,0000,0000*4B
$GPVTG,169.94,T,,M,2.11,N,3.91,K,D*32
$GPGGA,190026.250,3545.7108,N,07521.2529,W,2,08,0.97,-12.3,M,-36.4,M,0000,0000*45
$GPVTG,179.31,T,,M,2.11,N,3.91,K,D*3C
$GPGGA,190026.500,3545.7107,N,07521.2529,W,2,08,0.97,-12.3,M,-36.4,M,0000,0000*48
$GPVTG,194.38,T,,M,2.25,N,4.16,K,D*39
$GPGGA,190026.750,3545.7105,N,07521.2529,W,2,08,0.97,-12.3,M,-36.4,M,0000,0000*4D
$GPRMC,190026.750,A,3545.7105,N,07521.2529,W,2.11,187.53,271021,,,D*73
$GPVTG,187.53,T,,M,2.11,N,3.90,K,D*38
$GPGGA,190027.000,3545.7104,N,07521.2529,W,2,08,0.97,-12.4,M,-36.4,M,0000,0000*48
$GPVTG,117.34,T,,M,1.38,N,2.56,K,D*33
$GPGGA,190027.250,3545.7104,N,07521.2527,W,2,08,0.97,-12.4,M,-36.4,M,0000,0000*41
$GPVTG,93.92,T,,M,2.04,N,3.77,K,D*0C
$GPGGA,190027.500,3545.7104,N,07521.2526,W,2,08,0.97,-12.5,M,-36.4,M,0000,0000*43
$GPVTG,67.88,T,,M,1.74,N,3.22,K,D*08
$GPGGA,190027.750,3545.7105,N,07521.2525,W,2,08,0.97,-12.5,M,-36.4,M,0000,0000*46
$GPRMC,190027.750,A,3545.7105,N,07521.2525,W,0.76,73.48,271021,,,D*4D
$GPVTG,73.48,T,,M,0.76,N,1.41,K,D*05
$GPGGA,190028.000,3545.7104,N,07521.2525,W,2,08,0.97,-12.5,M,-36.4,M,0000,0000*4A
$GPVTG,79.48,T,,M,0.57,N,1.06,K,D*0F
$GPGGA,190028.250,3545.7104,N,07521.2525,W,2,08,0.97,-12.4,M,-36.4,M,0000,0000*4C
$GPVTG,101.21,T,,M,0.23,N,0.42,K,D*3C
$GPGGA,190028.500,3545.7103,N,07521.2525,W,2,08,0.97,-12.3,M,-36.4,M,0000,0000*4E
$GPVTG,174.00,T,,M,0.48,N,0.90,K,D*3F
$GPGGA,190028.750,3545.7102,N,07521.2525,W,2,08,0.97,-12.3,M,-36.4,M,0000,0000*48
$GPRMC,190028.750,A,3545.7102,N,07521.2525,W,0.78,175.46,271021,,,D*72
$GPVTG,175.46,T,,M,0.78,N,1.45,K,D*36
$GPGGA,190029.000,3545.7101,N,07521.2525,W,2,08,0.97,-12.3,M,-36.4,M,0000,0000*48
$GPVTG,164.58,T,,M,1.93,N,3.58,K,D*33
$GPGGA,190029.250,3545.7100,N,07521.2524,W,2,08,0.97,-12.2,M,-36.4,M,0000,0000*4E
$GPVTG,152.92,T,,M,1.98,N,3.68,K,D*38
$GPGGA,190029.500,3545.7098,N,07521.2523,W,2,08,0.97,-12.2,M,-36.4,M,0000,0000*4B
$GPVTG,147.84,T,,M,2.26,N,4.18,K,D*3D
$GPGGA,190029.750,3545.7097,N,07521.2522,W,2,08,0.97,-12.2,M,-36.4,M,0000,0000*42
$GPRMC,190029.750,A,3545.7097,N,07521.2522,W,1.86,135.15,271021,,,D*7B
$GPVTG,135.15,T,,M,1.86,N,3.45,K,D*36
$GPGGA,190030.000,3545.7096,N,07521.2521,W,2,08,0.97,-12.1,M,-36.4,M,0000,0000*49
$GPVTG,143.97,T,,M,2.10,N,3.90,K,D*39
$GPGGA,190030.250,3545.7095,N,07521.2521,W,2,08,0.97,-12.1,M,-36.4,M,0000,0000*4D
$GPVTG,144.96,T,,M,2.26,N,4.19,K,D*3C
$GPGGA,190030.500,3545.7093,N,07521.2519,W,2,08,0.97,-12.1,M,-36.4,M,0000,0000*42
$GPVTG,148.08,T,,M,2.45,N,4.54,K,D*3B
$GPGGA,190030.750,3545.7092,N,07521.2518,W,2,08,0.97,-12.1,M,-36.4,M,0000,0000*45
$GPRMC,190030.750,A,3545.7092,N,07521.2518,W,2.24,147.46,271021,,,D*77
$GPVTG,147.46,T,,M,2.24,N,4.15,K,D*3C
$GPGGA,190031.000,3545.7090,N,07521.2518,W,2,08,0.97,-12.2,M,-36.4,M,0000,0000*47
$GPVTG,150.34,T,,M,2.06,N,3.83,K,D*37
$GPGGA,190031.250,3545.7089,N,07521.2517,W,2,08,0.97,-12.2,M,-36.4,M,0000,0000*47
$GPVTG,152.73,T,,M,1.51,N,2.81,K,D*34
$GPGGA,190031.500,3545.7089,N,07521.2517,W,2,08,0.97,-12.3,M,-36.4,M,0000,0000*44
$GPVTG,149.21,T,,M,0.82,N,1.52,K,D*3B
$GPGGA,190031.750,3545.7088,N,07521.2516,W,2,08,0.97,-12.3,M,-36.4,M,0000,0000*43
$GPRMC,190031.750,A,3545.7088,N,07521.2516,W,1.00,135.33,271021,,,D*71
$GPVTG,135.33,T,,M,1.00,N,1.84,K,D*33
$GPGGA,190032.000,3545.7089,N,07521.2513,W,2,08,0.97,-12.2,M,-36.4,M,0000,0000*47
$GPVTG,97.17,T,,M,1.68,N,3.11,K,D*0C
$GPGGA,190032.250,3545.7088,N,07521.2512,W,2,08,0.97,-12.2,M,-36.4,M,0000,0000*40
$GPVTG,109.07,T,,M,1.99,N,3.68,K,D*3B
$GPGGA,190032.500,3545.7087,N,07521.2511,W,2,08,0.97,-12.2,M,-36.4,M,0000,0000*4E
$GPVTG,135.37,T,,M,1.43,N,2.64,K,D*3D
$GPGGA,190032.750,3545.7087,N,07521.2510,W,2,08,0.97,-12.2,M,-36.4,M,0000,0000*48
$GPRMC,190032.750,A,3545.7087,N,07521.2510,W,1.29,161.56,271021,,,D*72
$GPVTG,161.56,T,,M,1.29,N,2.39,K,D*3F
$GPGGA,190033.000,3545.7086,N,07521.2510,W,2,08,0.97,-12.2,M,-36.4,M,0000,0000*4A
$GPVTG,147.60,T,,M,0.65,N,1.20,K,D*3C
$GPGGA,190033.250,3545.7086,N,07521.2509,W,2,08,0.97,-12.2,M,-36.4,M,0000,0000*45
$GPVTG,113.11,T,,M,0.81,N,1.51,K,D*37
$GPGGA,190033.500,3545.7086,N,07521.2508,W,2,08,0.97,-12.2,M,-36.4,M,0000,0000*46
$GPVTG,100.54,T,,M,0.76,N,1.41,K,D*3D
$GPGGA,190033.750,3545.7086,N,07521.2508,W,2,08,0.97,-12.3,M,-36.4,M,0000,0000*40
$GPRMC,190033.750,A,3545.7086,N,07521.2508,W,0.50,80.97,271021,,,D*47
$GPVTG,80.97,T,,M,0.50,N,0.92,K,D*00
$GPGGA,190034.000,3545.7086,N,07521.2509,W,2,08,0.97,-12.3,M,-36.4,M,0000,0000*44
$GPVTG,268.43,T,,M,0.24,N,0.45,K,D*34
$GPGGA,190034.250,3545.7085,N,07521.2510,W,2,08,0.97,-12.2,M,-36.4,M,0000,0000*49
$GPVTG,201.93,T,,M,0.43,N,0.81,K,D*3F
$GPGGA,190034.500,3545.7084,N,07521.2510,W,2,08,0.97,-12.2,M,-36.4,M,0000,0000*4A
$GPVTG,189.27,T,,M,0.60,N,1.12,K,D*39
$GPGGA,190034.750,3545.7084,N,07521.2510,W,2,08,0.97,-12.2,M,-36.4,M,0000,0000*4D
$GPRMC,190034.750,A,3545.7084,N,07521.2510,W,0.75,174.57,271021,,,D*7A
$GPVTG,174.57,T,,M,0.75,N,1.39,K,D*31
$GPGGA,190035.000,3545.7083,N,07521.2509,W,2,08,0.97,-12.2,M,-36.4,M,0000,0000*41
$GPVTG,171.73,T,,M,0.80,N,1.49,K,D*3F
$GPGGA,190035.250,3545.7082,N,07521.2509,W,2,08,0.97,-12.2,M,-36.4,M,0000,0000*47
$GPVTG,169.39,T,,M,0.85,N,1.58,K,D*3D
$GPGGA,190035.500,3545.7082,N,07521.2509,W,2,08,0.97,-12.2,M,-36.4,M,0000,0000*45
$GPVTG,166.95,T,,M,0.91,N,1.69,K,D*33
$GPGGA,190035.750,3545.7081,N,07521.2509,W,2,08,0.97,-12.2,M,-36.4,M,0000,0000*41
$GPRMC,190035.750,A,3545.7081,N,07521.2509,W,0.92,166.11,271021,,,D*7E
$GPVTG,166.11,T,,M,0.92,N,1.70,K,D*34
$GPGGA,190036.000,3545.7080,N,07521.2508,W,2,08,0.97,-12.2,M,-36.4,M,0000,0000*40
$GPVTG,162.43,T,,M,0.98,N,1.82,K,D*30
$GPGGA,190036.250,3545.7080,N,07521.2508,W,2,08,0.97,-12.2,M,-36.4,M,0000,0000*47
$GPVTG,164.97,T,,M,0.94,N,1.74,K,D*3A
$GPGGA,190036.500,3545.7079,N,07521.2508,W,2,08,0.97,-12.2,M,-36.4,M,0000,0000*43
$GPVTG,170.18,T,,M,0.95,N,1.76,K,D*3B
$GPGGA,190036.750,3545.7078,N,07521.2508,W,2,08,0.97,-12.3,M,-36.4,M,0000,0000*44
$GPRMC,190036.750,A,3545.7078,N,07521.2508,W,0.99,175.38,271021,,,D*78
$GPVTG,175.38,T,,M,0.99,N,1.84,K,D*3D
$GPGGA,190037.000,3545.7077,N,07521.2508,W,2,08,0.97,-12.3,M,-36.4,M,0000,0000*48
$GPVTG,175.06,T,,M,1.03,N,1.91,K,D*36
$GPGGA,190037.250,3545.7076,N,07521.2508,W,2,08,0.97,-12.3,M,-36.4,M,0000,0000*4E
$GPVTG,175.06,T,,M,1.08,N,2.01,K,D*37
$GPGGA,190037.500,3545.7075,N,07521.2508,W,2,08,0.97,-12.3,M,-36.4,M,0000,0000*4F
$GPVTG,176.07,T,,M,1.12,N,2.07,K,D*38
$GPGGA,190037.750,3545.7074,N,07521.2508,W,2,08,0.97,-12.3,M,-36.4,M,0000,0000*49
$GPRMC,190037.750,A,3545.7074,N,07521.2508,W,1.11,177.05,271021,,,D*78
$GPVTG,177.05,T,,M,1.11,N,2.06,K,D*39
$GPGGA,190038.000,3545.7073,N,07521.2507,W,2,08,0.97,-12.3,M,-36.4,M,0000,0000*4C
$GPVTG,174.39,T,,M,1.13,N,2.10,K,D*30
$GPGGA,190038.250,3545.7072,N,07521.2506,W,2,08,0.97,-12.3,M,-36.4,M,0000,0000*4B
$GPVTG,167.93,T,,M,1.14,N,2.11,K,D*34
$GPGGA,190038.500,3545.7072,N,07521.2505,W,2,08,0.97,-12.3,M,-36.4,M,0000,0000*4A
$GPVTG,162.22,T,,M,1.15,N,2.12,K,D*39
$GPGGA,190038.750,3545.7071,N,07521.2504,W,2,08,0.97,-12.3,M,-36.4,M,0000,0000*4F
$GPRMC,190038.750,A,3545.7071,N,07521.2504,W,1.21,151.86,271021,,,D*72
$GPVTG,151.86,T,,M,1.21,N,2.24,K,D*35
$GPGGA,190039.000,3545.7070,N,07521.2502,W,2,08,0.97,-12.3,M,-36.4,M,0000,0000*4B
$GPVTG,145.98,T,,M,1.38,N,2.55,K,D*31
$GPGGA,190039.250,3545.7069,N,07521.2500,W,2,08,0.97,-12.3,M,-36.4,M,0000,0000*46
$GPVTG,129.90,T,,M,1.79,N,3.33,K,D*37
$GPGGA,190039.500,3545.7068,N,07521.2499,W,2,08,0.97,-12.3,M,-36.4,M,0000,0000*44
$GPVTG,119.56,T,,M,1.85,N,3.42,K,D*3B
$GPGGA,190039.750,3545.7068,N,07521.2497,W,2,08,0.97,-12.3,M,-36.4,M,0000,0000*4D
$GPRMC,190039.750,A,3545.7068,N,07521.2497,W,1.87,107.07,271021,,,D*76
$GPVTG,107.07,T,,M,1.87,N,3.46,K,D*36
$GPGGA,190040.000,3545.7067,N,07521.2496,W,2,08,0.97,-12.3,M,-36.4,M,0000,0000*4F
$GPVTG,111.39,T,,M,1.54,N,2.85,K,D*3C
$GPGGA,190040.250,3545.7066,N,07521.2495,W,2,08,0.97,-12.3,M,-36.4,M,0000,0000*4A
$GPVTG,144.33,T,,M,1.17,N,2.17,K,D*3A
$GPGGA,190040.500,3545.7065,N,07521.2495,W,2,08,0.97,-12.3,M,-36.4,M,0000,0000*4B
$GPVTG,165.35,T,,M,1.10,N,2.04,K,D*3A
$GPGGA,190040.750,3545.7064,N,07521.2495,W,2,08,0.97,-12.3,M,-36.4,M,0000,0000*4D
$GPRMC,190040.750,A,3545.7064,N,07521.2495,W,1.21,162.23,271021,,,D*7F
$GPVTG,162.23,T,,M,1.21,N,2.24,K,D*3A
$GPGGA,190041.000,3545.7063,N,07521.2494,W,2,08,0.97,-12.3,M,-36.4,M,0000,0000*48
$GPVTG,159.35,T,,M,1.20,N,2.23,K,D*33
$GPGGA,190041.250,3545.7063,N,07521.2494,W,2,08,0.97,-12.3,M,-36.4,M,0000,0000*4F
$GPVTG,153.95,T,,M,1.06,N,1.96,K,D*3A
$GPGGA,190041.500,3545.7062,N,07521.2493,W,2,08,0.97,-12.4,M,-36.4,M,0000,0000*4C
$GPVTG,150.66,T,,M,1.06,N,1.96,K,D*35
$GPGGA,190041.750,3545.7061,N,07521.2493,W,2,08,0.97,-12.4,M,-36.4,M,0000,0000*48
$GPRMC,190041.750,A,3545.7061,N,07521.2493,W,1.05,151.54,271021,,,D*7B
$GPVTG,151.54,T,,M,1.05,N,1.94,K,D*34
$GPGGA,190042.000,3545.7060,N,07521.2493,W,2,08,0.97,-12.4,M,-36.4,M,0000,0000*48
$GPVTG,159.23,T,,M,1.04,N,1.92,K,D*3B
$GPGGA,190042.250,3545.7059,N,07521.2493,W,2,08,0.97,-12.4,M,-36.4,M,0000,0000*45
$GPVTG,166.58,T,,M,1.07,N,1.98,K,D*32
$GPGGA,190042.500,3545.7058,N,07521.2493,W,2,08,0.97,-12.4,M,-36.4,M,0000,0000*46
$GPVTG,164.78,T,,M,1.12,N,2.08,K,D*3C
$GPGGA,190042.750,3545.7057,N,07521.2491,W,2,08,0.97,-12.4,M,-36.4,M,0000,0000*4C
$GPRMC,190042.750,A,3545.7057,N,07521.2491,W,1.23,156.78,271021,,,D*72
$GPVTG,156.78,T,,M,1.23,N,2.28,K,D*3D
$GPGGA,190043.000,3545.7056,N,07521.2490,W,2,08,0.97,-12.4,M,-36.4,M,0000,0000*4F
$GPVTG,153.36,T,,M,1.36,N,2.51,K,D*38
$GPGGA,190043.250,3545.7055,N,07521.2489,W,2,08,0.97,-12.4,M,-36.4,M,0000,0000*43
$GPVTG,149.67,T,,M,1.47,N,2.72,K,D*30
$GPGGA,190043.500,3545.7053,N,07521.2488,W,2,08,0.97,-12.4,M,-36.4,M,0000,0000*46
$GPVTG,144.28,T,,M,1.59,N,2.95,K,D*30
$GPGGA,190043.750,3545.7053,N,07521.2486,W,2,08,0.97,-12.4,M,-36.4,M,0000,0000*4F
$GPRMC,190043.750,A,3545.7053,N,07521.2486,W,1.50,130.38,271021,,,D*71
$GPVTG,130.38,T,,M,1.50,N,2.78,K,D*38
$GPGGA,190044.000,3545.7052,N,07521.2485,W,2,08,0.97,-12.4,M,-36.4,M,0000,0000*48
$GPVTG,115.92,T,,M,1.43,N,2.65,K,D*31
$GPGGA,190044.250,3545.7052,N,07521.2484,W,2,08,0.97,-12.4,M,-36.4,M,0000,0000*4E
$GPVTG,102.92,T,,M,1.14,N,2.10,K,D*37
$GPGGA,190044.500,3545.7052,N,07521.2484,W,2,08,0.97,-12.4,M,-36.4,M,0000,0000*4C
$GPVTG,98.71,T,,M,1.08,N,2.00,K,D*04
$GPGGA,190044.750,3545.7052,N,07521.2484,W,2,08,0.97,-12.4,M,-36.4,M,0000,0000*4B
$GPRMC,190044.750,A,3545.7052,N,07521.2484,W,0.76,106.98,271021,,,D*7F
$GPVTG,106.98,T,,M,0.76,N,1.42,K,D*38
$GPGGA,190045.000,3545.7051,N,07521.2484,W,2,08,0.97,-12.3,M,-36.4,M,0000,0000*4C
$GPVTG,126.78,T,,M,0.76,N,1.40,K,D*36
$GPGGA,190045.250,3545.7050,N,07521.2484,W,2,08,0.97,-12.3,M,-36.4,M,0000,0000*4A
$GPVTG,144.77,T,,M,1.07,N,1.99,K,D*3E
$GPGGA,190045.500,3545.7048,N,07521.2483,W,2,08,0.97,-12.3,M,-36.4,M,0000,0000*46
$GPVTG,151.07,T,,M,1.23,N,2.29,K,D*33
$GPGGA,190045.750,3545.7047,N,07521.2483,W,2,08,0.97,-12.3,M,-36.4,M,0000,0000*4E
$GPRMC,190045.750,A,3545.7047,N,07521.2483,W,1.39,157.95,271021,,,D*7E
$GPVTG,157.95,T,,M,1.39,N,2.57,K,D*3C
$GPGGA,190046.000,3545.7045,N,07521.2482,W,2,08,0.97,-12.3,M,-36.4,M,0000,0000*4C
$GPVTG,157.53,T,,M,1.56,N,2.90,K,D*34
$GPGGA,190046.250,3545.7043,N,07521.2481,W,2,08,0.97,-12.3,M,-36.4,M,0000,0000*4E
$GPVTG,156.30,T,,M,2.47,N,4.57,K,D*3E
$GPGGA,190046.500,3545.7041,N,07521.2480,W,2,08,0.97,-12.3,M,-36.4,M,0000,0000*4F
$GPVTG,156.84,T,,M,2.92,N,5.41,K,D*3F
$GPGGA,190046.750,3545.7039,N,07521.2479,W,2,08,0.97,-12.3,M,-36.4,M,0000,0000*41
$GPRMC,190046.750,A,3545.7039,N,07521.2479,W,2.85,163.33,271021,,,D*7E
$GPVTG,163.33,T,,M,2.85,N,5.29,K,D*3D
$GPGGA,190047.000,3545.7037,N,07521.2478,W,2,08,0.97,-12.3,M,-36.4,M,0000,0000*4D
$GPVTG,167.02,T,,M,2.68,N,4.97,K,D*3C
$GPGGA,190047.250,3545.7035,N,07521.2477,W,2,08,0.97,-12.3,M,-36.4,M,0000,0000*47
$GPVTG,170.08,T,,M,2.36,N,4.37,K,D*31
$GPGGA,190047.500,3545.7034,N,07521.2477,W,2,08,0.97,-12.3,M,-36.4,M,0000,0000*44
$GPVTG,166.41,T,,M,1.65,N,3.06,K,D*3B
$GPGGA,190047.750,3545.7034,N,07521.2477,W,2,08,0.97,-12.4,M,-36.4,M,0000,0000*44
$GPRMC,190047.750,A,3545.7034,N,07521.2477,W,1.24,152.33,271021,,,D*76
$GPVTG,152.33,T,,M,1.24,N,2.29,K,D*30
$GPGGA,190048.000,3545.7034,N,07521.2476,W,2,08,0.97,-12.4,M,-36.4,M,0000,0000*48
$GPVTG,143.58,T,,M,1.18,N,2.18,K,D*30
$GPGGA,190048.250,3545.7034,N,07521.2475,W,2,08,0.97,-12.4,M,-36.4,M,0000,0000*4C
$GPVTG,123.17,T,,M,1.08,N,2.01,K,D*34
$GPGGA,190048.500,3545.7034,N,07521.2474,W,2,08,0.97,-12.4,M,-36.4,M,0000,0000*4F
$GPVTG,111.83,T,,M,1.10,N,2.03,K,D*33
$GPGGA,190048.750,3545.7034,N,07521.2472,W,2,08,0.97,-12.4,M,-36.4,M,0000,0000*4E
$GPRMC,190048.750,A,3545.7034,N,07521.2472,W,1.18,99.94,271021,,,D*48
$GPVTG,99.94,T,,M,1.18,N,2.19,K,D*07
$GPGGA,190049.000,3545.7034,N,07521.2471,W,2,08,0.97,-12.4,M,-36.4,M,0000,0000*4E
$GPVTG,99.73,T,,M,1.19,N,2.21,K,D*04
$GPGGA,190049.250,3545.7035,N,07521.2470,W,2,08,0.97,-12.4,M,-36.4,M,0000,0000*49
$GPVTG,94.94,T,,M,1.14,N,2.11,K,D*0E
$GPGGA,190049.500,3545.7034,N,07521.2470,W,2,08,0.97,-12.5,M,-36.4,M,0000,0000*4B
$GPVTG,101.79,T,,M,0.95,N,1.76,K,D*3A
$GPGGA,190049.750,3545.7034,N,07521.2471,W,2,08,0.97,-12.5,M,-36.4,M,0000,0000*4D
$GPRMC,190049.750,A,3545.7034,N,07521.2471,W,0.43,118.91,271021,,,D*78
$GPVTG,118.91,T,,M,0.43,N,0.80,K,D*37
$GPGGA,190050.000,3545.7035,N,07521.2471,W,2,08,0.97,-12.4,M,-36.4,M,0000,0000*47
$GPVTG,64.24,T,,M,0.26,N,0.47,K,D*0B
$GPGGA,190050.250,3545.7035,N,07521.2471,W,2,08,0.97,-12.4,M,-36.4,M,0000,0000*40
$GPVTG,60.15,T,,M,0.25,N,0.47,K,D*0E
$GPGGA,190050.500,3545.7036,N,07521.2470,W,2,08,0.97,-12.4,M,-36.4,M,0000,0000*40
$GPVTG,52.17,T,,M,0.49,N,0.91,K,D*0C
$GPGGA,190050.750,3545.7036,N,07521.2469,W,2,08,0.97,-12.3,M,-36.4,M,0000,0000*48
$GPRMC,190050.750,A,3545.7036,N,07521.2469,W,0.51,57.73,271021,,,D*4E
$GPVTG,57.73,T,,M,0.51,N,0.94,K,D*07
$GPGGA,190051.000,3545.7035,N,07521.2469,W,2,08,0.97,-12.1,M,-36.4,M,0000,0000*4A
$GPVTG,91.26,T,,M,0.34,N,0.63,K,D*06
$GPGGA,190051.250,3545.7034,N,07521.2468,W,2,08,0.97,-12.1,M,-36.4,M,0000,0000*4D
$GPVTG,145.35,T,,M,0.39,N,0.73,K,D*30
$GPGGA,190051.500,3545.7033,N,07521.2468,W,2,08,0.97,-12.1,M,-36.4,M,0000,0000*48
$GPVTG,177.36,T,,M,0.83,N,1.54,K,D*37
$GPGGA,190051.750,3545.7032,N,07521.2468,W,2,08,0.97,-12.1,M,-36.4,M,0000,0000*4E
$GPRMC,190051.750,A,3545.7032,N,07521.2468,W,2.31,189.89,271021,,,D*79
$GPVTG,189.89,T,,M,2.31,N,4.28,K,D*37
$GPGGA,190052.000,3545.7029,N,07521.2468,W,2,08,0.97,-12.1,M,-36.4,M,0000,0000*45
$GPVTG,184.96,T,,M,3.63,N,6.72,K,D*3F
$GPGGA,190052.250,3545.7027,N,07521.2468,W,2,08,0.97,-12.1,M,-36.4,M,0000,0000*4C
$GPVTG,182.92,T,,M,3.76,N,6.96,K,D*33
$GPGGA,190052.500,3545.7024,N,07521.2468,W,2,08,0.97,-12.0,M,-36.4,M,0000,0000*4C
$GPVTG,180.18,T,,M,3.91,N,7.25,K,D*33
$GPGGA,190052.750,3545.7022,N,07521.2468,W,2,08,1.00,-12.0,M,-36.4,M,0000,0000*42
$GPRMC,190052.750,A,3545.7022,N,07521.2468,W,3.43,178.33,271021,,,D*70
$GPVTG,178.33,T,,M,3.43,N,6.35,K,D*32
$GPGGA,190053.000,3545.7019,N,07521.2467,W,2,08,0.97,-12.0,M,-36.4,M,0000,0000*49
$GPVTG,173.45,T,,M,3.42,N,6.33,K,D*3F
$GPGGA,190053.250,3545.7018,N,07521.2465,W,2,08,0.97,-12.1,M,-36.4,M,0000,0000*4C
$GPVTG,162.15,T,,M,2.94,N,5.45,K,D*32
$GPGGA,190053.500,3545.7017,N,07521.2464,W,2,08,0.97,-12.1,M,-36.4,M,0000,0000*40
$GPVTG,163.13,T,,M,2.36,N,4.37,K,D*39
$GPGGA,190053.750,3545.7015,N,07521.2464,W,2,08,0.97,-12.1,M,-36.4,M,0000,0000*45
$GPRMC,190053.750,A,3545.7015,N,07521.2464,W,2.19,163.11,271021,,,D*7D
$GPVTG,163.11,T,,M,2.19,N,4.05,K,D*37
$GPGGA,190054.000,3545.7014,N,07521.2463,W,2,08,0.97,-12.1,M,-36.4,M,0000,0000*46
$GPVTG,155.47,T,,M,1.75,N,3.25,K,D*3D
$GPGGA,190054.250,3545.7014,N,07521.2462,W,2,08,0.97,-12.1,M,-36.4,M,0000,0000*40
$GPVTG,127.08,T,,M,1.14,N,2.11,K,D*32
$GPGGA,190054.500,3545.7015,N,07521.2461,W,2,08,0.97,-12.1,M,-36.4,M,0000,0000*40
$GPVTG,106.82,T,,M,1.22,N,2.26,K,D*32
$GPGGA,190054.750,3545.7015,N,07521.2459,W,2,08,0.97,-12.1,M,-36.4,M,0000,0000*4C
$GPRMC,190054.750,A,3545.7015,N,07521.2459,W,1.41,100.43,271021,,,D*78
$GPVTG,100.43,T,,M,1.41,N,2.62,K,D*3C
$GPGGA,190055.000,3545.7014,N,07521.2457,W,2,08,0.97,-12.1,M,-36.4,M,0000,0000*40
$GPVTG,104.61,T,,M,1.44,N,2.66,K,D*39
$GPGGA,190055.250,3545.7014,N,07521.2456,W,2,08,0.97,-12.1,M,-36.4,M,0000,0000*46
$GPVTG,110.79,T,,M,1.36,N,2.53,K,D*36
$GPGGA,190055.500,3545.7013,N,07521.2455,W,2,08,0.97,-12.1,M,-36.4,M,0000,0000*40
$GPVTG,114.99,T,,M,1.29,N,2.39,K,D*3E
$GPGGA,190055.750,3545.7013,N,07521.2455,W,2,08,0.97,-12.1,M,-36.4,M,0000,0000*47
$GPRMC,190055.750,A,3545.7013,N,07521.2455,W,1.03,121.63,271021,,,D*74
$GPVTG,121.63,T,,M,1.03,N,1.91,K,D*34
$GPGGA,190056.000,3545.7013,N,07521.2455,W,2,08,0.97,-12.1,M,-36.4,M,0000,0000*46
$GPVTG,120.32,T,,M,0.95,N,1.77,K,D*37
$GPGGA,190056.250,3545.7012,N,07521.2454,W,2,08,0.97,-12.1,M,-36.4,M,0000,0000*41
$GPVTG,116.62,T,,M,1.00,N,1.85,K,D*37
$GPGGA,190056.500,3545.7012,N,07521.2453,W,2,08,0.97,-12.1,M,-36.4,M,0000,0000*44
$GPVTG,113.81,T,,M,1.04,N,1.93,K,D*3C
$GPGGA,190056.750,3545.7012,N,07521.2451,W,2,08,0.97,-12.1,M,-36.4,M,0000,0000*41
$GPRMC,190056.750,A,3545.7012,N,07521.2451,W,1.05,114.61,271021,,,D*70
$GPVTG,114.61,T,,M,1.05,N,1.94,K,D*33
$GPGGA,190057.000,3545.7011,N,07521.2451,W,2,08,0.97,-12.1,M,-36.4,M,0000,0000*41
$GPVTG,116.77,T,,M,1.03,N,1.90,K,D*34
$GPGGA,190057.250,3545.7011,N,07521.2450,W,2,08,0.97,-12.1,M,-36.4,M,0000,0000*47
$GPVTG,122.81,T,,M,0.97,N,1.79,K,D*31
$GPGGA,190057.500,3545.7010,N,07521.2449,W,2,08,0.97,-12.1,M,-36.4,M,0000,0000*4C
$GPVTG,126.67,T,,M,1.03,N,1.91,K,D*37
$GPGGA,190057.750,3545.7009,N,07521.2448,W,2,08,0.97,-12.1,M,-36.4,M,0000,0000*42
$GPRMC,190057.750,A,3545.7009,N,07521.2448,W,1.17,132.24,271021,,,D*75
$GPVTG,132.24,T,,M,1.17,N,2.16,K,D*3C
$GPGGA,190058.000,3545.7007,N,07521.2447,W,2,08,0.97,-12.1,M,-36.4,M,0000,0000*4E
$GPVTG,134.44,T,,M,1.35,N,2.50,K,D*3E
$GPGGA,190058.250,3545.7006,N,07521.2446,W,2,08,0.97,-12.1,M,-36.4,M,0000,0000*49
$GPVTG,140.27,T,,M,1.58,N,2.93,K,D*3C
$GPGGA,190058.500,3545.7005,N,07521.2446,W,2,08,0.97,-12.1,M,-36.4,M,0000,0000*48
$GPVTG,150.47,T,,M,1.58,N,2.93,K,D*3B
$GPGGA,190058.750,3545.7004,N,07521.2445,W,2,08,0.97,-12.1,M,-36.4,M,0000,0000*4D
$GPRMC,190058.750,A,3545.7004,N,07521.2445,W,1.62,155.31,271021,,,D*7D
$GPVTG,155.31,T,,M,1.62,N,3.01,K,D*3C
$GPGGA,190059.000,3545.7003,N,07521.2445,W,2,08,0.97,-12.1,M,-36.4,M,0000,0000*49
$GPVTG,153.87,T,,M,1.41,N,2.61,K,D*31
$GPGGA,190059.250,3545.7001,N,07521.2444,W,2,08,0.97,-12.1,M,-36.4,M,0000,0000*4D
$GPVTG,160.85,T,,M,1.64,N,3.05,K,D*37
$GPGGA,190059.500,3545.7000,N,07521.2444,W,2,08,0.97,-12.1,M,-36.4,M,0000,0000*4E
$GPVTG,163.51,T,,M,1.81,N,3.36,K,D*36
$GPGGA,190059.750,3545.6998,N,07521.2444,W,2,08,0.97,-12.1,M,-36.4,M,0000,0000*40
$GPRMC,190059.750,A,3545.6998,N,07521.2444,W,2.03,169.74,271021,,,D*7A
$GPVTG,169.74,T,,M,2.03,N,3.76,K,D*36
$GPGGA,190100.000,3545.6997,N,07521.2444,W,2,08,0.97,-12.1,M,-36.4,M,0000,0000*40
$GPVTG,171.76,T,,M,1.86,N,3.45,K,D*33
$GPGGA,190100.250,3545.6996,N,07521.2444,W,2,08,0.97,-12.1,M,-36.4,M,0000,0000*46
$GPVTG,179.52,T,,M,0.96,N,1.77,K,D*3E
$GPGGA,190100.500,3545.6996,N,07521.2443,W,2,08,0.97,-12.1,M,-36.4,M,0000,0000*43
$GPVTG,162.78,T,,M,0.52,N,0.96,K,D*3A
$GPGGA,190100.750,3545.6997,N,07521.2443,W,2,08,0.97,-12.1,M,-36.4,M,0000,0000*45
$GPRMC,190100.750,A,3545.6997,N,07521.2443,W,0.43,79.00,271021,,,D*4A
$GPVTG,79.00,T,,M,0.43,N,0.79,K,D*0F
$GPGGA,190101.000,3545.6998,N,07521.2441,W,2,08,0.97,-12.1,M,-36.4,M,0000,0000*4B
$GPVTG,61.21,T,,M,0.83,N,1.53,K,D*00
$GPGGA,190101.250,3545.6998,N,07521.2441,W,2,08,0.97,-12.1,M,-36.4,M,0000,0000*4C
$GPVTG,48.30,T,,M,0.98,N,1.81,K,D*0E
$GPGGA,190101.500,3545.6999,N,07521.2440,W,2,08,0.97,-12.0,M,-36.4,M,0000,0000*4F
$GPVTG,73.59,T,,M,1.09,N,2.03,K,D*09
$GPGGA,190101.750,3545.6999,N,07521.2439,W,2,08,0.97,-11.9,M,-36.4,M,0000,0000*4C
$GPRMC,190101.750,A,3545.6999,N,07521.2439,W,0.98,75.31,271021,,,D*40
$GPVTG,75.31,T,,M,0.98,N,1.82,K,D*02
$GPGGA,190102.000,3545.6998,N,07521.2439,W,2,08,0.97,-11.8,M,-36.4,M,0000,0000*4D
$GPVTG,155.68,T,,M,1.34,N,2.49,K,D*3E
$GPGGA,190102.250,3545.6996,N,07521.2438,W,2,08,0.97,-11.7,M,-36.4,M,0000,0000*4A
$GPVTG,172.55,T,,M,2.52,N,4.68,K,D*33
$GPGGA,190102.500,3545.6994,N,07521.2437,W,2,08,0.97,-11.7,M,-36.4,M,0000,0000*45
$GPVTG,174.55,T,,M,3.78,N,7.01,K,D*30
$GPGGA,190102.750,3545.6991,N,07521.2437,W,2,08,0.97,-11.7,M,-36.4,M,0000,0000*47
$GPRMC,190102.750,A,3545.6991,N,07521.2437,W,4.03,175.06,271021,,,D*76
$GPVTG,175.06,T,,M,4.03,N,7.47,K,D*3E
$GPGGA,190103.000,3545.6988,N,07521.2436,W,2,08,1.00,-11.7,M,-36.4,M,0000,0000*42
$GPVTG,175.06,T,,M,3.84,N,7.12,K,D*36
$GPGGA,190103.250,3545.6985,N,07521.2436,W,2,08,0.97,-11.7,M,-36.4,M,0000,0000*47
$GPVTG,168.93,T,,M,3.59,N,6.65,K,D*37
$GPGGA,190103.500,3545.6983,N,07521.2435,W,2,08,0.97,-11.7,M,-36.4,M,0000,0000*40
$GPVTG,164.24,T,,M,3.39,N,6.28,K,D*38
$GPGGA,190103.750,3545.6981,N,07521.2434,W,2,08,0.97,-11.7,M,-36.4,M,0000,0000*44
$GPRMC,190103.750,A,3545.6981,N,07521.2434,W,2.89,163.11,271021,,,D*70
$GPVTG,163.11,T,,M,2.89,N,5.36,K,D*3F
$GPGGA,190104.000,3545.6980,N,07521.2433,W,2,08,0.97,-11.7,M,-36.4,M,0000,0000*47
$GPVTG,162.26,T,,M,2.32,N,4.30,K,D*3D
$GPGGA,190104.250,3545.6979,N,07521.2433,W,2,08,0.97,-11.7,M,-36.4,M,0000,0000*46
$GPVTG,159.03,T,,M,1.71,N,3.17,K,D*34
$GPGGA,190104.500,3545.6978,N,07521.2432,W,2,08,0.97,-11.7,M,-36.4,M,0000,0000*44
$GPVTG,152.37,T,,M,1.35,N,2.51,K,D*3B
$GPGGA,190104.750,3545.6979,N,07521.2432,W,2,08,0.97,-11.7,M,-36.4,M,0000,0000*42
$GPRMC,190104.750,A,3545.6979,N,07521.2432,W,1.02,121.94,271021,,,D*7D
$GPVTG,121.94,T,,M,1.02,N,1.89,K,D*34
$GPGGA,190105.000,3545.6980,N,07521.2431,W,2,08,0.97,-11.7,M,-36.4,M,0000,0000*44
$GPVTG,99.86,T,,M,0.97,N,1.79,K,D*07
$GPGGA,190105.250,3545.6981,N,07521.2431,W,2,08,0.97,-11.7,M,-36.4,M,0000,0000*42
$GPVTG,77.16,T,,M,0.80,N,1.49,K,D*0B
$GPGGA,190105.500,3545.6981,N,07521.2430,W,2,08,0.97,-11.7,M,-36.4,M,0000,0000*41
$GPVTG,76.16,T,,M,0.72,N,1.33,K,D*0A
$GPGGA,190105.750,3545.6980,N,07521.2430,W,2,08,0.97,-11.7,M,-36.4,M,0000,0000*47
$GPRMC,190105.750,A,3545.6980,N,07521.2430,W,0.58,96.56,271021,,,D*45
$GPVTG,96.56,T,,M,0.58,N,1.07,K,D*0F
$GPGGA,190106.000,3545.6979,N,07521.2430,W,2,08,0.97,-11.7,M,-36.4,M,0000,0000*40
$GPVTG,113.52,T,,M,0.63,N,1.17,K,D*3E
$GPGGA,190106.250,3545.6978,N,07521.2429,W,2,08,0.97,-11.6,M,-36.4,M,0000,0000*4F
$GPVTG,120.43,T,,M,0.71,N,1.31,K,D*39
$GPGGA,190106.500,3545.6978,N,07521.2429,W,2,08,0.97,-11.6,M,-36.4,M,0000,0000*4D
$GPVTG,123.04,T,,M,0.78,N,1.44,K,D*32
$GPGGA,190106.750,3545.6977,N,07521.2427,W,2,08,0.97,-11.6,M,-36.4,M,0000,0000*4B
$GPRMC,190106.750,A,3545.6977,N,07521.2427,W,0.94,124.30,271021,,,D*70
$GPVTG,124.30,T,,M,0.94,N,1.74,K,D*33
$GPGGA,190107.000,3545.6976,N,07521.2426,W,2,08,0.97,-11.6,M,-36.4,M,0000,0000*48
$GPVTG,125.99,T,,M,0.99,N,1.84,K,D*33
$GPGGA,190107.250,3545.6975,N,07521.2426,W,2,08,0.97,-11.6,M,-36.4,M,0000,0000*4C
$GPVTG,127.09,T,,M,0.95,N,1.77,K,D*38
$GPGGA,190107.500,3545.6974,N,07521.2426,W,2,08,0.97,-11.6,M,-36.4,M,0000,0000*4F
$GPVTG,131.64,T,,M,1.00,N,1.86,K,D*37
$GPGGA,190107.750,3545.6973,N,07521.2425,W,2,08,0.97,-11.6,M,-36.4,M,0000,0000*4C
$GPRMC,190107.750,A,3545.6973,N,07521.2425,W,1.10,138.88,271021,,,D*74
$GPVTG,138.88,T,,M,1.10,N,2.04,K,D*34
$GPGGA,190108.000,3545.6971,N,07521.2424,W,2,08,0.97,-11.6,M,-36.4,M,0000,0000*42
$GPVTG,143.05,T,,M,1.16,N,2.15,K,D*3B
$GPGGA,190108.250,3545.6970,N,07521.2423,W,2,08,0.97,-11.6,M,-36.4,M,0000,0000*43
$GPVTG,144.85,T,,M,1.31,N,2.43,K,D*32
$GPGGA,190108.500,3545.6969,N,07521.2423,W,2,08,0.97,-11.6,M,-36.4,M,0000,0000*49
$GPVTG,147.41,T,,M,1.33,N,2.47,K,D*3F
$GPGGA,190108.750,3545.6966,N,07521.2423,W,2,08,0.97,-11.5,M,-36.4,M,0000,0000*42
$GPRMC,190108.750,A,3545.6966,N,07521.2423,W,1.53,155.32,271021,,,D*74
$GPVTG,155.32,T,,M,1.53,N,2.83,K,D*36
$GPGGA,190109.000,3545.6964,N,07521.2422,W,2,08,0.97,-11.5,M,-36.4,M,0000,0000*42
$GPVTG,160.16,T,,M,1.93,N,3.58,K,D*3D
$GPGGA,190109.250,3545.6963,N,07521.2421,W,2,08,0.97,-11.5,M,-36.4,M,0000,0000*41
$GPVTG,160.99,T,,M,1.89,N,3.50,K,D*39
$GPGGA,190109.500,3545.6961,N,07521.2420,W,2,08,0.97,-11.5,M,-36.4,M,0000,0000*40
$GPVTG,157.50,T,,M,1.95,N,3.61,K,D*37
$GPGGA,190109.750,3545.6961,N,07521.2420,W,2,08,0.97,-11.5,M,-36.4,M,0000,0000*47
$GPRMC,190109.750,A,3545.6961,N,07521.2420,W,1.03,144.29,271021,,,D*7E
$GPVTG,144.29,T,,M,1.03,N,1.91,K,D*39
$GPGGA,190110.000,3545.6961,N,07521.2419,W,2,08,0.97,-11.5,M,-36.4,M,0000,0000*47
$GPVTG,137.86,T,,M,0.63,N,1.16,K,D*30
$GPGGA,190110.250,3545.6961,N,07521.2420,W,2,08,0.97,-11.6,M,-36.4,M,0000,0000*49
$GPVTG,108.60,T,,M,0.36,N,0.66,K,D*32
$GPGGA,190110.500,3545.6962,N,07521.2420,W,2,08,0.97,-11.6,M,-36.4,M,0000,0000*48
$GPVTG,55.05,T,,M,0.38,N,0.70,K,D*01
$GPGGA,190110.750,3545.6963,N,07521.2419,W,2,08,0.97,-11.6,M,-36.4,M,0000,0000*44
$GPRMC,190110.750,A,3545.6963,N,07521.2419,W,0.75,43.19,271021,,,D*4B
$GPVTG,43.19,T,,M,0.75,N,1.38,K,D*0F
$GPGGA,190111.000,3545.6964,N,07521.2418,W,2,08,0.97,-11.6,M,-36.4,M,0000,0000*41
$GPVTG,50.94,T,,M,0.84,N,1.55,K,D*0D
$GPGGA,190111.250,3545.6963,N,07521.2416,W,2,08,0.97,-11.6,M,-36.4,M,0000,0000*4F
$GPVTG,73.61,T,,M,0.90,N,1.67,K,D*02
$GPGGA,190111.500,3545.6962,N,07521.2415,W,2,08,0.97,-11.5,M,-36.4,M,0000,0000*4C
$GPVTG,87.07,T,,M,1.03,N,1.90,K,D*0A
$GPGGA,190111.750,3545.6960,N,07521.2413,W,2,08,0.97,-11.5,M,-36.4,M,0000,0000*4F
$GPRMC,190111.750,A,3545.6960,N,07521.2413,W,1.12,99.27,271021,,,D*49
$GPVTG,99.27,T,,M,1.12,N,2.08,K,D*05
$GPGGA,190112.000,3545.6960,N,07521.2412,W,2,08,0.97,-11.5,M,-36.4,M,0000,0000*4F
$GPVTG,104.40,T,,M,1.14,N,2.10,K,D*3E
$GPGGA,190112.250,3545.6958,N,07521.2411,W,2,08,0.97,-11.5,M,-36.4,M,0000,0000*40
$GPVTG,118.01,T,,M,1.29,N,2.39,K,D*33
$GPGGA,190112.500,3545.6956,N,07521.2410,W,2,08,0.97,-11.5,M,-36.4,M,0000,0000*4D
$GPVTG,126.89,T,,M,1.39,N,2.58,K,D*38
$GPGGA,190112.750,3545.6954,N,07521.2409,W,2,08,0.97,-11.5,M,-36.4,M,0000,0000*40
$GPRMC,190112.750,A,3545.6954,N,07521.2409,W,1.52,133.88,271021,,,D*76
$GPVTG,133.88,T,,M,1.52,N,2.81,K,D*34
$GPGGA,190113.000,3545.6953,N,07521.2409,W,2,08,0.97,-11.5,M,-36.4,M,0000,0000*44
$GPVTG,148.59,T,,M,1.42,N,2.62,K,D*38
$GPGGA,190113.250,3545.6952,N,07521.2408,W,2,08,0.97,-11.5,M,-36.4,M,0000,0000*43
$GPVTG,141.76,T,,M,1.46,N,2.70,K,D*3B
$GPGGA,190113.500,3545.6951,N,07521.2407,W,2,08,0.97,-11.5,M,-36.4,M,0000,0000*4D
$GPVTG,144.82,T,,M,1.37,N,2.53,K,D*32
$GPGGA,190113.750,3545.6951,N,07521.2407,W,2,08,0.97,-11.5,M,-36.4,M,0000,0000*4A
$GPRMC,190113.750,A,3545.6951,N,07521.2407,W,1.11,143.39,271021,,,D*76
$GPVTG,143.39,T,,M,1.11,N,2.06,K,D*31
$GPGGA,190114.000,3545.6951,N,07521.2406,W,2,08,0.97,-11.5,M,-36.4,M,0000,0000*4E
$GPVTG,139.38,T,,M,0.97,N,1.80,K,D*3F
$GPGGA,190114.250,3545.6950,N,07521.2406,W,2,08,0.97,-11.5,M,-36.4,M,0000,0000*48
$GPVTG,137.60,T,,M,0.89,N,1.64,K,D*39
$GPGGA,190114.500,3545.6950,N,07521.2405,W,2,08,0.97,-11.5,M,-36.4,M,0000,0000*49
$GPVTG,141.04,T,,M,0.88,N,1.63,K,D*3C
$GPGGA,190114.750,3545.6949,N,07521.2405,W,2,08,0.97,-11.5,M,-36.4,M,0000,0000*46
$GPRMC,190114.750,A,3545.6949,N,07521.2405,W,0.96,145.93,271021,,,D*72
$GPVTG,145.93,T,,M,0.96,N,1.78,K,D*33
$GPGGA,190115.000,3545.6948,N,07521.2405,W,2,08,0.97,-11.5,M,-36.4,M,0000,0000*44
$GPVTG,152.62,T,,M,1.01,N,1.88,K,D*3B
$GPGGA,190115.250,3545.6945,N,07521.2404,W,2,08,0.97,-11.5,M,-36.4,M,0000,0000*4F
$GPVTG,154.42,T,,M,1.54,N,2.86,K,D*32
$GPGGA,190115.500,3545.6943,N,07521.2403,W,2,08,0.97,-11.5,M,-36.4,M,0000,0000*4C
$GPVTG,154.92,T,,M,1.85,N,3.44,K,D*3C
$GPGGA,190115.750,3545.6942,N,07521.2402,W,2,08,0.97,-11.5,M,-36.4,M,0000,0000*4B
$GPRMC,190115.750,A,3545.6942,N,07521.2402,W,1.93,157.85,271021,,,D*7F
$GPVTG,157.85,T,,M,1.93,N,3.57,K,D*3C
$GPGGA,190116.000,3545.6939,N,07521.2401,W,2,08,0.97,-11.5,M,-36.4,M,0000,0000*45
$GPVTG,158.15,T,,M,2.43,N,4.51,K,D*35
$GPGGA,190116.250,3545.6937,N,07521.2400,W,2,08,0.97,-11.5,M,-36.4,M,0000,0000*4D
$GPVTG,177.11,T,,M,1.93,N,3.58,K,D*3C
$GPGGA,190116.500,3545.6935,N,07521.2400,W,2,08,0.97,-11.5,M,-36.4,M,0000,0000*4D
$GPVTG,182.84,T,,M,1.81,N,3.36,K,D*31
$GPGGA,190116.750,3545.6934,N,07521.2400,W,2,08,0.97,-11.5,M,-36.4,M,0000,0000*4B
$GPRMC,190116.750,A,3545.6934,N,07521.2400,W,1.46,191.13,271021,,,D*72
$GPVTG,191.13,T,,M,1.46,N,2.71,K,D*34
$GPGGA,190117.000,3545.6934,N,07521.2400,W,2,08,0.97,-11.6,M,-36.4,M,0000,0000*4B
$GPVTG,190.61,T,,M,1.02,N,1.88,K,D*35
$GPGGA,190117.250,3545.6934,N,07521.2400,W,2,08,0.97,-11.6,M,-36.4,M,0000,0000*4C
$GPVTG,157.85,T,,M,0.64,N,1.18,K,D*3C
$GPGGA,190117.500,3545.6933,N,07521.2399,W,2,08,0.97,-11.6,M,-36.4,M,0000,0000*4E
$GPVTG,146.76,T,,M,0.65,N,1.21,K,D*3B
$GPGGA,190117.750,3545.6934,N,07521.2399,W,2,08,0.97,-11.6,M,-36.4,M,0000,0000*4E
$GPRMC,190117.750,A,3545.6934,N,07521.2399,W,0.67,125.46,271021,,,D*79
$GPVTG,125.46,T,,M,0.67,N,1.25,K,D*3B
$GPGGA,190118.000,3545.6934,N,07521.2398,W,2,08,0.97,-11.6,M,-36.4,M,0000,0000*42
$GPVTG,116.30,T,,M,0.67,N,1.24,K,D*3B
$GPGGA,190118.250,3545.6934,N,07521.2398,W,2,08,0.97,-11.7,M,-36.4,M,0000,0000*44
$GPVTG,110.33,T,,M,0.54,N,1.01,K,D*39
$GPGGA,190118.500,3545.6934,N,07521.2398,W,2,08,0.97,-11.7,M,-36.4,M,0000,0000*46
$GPVTG,114.11,T,,M,0.56,N,1.04,K,D*3A
$GPGGA,190118.750,3545.6933,N,07521.2397,W,2,08,0.97,-11.6,M,-36.4,M,0000,0000*48
$GPRMC,190118.750,A,3545.6933,N,07521.2397,W,0.69,118.78,271021,,,D*72
$GPVTG,118.78,T,,M,0.69,N,1.27,K,D*34
$GPGGA,190119.000,3545.6933,N,07521.2396,W,2,08,0.97,-11.7,M,-36.4,M,0000,0000*4B
$GPVTG,112.80,T,,M,0.80,N,1.47,K,D*38
$GPGGA,190119.250,3545.6933,N,07521.2395,W,2,08,0.97,-11.7,M,-36.4,M,0000,0000*4F
$GPVTG,111.95,T,,M,0.94,N,1.74,K,D*3A
$GPGGA,190119.500,3545.6932,N,07521.2394,W,2,08,0.97,-11.7,M,-36.4,M,0000,0000*4D
$GPVTG,113.71,T,,M,1.05,N,1.94,K,D*35
$GPGGA,190119.750,3545.6931,N,07521.2393,W,2,08,0.97,-11.7,M,-36.4,M,0000,0000*4E
$GPRMC,190119.750,A,3545.6931,N,07521.2393,W,1.18,113.18,271021,,,D*7F
$GPVTG,113.18,T,,M,1.18,N,2.19,K,D*30
$GPGGA,190120.000,3545.6931,N,07521.2392,W,2,08,0.97,-11.7,M,-36.4,M,0000,0000*47
$GPVTG,113.39,T,,M,1.24,N,2.29,K,D*3F
$GPGGA,190120.250,3545.6930,N,07521.2391,W,2,08,0.97,-11.7,M,-36.4,M,0000,0000*42
$GPVTG,114.11,T,,M,1.27,N,2.36,K,D*3F
$GPGGA,190120.500,3545.6930,N,07521.2390,W,2,08,0.97,-11.7,M,-36.4,M,0000,0000*41
$GPVTG,113.02,T,,M,1.31,N,2.42,K,D*3E
$GPGGA,190120.750,3545.6929,N,07521.2389,W,2,08,0.97,-11.7,M,-36.4,M,0000,0000*46
$GPRMC,190120.750,A,3545.6929,N,07521.2389,W,1.34,115.64,271021,,,D*74
$GPVTG,115.64,T,,M,1.34,N,2.48,K,D*37
$GPGGA,190121.000,3545.6928,N,07521.2388,W,2,08,0.97,-11.7,M,-36.4,M,0000,0000*45
$GPVTG,118.10,T,,M,1.39,N,2.57,K,D*3A
$GPGGA,190121.250,3545.6927,N,07521.2387,W,2,08,0.97,-11.7,M,-36.4,M,0000,0000*42
$GPVTG,124.41,T,,M,1.38,N,2.55,K,D*32
$GPGGA,190121.500,3545.6925,N,07521.2387,W,2,08,0.97,-11.7,M,-36.4,M,0000,0000*42
$GPVTG,130.68,T,,M,1.35,N,2.51,K,D*35
$GPGGA,190121.750,3545.6925,N,07521.2387,W,2,08,0.97,-11.7,M,-36.4,M,0000,0000*45
$GPRMC,190121.750,A,3545.6925,N,07521.2387,W,1.26,131.39,271021,,,D*7A
$GPVTG,131.39,T,,M,1.26,N,2.33,K,D*36
$GPGGA,190122.000,3545.6924,N,07521.2386,W,2,08,0.97,-11.7,M,-36.4,M,0000,0000*44
$GPVTG,131.14,T,,M,1.21,N,2.25,K,D*39
$GPGGA,190122.250,3545.6923,N,07521.2386,W,2,08,0.97,-11.7,M,-36.4,M,0000,0000*44
$GPVTG,134.17,T,,M,1.20,N,2.23,K,D*38
$GPGGA,190122.500,3545.6923,N,07521.2386,W,2,08,0.97,-11.7,M,-36.4,M,0000,0000*46
$GPVTG,137.02,T,,M,1.16,N,2.15,K,D*3F
$GPGGA,190122.750,3545.6922,N,07521.2386,W,2,08,0.97,-11.7,M,-36.4,M,0000,0000*40
$GPRMC,190122.750,A,3545.6922,N,07521.2386,W,1.11,144.35,271021,,,D*75
$GPVTG,144.35,T,,M,1.11,N,2.05,K,D*39
$GPGGA,190123.000,3545.6921,N,07521.2386,W,2,08,0.97,-11.7,M,-36.4,M,0000,0000*40
$GPVTG,150.07,T,,M,1.09,N,2.03,K,D*32
$GPGGA,190123.250,3545.6919,N,07521.2386,W,2,08,0.97,-11.7,M,-36.4,M,0000,0000*4C
$GPVTG,153.72,T,,M,1.13,N,2.09,K,D*32
$GPGGA,190123.500,3545.6919,N,07521.2386,W,2,08,0.97,-11.7,M,-36.4,M,0000,0000*4E
$GPVTG,152.10,T,,M,1.12,N,2.07,K,D*38
$GPGGA,190123.750,3545.6918,N,07521.2385,W,2,08,0.97,-11.7,M,-36.4,M,0000,0000*4B
$GPRMC,190123.750,A,3545.6918,N,07521.2385,W,1.16,145.67,271021,,,D*7F
$GPVTG,145.67,T,,M,1.16,N,2.15,K,D*39
$GPGGA,190124.000,3545.6918,N,07521.2380,W,2,08,0.97,-11.7,M,-36.4,M,0000,0000*4B
$GPVTG,117.19,T,,M,1.80,N,3.34,K,D*3A
$GPGGA,190124.250,3545.6917,N,07521.2378,W,2,08,0.97,-11.8,M,-36.4,M,0000,0000*4B
$GPVTG,122.04,T,,M,1.85,N,3.42,K,D*34
$GPGGA,190124.500,3545.6916,N,07521.2377,W,2,08,0.97,-11.9,M,-36.4,M,0000,0000*46
$GPVTG,130.50,T,,M,1.47,N,2.72,K,D*3A
$GPGGA,190124.750,3545.6916,N,07521.2377,W,2,08,0.97,-12.0,M,-36.4,M,0000,0000*4B
$GPRMC,190124.750,A,3545.6916,N,07521.2377,W,1.00,148.13,271021,,,D*72
$GPVTG,148.13,T,,M,1.00,N,1.85,K,D*3A
$GPGGA,190125.000,3545.6916,N,07521.2377,W,2,08,0.97,-12.0,M,-36.4,M,0000,0000*48
$GPVTG,164.14,T,,M,0.54,N,0.99,K,D*3F
$GPGGA,190125.250,3545.6915,N,07521.2378,W,2,08,0.97,-12.0,M,-36.4,M,0000,0000*43
$GPVTG,188.77,T,,M,0.41,N,0.75,K,D*3E
$GPGGA,190125.500,3545.6914,N,07521.2378,W,2,08,0.97,-11.9,M,-36.4,M,0000,0000*4A
$GPVTG,205.48,T,,M,0.88,N,1.64,K,D*30
$GPGGA,190125.750,3545.6913,N,07521.2378,W,2,08,0.97,-11.8,M,-36.4,M,0000,0000*4B
$GPRMC,190125.750,A,3545.6913,N,07521.2378,W,1.38,178.00,271021,,,D*73
$GPVTG,178.00,T,,M,1.38,N,2.56,K,D*3D
$GPGGA,190126.000,3545.6912,N,07521.2378,W,2,08,0.97,-11.8,M,-36.4,M,0000,0000*4B
$GPVTG,132.01,T,,M,2.23,N,4.12,K,D*3D
$GPGGA,190126.250,3545.6911,N,07521.2376,W,2,08,0.97,-11.8,M,-36.4,M,0000,0000*41
$GPVTG,131.64,T,,M,2.79,N,5.18,K,D*39
$GPGGA,190126.500,3545.6909,N,07521.2374,W,2,08,0.97,-11.8,M,-36.4,M,0000,0000*48
$GPVTG,135.50,T,,M,2.81,N,5.21,K,D*37
$GPGGA,190126.750,3545.6908,N,07521.2373,W,2,08,0.97,-11.8,M,-36.4,M,0000,0000*49
$GPRMC,190126.750,A,3545.6908,N,07521.2373,W,1.67,148.43,271021,,,D*7F
$GPVTG,148.43,T,,M,1.67,N,3.10,K,D*30
$GPGGA,190127.000,3545.6907,N,07521.2373,W,2,08,0.97,-11.8,M,-36.4,M,0000,0000*45
$GPVTG,145.77,T,,M,1.77,N,3.28,K,D*30
$GPGGA,190127.250,3545.6906,N,07521.2372,W,2,08,0.97,-11.8,M,-36.4,M,0000,0000*42
$GPVTG,130.39,T,,M,1.47,N,2.71,K,D*36
$GPGGA,190127.500,3545.6906,N,07521.2371,W,2,08,0.97,-11.8,M,-36.4,M,0000,0000*43
$GPVTG,111.33,T,,M,1.16,N,2.14,K,D*38
$GPGGA,190127.750,3545.6906,N,07521.2371,W,2,08,0.97,-11.8,M,-36.4,M,0000,0000*44
$GPRMC,190127.750,A,3545.6906,N,07521.2371,W,0.83,104.34,271021,,,D*71
$GPVTG,104.34,T,,M,0.83,N,1.54,K,D*31
$GPGGA,190128.000,3545.6906,N,07521.2371,W,2,08,0.97,-11.8,M,-36.4,M,0000,0000*49
$GPVTG,111.18,T,,M,0.63,N,1.17,K,D*32
$GPGGA,190128.250,3545.6905,N,07521.2372,W,2,08,0.97,-11.8,M,-36.4,M,0000,0000*4E
$GPVTG,128.98,T,,M,0.56,N,1.03,K,D*33
$GPGGA,190128.500,3545.6905,N,07521.2371,W,2,08,0.97,-11.8,M,-36.4,M,0000,0000*4F
$GPVTG,136.75,T,,M,0.64,N,1.19,K,D*35
$GPGGA,190128.750,3545.6904,N,07521.2371,W,2,08,0.97,-11.8,M,-36.4,M,0000,0000*49
$GPRMC,190128.750,A,3545.6904,N,07521.2371,W,0.77,149.07,271021,,,D*7E
$GPVTG,149.07,T,,M,0.77,N,1.43,K,D*35
$GPGGA,190129.000,3545.6903,N,07521.2371,W,2,08,0.97,-11.8,M,-36.4,M,0000,0000*4D
$GPVTG,155.09,T,,M,0.91,N,1.69,K,D*36
$GPGGA,190129.250,3545.6902,N,07521.2370,W,2,08,0.97,-11.8,M,-36.4,M,0000,0000*4A
$GPVTG,148.06,T,,M,1.07,N,1.98,K,D*35
$GPGGA,190129.500,3545.6901,N,07521.2369,W,2,08,0.97,-11.9,M,-36.4,M,0000,0000*42
$GPVTG,146.39,T,,M,1.11,N,2.05,K,D*37
$GPGGA,190129.750,3545.6900,N,07521.2369,W,2,08,0.97,-11.9,M,-36.4,M,0000,0000*44
$GPRMC,190129.750,A,3545.6900,N,07521.2369,W,1.11,144.30,271021,,,D*7A
$GPVTG,144.30,T,,M,1.11,N,2.06,K,D*3F
$GPGGA,190130.000,3545.6900,N,07521.2368,W,2,08,0.97,-11.9,M,-36.4,M,0000,0000*4F
$GPVTG,143.72,T,,M,1.10,N,2.04,K,D*3D
$GPGGA,190130.250,3545.6899,N,07521.2368,W,2,08,0.97,-11.9,M,-36.4,M,0000,0000*49
$GPVTG,144.49,T,,M,1.11,N,2.05,K,D*32
$GPGGA,190130.500,3545.6899,N,07521.2367,W,2,08,0.97,-11.9,M,-36.4,M,0000,0000*44
$GPVTG,144.12,T,,M,1.05,N,1.94,K,D*32
$GPGGA,190130.750,3545.6898,N,07521.2367,W,2,08,0.97,-11.9,M,-36.4,M,0000,0000*42
$GPRMC,190130.750,A,3545.6898,N,07521.2367,W,1.02,145.25,271021,,,D*7B
$GPVTG,145.25,T,,M,1.02,N,1.89,K,D*3C
$GPGGA,190131.000,3545.6897,N,07521.2367,W,2,08,0.97,-11.9,M,-36.4,M,0000,0000*4E
$GPVTG,149.44,T,,M,1.04,N,1.94,K,D*3D
$GPGGA,190131.250,3545.6895,N,07521.2367,W,2,08,0.97,-11.9,M,-36.4,M,0000,0000*4B
$GPVTG,154.89,T,,M,1.14,N,2.11,K,D*3F
$GPGGA,190131.500,3545.6894,N,07521.2367,W,2,08,0.97,-11.9,M,-36.4,M,0000,0000*48
$GPVTG,158.64,T,,M,1.19,N,2.20,K,D*3F
$GPGGA,190131.750,3545.6893,N,07521.2366,W,2,08,0.97,-11.9,M,-36.4,M,0000,0000*49
$GPRMC,190131.750,A,3545.6893,N,07521.2366,W,1.26,157.22,271021,,,D*72
$GPVTG,157.22,T,,M,1.26,N,2.33,K,D*3C
$GPGGA,190132.000,3545.6892,N,07521.2365,W,2,08,0.97,-11.9,M,-36.4,M,0000,0000*4A
$GPVTG,152.38,T,,M,1.30,N,2.42,K,D*33
$GPGGA,190132.250,3545.6891,N,07521.2364,W,2,08,0.97,-11.9,M,-36.4,M,0000,0000*4F
$GPVTG,150.04,T,,M,1.26,N,2.33,K,D*3F
$GPGGA,190132.500,3545.6891,N,07521.2364,W,2,08,0.97,-11.9,M,-36.4,M,0000,0000*4D
$GPVTG,148.43,T,,M,1.21,N,2.25,K,D*35
$GPGGA,190132.750,3545.6890,N,07521.2363,W,2,08,0.97,-11.9,M,-36.4,M,0000,0000*4C
$GPRMC,190132.750,A,3545.6890,N,07521.2363,W,1.24,142.25,271021,,,D*76
$GPVTG,142.25,T,,M,1.24,N,2.29,K,D*36
$GPGGA,190133.000,3545.6891,N,07521.2362,W,2,08,0.97,-11.9,M,-36.4,M,0000,0000*4F
$GPVTG,131.90,T,,M,1.22,N,2.26,K,D*35
$GPGGA,190133.250,3545.6891,N,07521.2360,W,2,08,0.97,-11.8,M,-36.4,M,0000,0000*4B
$GPVTG,127.03,T,,M,1.21,N,2.24,K,D*39
$GPGGA,190133.500,3545.6890,N,07521.2360,W,2,08,0.97,-11.8,M,-36.4,M,0000,0000*48
$GPVTG,126.70,T,,M,1.21,N,2.24,K,D*3C
$GPGGA,190133.750,3545.6889,N,07521.2359,W,2,08,0.97,-11.8,M,-36.4,M,0000,0000*4D
$GPRMC,190133.750,A,3545.6889,N,07521.2359,W,1.26,127.38,271021,,,D*7B
$GPVTG,127.38,T,,M,1.26,N,2.34,K,D*37
$GPGGA,190134.000,3545.6889,N,07521.2358,W,2,08,0.97,-11.8,M,-36.4,M,0000,0000*49
$GPVTG,128.74,T,,M,1.24,N,2.30,K,D*36
$GPGGA,190134.250,3545.6888,N,07521.2358,W,2,08,0.97,-11.8,M,-36.4,M,0000,0000*4F
$GPVTG,134.74,T,,M,1.24,N,2.29,K,D*33
$GPGGA,190134.500,3545.6887,N,07521.2357,W,2,08,0.97,-11.8,M,-36.4,M,0000,0000*4D
$GPVTG,134.96,T,,M,1.28,N,2.37,K,D*3C
$GPGGA,190134.750,3545.6886,N,07521.2357,W,2,08,0.97,-11.8,M,-36.4,M,0000,0000*4B
$GPRMC,190134.750,A,3545.6886,N,07521.2357,W,1.40,139.56,271021,,,D*7A
$GPVTG,139.56,T,,M,1.40,N,2.59,K,D*3B
$GPGGA,190135.000,3545.6885,N,07521.2356,W,2,08,0.97,-11.8,M,-36.4,M,0000,0000*4A
$GPVTG,149.24,T,,M,1.35,N,2.51,K,D*33
$GPGGA,190135.250,3545.6883,N,07521.2357,W,2,08,0.97,-11.8,M,-36.4,M,0000,0000*4A
$GPVTG,167.55,T,,M,1.67,N,3.09,K,D*32
$GPGGA,190135.500,3545.6882,N,07521.2356,W,2,08,0.97,-11.8,M,-36.4,M,0000,0000*48
$GPVTG,148.88,T,,M,1.55,N,2.87,K,D*39
$GPGGA,190135.750,3545.6881,N,07521.2356,W,2,08,0.97,-11.8,M,-36.4,M,0000,0000*4C
$GPRMC,190135.750,A,3545.6881,N,07521.2356,W,1.49,150.87,271021,,,D*77
$GPVTG,150.87,T,,M,1.49,N,2.76,K,D*3C
$GPGGA,190136.000,3545.6880,N,07521.2355,W,2,08,0.97,-11.7,M,-36.4,M,0000,0000*40
$GPVTG,155.20,T,,M,0.86,N,1.60,K,D*32
$GPGGA,190136.250,3545.6879,N,07521.2355,W,2,08,0.97,-11.8,M,-36.4,M,0000,0000*4E
$GPVTG,139.13,T,,M,0.64,N,1.19,K,D*3A
$GPGGA,190136.500,3545.6879,N,07521.2355,W,2,08,0.97,-11.8,M,-36.4,M,0000,0000*4C
$GPVTG,125.28,T,,M,0.30,N,0.56,K,D*34
$GPGGA,190136.750,3545.6879,N,07521.2355,W,2,08,0.97,-11.7,M,-36.4,M,0000,0000*44
$GPRMC,190136.750,A,3545.6879,N,07521.2355,W,0.24,116.35,271021,,,D*71
$GPVTG,116.35,T,,M,0.24,N,0.45,K,D*3F
$GPGGA,190137.000,3545.6878,N,07521.2354,W,2,08,0.97,-11.7,M,-36.4,M,0000,0000*47
$GPVTG,109.78,T,,M,0.30,N,0.56,K,D*3F
$GPGGA,190137.250,3545.6878,N,07521.2354,W,2,08,0.97,-11.6,M,-36.4,M,0000,0000*41
$GPVTG,115.95,T,,M,0.37,N,0.69,K,D*3A
$GPGGA,190137.500,3545.6878,N,07521.2354,W,2,08,0.97,-11.6,M,-36.4,M,0000,0000*43
$GPVTG,139.94,T,,M,0.35,N,0.65,K,D*3B
$GPGGA,190137.750,3545.6877,N,07521.2354,W,2,08,0.97,-11.5,M,-36.4,M,0000,0000*48
$GPRMC,190137.750,A,3545.6877,N,07521.2354,W,0.53,146.46,271021,,,D*7E
$GPVTG,146.46,T,,M,0.53,N,0.97,K,D*31
$GPGGA,190138.000,3545.6877,N,07521.2354,W,2,08,0.97,-11.5,M,-36.4,M,0000,0000*45
$GPVTG,136.71,T,,M,0.46,N,0.85,K,D*35
$GPGGA,190138.250,3545.6876,N,07521.2353,W,2,08,0.97,-11.5,M,-36.4,M,0000,0000*44
$GPVTG,138.48,T,,M,0.53,N,0.99,K,D*38
$GPGGA,190138.500,3545.6876,N,07521.2353,W,2,08,0.97,-11.5,M,-36.4,M,0000,0000*46
$GPVTG,139.78,T,,M,0.58,N,1.08,K,D*38
$GPGGA,190138.750,3545.6875,N,07521.2352,W,2,08,0.97,-11.4,M,-36.4,M,0000,0000*42
$GPRMC,190138.750,A,3545.6875,N,07521.2352,W,0.70,141.27,271021,,,D*74
$GPVTG,141.27,T,,M,0.70,N,1.30,K,D*3C
$GPGGA,190139.000,3545.6875,N,07521.2352,W,2,08,0.97,-11.4,M,-36.4,M,0000,0000*41
$GPVTG,141.55,T,,M,0.79,N,1.46,K,D*31
$GPGGA,190139.250,3545.6873,N,07521.2351,W,2,08,0.97,-11.4,M,-36.4,M,0000,0000*43
$GPVTG,146.20,T,,M,0.96,N,1.78,K,D*38
$GPGGA,190139.500,3545.6873,N,07521.2351,W,2,08,0.97,-11.4,M,-36.4,M,0000,0000*41
$GPVTG,148.45,T,,M,1.03,N,1.91,K,D*3F
$GPGGA,190139.750,3545.6872,N,07521.2350,W,2,08,0.97,-11.3,M,-36.4,M,0000,0000*41
$GPRMC,190139.750,A,3545.6872,N,07521.2350,W,1.06,143.09,271021,,,D*7E
$GPVTG,143.09,T,,M,1.06,N,1.96,K,D*3E
$GPGGA,190140.000,3545.6871,N,07521.2350,W,2,08,0.97,-11.3,M,-36.4,M,0000,0000*4E
$GPVTG,142.59,T,,M,1.01,N,1.87,K,D*3D
$GPGGA,190140.250,3545.6870,N,07521.2349,W,2,08,0.97,-11.3,M,-36.4,M,0000,0000*40
$GPVTG,145.22,T,,M,1.00,N,1.85,K,D*35
$GPGGA,190140.500,3545.6870,N,07521.2349,W,2,08,0.97,-11.3,M,-36.4,M,0000,0000*42
$GPVTG,144.69,T,,M,1.02,N,1.90,K,D*3D
$GPGGA,190140.750,3545.6869,N,07521.2348,W,2,08,0.97,-11.2,M,-36.4,M,0000,0000*4D
$GPRMC,190140.750,A,3545.6869,N,07521.2348,W,1.11,142.04,271021,,,D*79
$GPVTG,142.04,T,,M,1.11,N,2.06,K,D*3E
$GPGGA,190141.000,3545.6868,N,07521.2347,W,2,08,0.97,-11.2,M,-36.4,M,0000,0000*40
$GPVTG,139.17,T,,M,1.18,N,2.20,K,D*3D
$GPGGA,190141.250,3545.6867,N,07521.2346,W,2,08,0.97,-11.2,M,-36.4,M,0000,0000*49
$GPVTG,138.31,T,,M,1.28,N,2.37,K,D*3D
$GPGGA,190141.500,3545.6866,N,07521.2345,W,2,08,0.97,-11.1,M,-36.4,M,0000,0000*4A
$GPVTG,137.95,T,,M,1.35,N,2.50,K,D*31
$GPGGA,190141.750,3545.6865,N,07521.2344,W,2,08,0.97,-11.1,M,-36.4,M,0000,0000*4F
$GPRMC,190141.750,A,3545.6865,N,07521.2344,W,1.44,135.01,271021,,,D*7D
$GPVTG,135.01,T,,M,1.44,N,2.67,K,D*3C
$GPGGA,190142.000,3545.6864,N,07521.2344,W,2,08,0.97,-11.1,M,-36.4,M,0000,0000*4F
$GPVTG,138.79,T,,M,1.36,N,2.52,K,D*3D
$GPGGA,190142.250,3545.6864,N,07521.2343,W,2,08,0.97,-11.0,M,-36.4,M,0000,0000*4E
$GPVTG,139.26,T,,M,1.21,N,2.25,K,D*30
$GPGGA,190142.500,3545.6863,N,07521.2343,W,2,08,0.97,-11.0,M,-36.4,M,0000,0000*4B
$GPVTG,145.80,T,,M,1.15,N,2.14,K,D*32
$GPGGA,190142.750,3545.6862,N,07521.2342,W,2,08,0.97,-11.0,M,-36.4,M,0000,0000*4C
$GPRMC,190142.750,A,3545.6862,N,07521.2342,W,1.20,149.82,271021,,,D*7D
$GPVTG,149.82,T,,M,1.20,N,2.23,K,D*3E
$GPGGA,190143.000,3545.6861,N,07521.2342,W,2,08,0.97,-11.0,M,-36.4,M,0000,0000*4C
$GPVTG,150.92,T,,M,1.19,N,2.20,K,D*3E
$GPGGA,190143.250,3545.6860,N,07521.2342,W,2,08,0.97,-10.9,M,-36.4,M,0000,0000*42
$GPVTG,152.44,T,,M,1.18,N,2.18,K,D*3D
$GPGGA,190143.500,3545.6860,N,07521.2341,W,2,08,0.97,-10.9,M,-36.4,M,0000,0000*43
$GPVTG,153.47,T,,M,1.16,N,2.15,K,D*3C
$GPGGA,190143.750,3545.6859,N,07521.2341,W,2,08,0.97,-10.9,M,-36.4,M,0000,0000*4E
$GPRMC,190143.750,A,3545.6859,N,07521.2341,W,1.16,154.58,271021,,,D*79
$GPVTG,154.58,T,,M,1.16,N,2.15,K,D*35
$GPGGA,190144.000,3545.6858,N,07521.2341,W,2,08,0.97,-10.9,M,-36.4,M,0000,0000*4A
$GPVTG,154.99,T,,M,1.11,N,2.06,K,D*3D
$GPGGA,190144.250,3545.6857,N,07521.2340,W,2,08,0.97,-10.9,M,-36.4,M,0000,0000*43
$GPVTG,154.64,T,,M,1.20,N,2.22,K,D*3B
$GPGGA,190144.500,3545.6857,N,07521.2339,W,2,08,0.97,-10.9,M,-36.4,M,0000,0000*4F
$GPVTG,151.44,T,,M,1.16,N,2.15,K,D*3D
$GPGGA,190144.750,3545.6856,N,07521.2339,W,2,08,0.97,-10.9,M,-36.4,M,0000,0000*49
$GPRMC,190144.750,A,3545.6856,N,07521.2339,W,1.14,153.84,271021,,,D*7A
$GPVTG,153.84,T,,M,1.14,N,2.11,K,D*35
$GPGGA,190145.000,3545.6855,N,07521.2339,W,2,08,0.97,-10.8,M,-36.4,M,0000,0000*48
$GPVTG,154.92,T,,M,1.11,N,2.06,K,D*36
$GPGGA,190145.250,3545.6854,N,07521.2339,W,2,08,0.97,-10.8,M,-36.4,M,0000,0000*4E
$GPVTG,157.73,T,,M,1.12,N,2.08,K,D*37
$GPGGA,190145.500,3545.6854,N,07521.2338,W,2,08,0.97,-10.8,M,-36.4,M,0000,0000*4D
$GPVTG,156.10,T,,M,1.20,N,2.23,K,D*3B
$GPGGA,190145.750,3545.6852,N,07521.2337,W,2,08,0.97,-10.8,M,-36.4,M,0000,0000*43
$GPRMC,190145.750,A,3545.6852,N,07521.2337,W,1.31,154.65,271021,,,D*7E
$GPVTG,154.65,T,,M,1.31,N,2.42,K,D*3C
$GPGGA,190146.000,3545.6851,N,07521.2336,W,2,08,0.97,-10.8,M,-36.4,M,0000,0000*40
$GPVTG,151.50,T,,M,1.40,N,2.59,K,D*33
$GPGGA,190146.250,3545.6849,N,07521.2334,W,2,08,0.97,-10.8,M,-36.4,M,0000,0000*4C
$GPVTG,147.30,T,,M,1.64,N,3.05,K,D*3C
$GPGGA,190146.500,3545.6849,N,07521.2333,W,2,08,0.97,-10.8,M,-36.4,M,0000,0000*49
$GPVTG,145.25,T,,M,1.15,N,2.13,K,D*3A
$GPGGA,190146.750,3545.6848,N,07521.2333,W,2,08,0.97,-10.9,M,-36.4,M,0000,0000*4E
$GPRMC,190146.750,A,3545.6848,N,07521.2333,W,1.10,160.19,271021,,,D*7D
$GPVTG,160.19,T,,M,1.10,N,2.04,K,D*31
$GPGGA,190147.000,3545.6848,N,07521.2333,W,2,08,0.97,-10.9,M,-36.4,M,0000,0000*4D
$GPVTG,175.47,T,,M,0.74,N,1.37,K,D*3E
$GPGGA,190147.250,3545.6848,N,07521.2333,W,2,08,0.97,-10.9,M,-36.4,M,0000,0000*4A
$GPVTG,137.47,T,,M,0.55,N,1.02,K,D*3D
$GPGGA,190147.500,3545.6849,N,07521.2332,W,2,08,0.97,-10.9,M,-36.4,M,0000,0000*48
$GPVTG,116.92,T,,M,0.50,N,0.93,K,D*3A
$GPGGA,190147.750,3545.6848,N,07521.2332,W,2,08,0.97,-10.9,M,-36.4,M,0000,0000*4E
$GPRMC,190147.750,A,3545.6848,N,07521.2332,W,0.49,121.98,271021,,,D*7C
$GPVTG,121.98,T,,M,0.49,N,0.90,K,D*3F
$GPGGA,190148.000,3545.6848,N,07521.2331,W,2,08,0.97,-10.9,M,-36.4,M,0000,0000*40
$GPVTG,115.99,T,,M,0.43,N,0.79,K,D*34
$GPGGA,190148.250,3545.6848,N,07521.2331,W,2,08,0.97,-10.9,M,-36.4,M,0000,0000*47
$GPVTG,104.41,T,,M,0.46,N,0.85,K,D*37
$GPGGA,190148.500,3545.6848,N,07521.2330,W,2,08,0.97,-10.8,M,-36.4,M,0000,0000*45
$GPVTG,99.27,T,,M,0.75,N,1.39,K,D*04
$GPGGA,190148.750,3545.6848,N,07521.2329,W,2,08,0.97,-10.8,M,-36.4,M,0000,0000*4A
$GPRMC,190148.750,A,3545.6848,N,07521.2329,W,0.96,95.54,271021,,,D*45
$GPVTG,95.54,T,,M,0.96,N,1.78,K,D*04
$GPGGA,190149.000,3545.6848,N,07521.2328,W,2,08,0.97,-10.8,M,-36.4,M,0000,0000*48
$GPVTG,108.12,T,,M,2.53,N,4.70,K,D*35
$GPGGA,190149.250,3545.6847,N,07521.2325,W,2,08,0.97,-10.8,M,-36.4,M,0000,0000*4D
$GPVTG,111.80,T,,M,3.24,N,6.00,K,D*32
$GPGGA,190149.500,3545.6846,N,07521.2323,W,2,08,0.97,-10.8,M,-36.4,M,0000,0000*48
$GPVTG,113.82,T,,M,3.27,N,6.07,K,D*36
$GPGGA,190149.750,3545.6845,N,07521.2320,W,2,08,0.97,-10.8,M,-36.4,M,0000,0000*4F
$GPRMC,190149.750,A,3545.6845,N,07521.2320,W,3.27,117.60,271021,,,D*75
$GPVTG,117.60,T,,M,3.27,N,6.06,K,D*3F
$GPGGA,190150.000,3545.6844,N,07521.2319,W,2,08,0.97,-10.8,M,-36.4,M,0000,0000*4E
$GPVTG,129.83,T,,M,2.56,N,4.75,K,D*3E
$GPGGA,190150.250,3545.6842,N,07521.2319,W,2,08,0.97,-10.8,M,-36.4,M,0000,0000*4F
$GPVTG,159.51,T,,M,2.01,N,3.73,K,D*35
$GPGGA,190150.500,3545.6840,N,07521.2319,W,2,08,0.97,-10.8,M,-36.4,M,0000,0000*4F
$GPVTG,180.70,T,,M,2.16,N,4.00,K,D*37
$GPGGA,190150.750,3545.6838,N,07521.2319,W,2,08,0.97,-10.8,M,-36.4,M,0000,0000*47
$GPRMC,190150.750,A,3545.6838,N,07521.2319,W,2.66,182.59,271021,,,D*7F
$GPVTG,182.59,T,,M,2.66,N,4.93,K,D*33
$GPGGA,190151.000,3545.6836,N,07521.2319,W,2,08,0.97,-10.8,M,-36.4,M,0000,0000*4A
$GPVTG,181.53,T,,M,2.82,N,5.22,K,D*3B
$GPGGA,190151.250,3545.6834,N,07521.2318,W,2,08,0.97,-10.8,M,-36.4,M,0000,0000*4E
$GPVTG,166.77,T,,M,2.48,N,4.59,K,D*3F
$GPGGA,190151.500,3545.6832,N,07521.2317,W,2,08,0.97,-10.8,M,-36.4,M,0000,0000*45
$GPVTG,162.16,T,,M,2.67,N,4.95,K,D*31
$GPGGA,190151.750,3545.6830,N,07521.2316,W,2,08,0.97,-10.9,M,-36.4,M,0000,0000*40
$GPRMC,190151.750,A,3545.6830,N,07521.2316,W,2.67,156.95,271021,,,D*71
$GPVTG,156.95,T,,M,2.67,N,4.95,K,D*3D
$GPGGA,190152.000,3545.6829,N,07521.2315,W,2,08,0.97,-10.9,M,-36.4,M,0000,0000*4A
$GPVTG,154.12,T,,M,2.24,N,4.15,K,D*3F
$GPGGA,190152.250,3545.6829,N,07521.2314,W,2,08,0.97,-11.0,M,-36.4,M,0000,0000*44
$GPVTG,147.83,T,,M,1.48,N,2.73,K,D*3A
$GPGGA,190152.500,3545.6829,N,07521.2313,W,2,08,0.97,-11.0,M,-36.4,M,0000,0000*41
$GPVTG,130.57,T,,M,1.04,N,1.92,K,D*37
$GPGGA,190152.750,3545.6829,N,07521.2313,W,2,08,0.97,-11.0,M,-36.4,M,0000,0000*46
$GPRMC,190152.750,A,3545.6829,N,07521.2313,W,0.79,114.45,271021,,,D*79
$GPVTG,114.45,T,,M,0.79,N,1.47,K,D*31
$GPGGA,190153.000,3545.6829,N,07521.2313,W,2,08,0.97,-11.0,M,-36.4,M,0000,0000*45
$GPVTG,107.56,T,,M,0.57,N,1.06,K,D*38
$GPGGA,190153.250,3545.6829,N,07521.2312,W,2,08,0.97,-11.0,M,-36.4,M,0000,0000*43
$GPVTG,95.42,T,,M,0.44,N,0.82,K,D*08
$GPGGA,190153.500,3545.6830,N,07521.2312,W,2,08,0.97,-11.0,M,-36.4,M,0000,0000*49
$GPVTG,73.50,T,,M,0.34,N,0.63,K,D*0B
$GPGGA,190153.750,3545.6830,N,07521.2312,W,2,08,0.97,-11.0,M,-36.4,M,0000,0000*4E
$GPRMC,190153.750,A,3545.6830,N,07521.2312,W,0.39,69.44,271021,,,D*4F
$GPVTG,69.44,T,,M,0.39,N,0.73,K,D*09
$GPGGA,190154.000,3545.6831,N,07521.2311,W,2,08,0.97,-11.0,M,-36.4,M,0000,0000*49
$GPVTG,66.54,T,,M,0.48,N,0.88,K,D*05
$GPGGA,190154.250,3545.6830,N,07521.2310,W,2,08,0.97,-11.0,M,-36.4,M,0000,0000*4E
$GPVTG,80.19,T,,M,0.59,N,1.09,K,D*0C
$GPGGA,190154.500,3545.6831,N,07521.2309,W,2,08,0.97,-11.0,M,-36.4,M,0000,0000*45
$GPVTG,84.03,T,,M,0.65,N,1.20,K,D*07
$GPGGA,190154.750,3545.6830,N,07521.2308,W,2,08,0.97,-11.0,M,-36.4,M,0000,0000*42
$GPRMC,190154.750,A,3545.6830,N,07521.2308,W,0.75,98.25,271021,,,D*42
$GPVTG,98.25,T,,M,0.75,N,1.38,K,D*06
$GPGGA,190155.000,3545.6829,N,07521.2307,W,2,08,0.97,-11.0,M,-36.4,M,0000,0000*46
$GPVTG,105.21,T,,M,0.74,N,1.37,K,D*39
$GPGGA,190155.250,3545.6829,N,07521.2307,W,2,08,0.97,-11.0,M,-36.4,M,0000,0000*41
$GPVTG,117.24,T,,M,0.71,N,1.32,K,D*3F
$GPGGA,190155.500,3545.6828,N,07521.2307,W,2,08,0.97,-11.0,M,-36.4,M,0000,0000*42
$GPVTG,123.61,T,,M,0.74,N,1.37,K,D*39
$GPGGA,190155.750,3545.6826,N,07521.2308,W,2,08,0.97,-11.0,M,-36.4,M,0000,0000*44
$GPRMC,190155.750,A,3545.6826,N,07521.2308,W,0.79,151.41,271021,,,D*7E
$GPVTG,151.41,T,,M,0.79,N,1.47,K,D*34
$GPGGA,190156.000,3545.6825,N,07521.2308,W,2,08,0.97,-11.0,M,-36.4,M,0000,0000*46
$GPVTG,158.89,T,,M,0.91,N,1.68,K,D*32
$GPGGA,190156.250,3545.6824,N,07521.2307,W,2,08,0.97,-11.0,M,-36.4,M,0000,0000*4F
$GPVTG,161.06,T,,M,1.04,N,1.92,K,D*37
$GPGGA,190156.500,3545.6822,N,07521.2307,W,2,08,0.97,-11.0,M,-36.4,M,0000,0000*4B
$GPVTG,162.37,T,,M,1.22,N,2.26,K,D*3E
$GPGGA,190156.750,3545.6820,N,07521.2307,W,2,08,0.97,-11.1,M,-36.4,M,0000,0000*4F
$GPRMC,190156.750,A,3545.6820,N,07521.2307,W,1.34,164.19,271021,,,D*77
$GPVTG,164.19,T,,M,1.34,N,2.48,K,D*3B
$GPGGA,190157.000,3545.6820,N,07521.2306,W,2,08,0.97,-11.1,M,-36.4,M,0000,0000*4D
$GPVTG,159.09,T,,M,1.32,N,2.45,K,D*3F
$GPGGA,190157.250,3545.6819,N,07521.2305,W,2,08,0.97,-11.1,M,-36.4,M,0000,0000*43
$GPVTG,154.05,T,,M,1.30,N,2.40,K,D*39
$GPGGA,190157.500,3545.6818,N,07521.2304,W,2,08,0.97,-11.1,M,-36.4,M,0000,0000*41
$GPVTG,150.47,T,,M,1.39,N,2.58,K,D*3B
$GPGGA,190157.750,3545.6818,N,07521.2303,W,2,08,0.97,-11.1,M,-36.4,M,0000,0000*41
$GPRMC,190157.750,A,3545.6818,N,07521.2303,W,1.48,130.82,271021,,,D*71
$GPVTG,130.82,T,,M,1.48,N,2.75,K,D*3D
$GPGGA,190158.000,3545.6818,N,07521.2302,W,2,08,0.97,-11.2,M,-36.4,M,0000,0000*4E
$GPVTG,124.06,T,,M,1.57,N,2.90,K,D*31
