$GPGGA,204001.500,4651.1840,N,12414.2551,W,2,10,0.79,-5.2,M,-19.2,M,0000,0000*77
$GPVTG,134.47,T,,M,0.53,N,0.99,K,D*3B
$GPGGA,204001.750,4651.1840,N,12414.2550,W,2,10,0.79,-5.2,M,-19.2,M,0000,0000*71
$GPVTG,132.48,T,,M,0.58,N,1.08,K,D*30
$GPGGA,204002.000,4651.1839,N,12414.2549,W,2,10,0.79,-5.2,M,-19.2,M,0000,0000*76
$GPRMC,204002.000,A,4651.1839,N,12414.2549,W,0.69,129.43,120721,,,D*75
$GPVTG,129.43,T,,M,0.69,N,1.27,K,D*3E
$GPGGA,204002.250,4651.1839,N,12414.2547,W,2,10,0.79,-5.2,M,-19.2,M,0000,0000*7F
$GPVTG,122.21,T,,M,0.85,N,1.58,K,D*3B
$GPGGA,204002.500,4651.1838,N,12414.2545,W,2,10,0.79,-5.2,M,-19.2,M,0000,0000*7E
$GPVTG,117.67,T,,M,1.14,N,2.12,K,D*3B
$GPGGA,204002.750,4651.1838,N,12414.2543,W,2,10,0.79,-5.2,M,-19.2,M,0000,0000*7F
$GPVTG,116.32,T,,M,1.23,N,2.29,K,D*36
$GPGGA,204003.000,4651.1837,N,12414.2542,W,2,10,0.79,-5.2,M,-19.2,M,0000,0000*72
$GPRMC,204003.000,A,4651.1837,N,12414.2542,W,1.26,116.00,120721,,,D*70
$GPVTG,116.00,T,,M,1.26,N,2.33,K,D*39
$GPGGA,204003.250,4651.1836,N,12414.2541,W,2,10,0.79,-5.2,M,-19.2,M,0000,0000*77
$GPVTG,117.21,T,,M,1.24,N,2.29,K,D*32
$GPGGA,204003.500,4651.1836,N,12414.2540,W,2,10,0.79,-5.2,M,-19.2,M,0000,0000*74
$GPVTG,118.59,T,,M,1.18,N,2.18,K,D*3F
$GPGGA,204003.750,4651.1836,N,12414.2539,W,2,10,0.79,-5.2,M,-19.2,M,0000,0000*7D
$GPVTG,119.79,T,,M,1.11,N,2.06,K,D*3A
$GPGGA,204004.000,4651.1835,N,12414.2539,W,2,10,0.79,-5.2,M,-19.2,M,0000,0000*7B
$GPRMC,204004.000,A,4651.1835,N,12414.2539,W,1.03,120.04,120721,,,D*7F
$GPVTG,120.04,T,,M,1.03,N,1.90,K,D*35
$GPGGA,204004.250,4651.1835,N,12414.2539,W,2,10,0.79,-5.2,M,-19.2,M,0000,0000*7C
$GPVTG,123.68,T,,M,0.88,N,1.62,K,D*33
$GPGGA,204004.500,4651.1834,N,12414.2539,W,2,10,0.79,-5.2,M,-19.2,M,0000,0000*7F
$GPVTG,129.35,T,,M,0.78,N,1.44,K,D*3A
$GPGGA,204004.750,4651.1834,N,12414.2539,W,2,10,0.79,-5.2,M,-19.2,M,0000,0000*78
$GPVTG,132.32,T,,M,0.72,N,1.33,K,D*3D
$GPGGA,204005.000,4651.1834,N,12414.2539,W,2,10,0.79,-5.2,M,-19.2,M,0000,0000*7B
$GPRMC,204005.000,A,4651.1834,N,12414.2539,W,0.68,133.57,120721,,,D*77
$GPVTG,133.57,T,,M,0.68,N,1.26,K,D*30
$GPGGA,204005.250,4651.1833,N,12414.2538,W,2,10,0.79,-5.2,M,-19.2,M,0000,0000*7A
$GPVTG,130.59,T,,M,0.67,N,1.23,K,D*37
$GPGGA,204005.500,4651.1833,N,12414.2538,W,2,10,0.79,-5.2,M,-19.2,M,0000,0000*78
$GPVTG,126.86,T,,M,0.64,N,1.18,K,D*39
$GPGGA,204005.750,4651.1833,N,12414.2537,W,2,10,0.79,-5.2,M,-19.2,M,0000,0000*70
$GPVTG,123.28,T,,M,0.56,N,1.05,K,D*35
$GPGGA,204006.000,4651.1833,N,12414.2538,W,2,10,0.79,-5.2,M,-19.2,M,0000,0000*7E
$GPRMC,204006.000,A,4651.1833,N,12414.2538,W,0.45,123.62,120721,,,D*7A
$GPVTG,123.62,T,,M,0.45,N,0.83,K,D*36
$GPGGA,204006.250,4651.1833,N,12414.2538,W,2,10,0.79,-5.2,M,-19.2,M,0000,0000*79
$GPVTG,133.61,T,,M,0.31,N,0.58,K,D*31
$GPGGA,204006.500,4651.1833,N,12414.2539,W,2,10,0.79,-5.2,M,-19.2,M,0000,0000*7A
$GPVTG,153.21,T,,M,0.22,N,0.40,K,D*38
$GPGGA,204006.750,4651.1832,N,12414.2539,W,2,10,0.79,-5.2,M,-19.2,M,0000,0000*7C
$GPVTG,182.00,T,,M,0.18,N,0.34,K,D*3D
$GPGGA,204007.000,4651.1832,N,12414.2539,W,2,10,0.79,-5.2,M,-19.2,M,0000,0000*7F
$GPRMC,204007.000,A,4651.1832,N,12414.2539,W,0.17,164.70,120721,,,D*7C
$GPVTG,164.70,T,,M,0.17,N,0.32,K,D*3B
$GPGGA,204007.250,4651.1832,N,12414.2538,W,2,10,0.79,-5.2,M,-19.2,M,0000,0000*79
$GPVTG,121.82,T,,M,0.20,N,0.38,K,D*39
$GPGGA,204007.500,4651.1833,N,12414.2537,W,2,10,0.79,-5.2,M,-19.2,M,0000,0000*75
$GPVTG,98.03,T,,M,0.31,N,0.57,K,D*0A
$GPGGA,204007.750,4651.1833,N,12414.2536,W,2,10,0.79,-5.2,M,-19.2,M,0000,0000*73
$GPVTG,91.00,T,,M,0.41,N,0.77,K,D*05
$GPGGA,204008.000,4651.1833,N,12414.2535,W,2,10,0.79,-5.2,M,-19.2,M,0000,0000*7D
$GPRMC,204008.000,A,4651.1833,N,12414.2535,W,0.58,92.11,120721,,,D*4A
$GPVTG,92.11,T,,M,0.58,N,1.08,K,D*07
$GPGGA,204008.250,4651.1832,N,12414.2532,W,2,10,0.79,-5.2,M,-19.2,M,0000,0000*7C
$GPVTG,95.48,T,,M,0.86,N,1.60,K,D*01
$GPGGA,204008.500,4651.1832,N,12414.2530,W,2,10,0.79,-5.2,M,-19.2,M,0000,0000*7C
$GPVTG,98.25,T,,M,1.18,N,2.18,K,D*0D
$GPGGA,204008.750,4651.1831,N,12414.2528,W,2,10,0.79,-5.2,M,-19.2,M,0000,0000*71
$GPVTG,103.10,T,,M,1.35,N,2.51,K,D*3A
$GPGGA,204009.000,4651.1829,N,12414.2526,W,2,10,0.79,-5.2,M,-19.2,M,0000,0000*75
$GPRMC,204009.000,A,4651.1829,N,12414.2526,W,1.52,108.72,120721,,,D*7E
$GPVTG,108.72,T,,M,1.52,N,2.83,K,D*3B
$GPGGA,204009.250,4651.1828,N,12414.2524,W,2,10,0.79,-5.2,M,-19.2,M,0000,0000*71
$GPVTG,119.11,T,,M,1.77,N,3.27,K,D*36
$GPGGA,204009.500,4651.1827,N,12414.2523,W,2,10,0.79,-5.2,M,-19.2,M,0000,0000*7B
$GPVTG,120.99,T,,M,1.77,N,3.28,K,D*33
$GPGGA,204009.750,4651.1826,N,12414.2522,W,2,10,0.79,-5.2,M,-19.2,M,0000,0000*7C
$GPVTG,123.13,T,,M,1.71,N,3.17,K,D*38
$GPGGA,204010.000,4651.1826,N,12414.2521,W,2,10,0.79,-5.2,M,-19.2,M,0000,0000*75
$GPRMC,204010.000,A,4651.1826,N,12414.2521,W,1.28,132.06,120721,,,D*79
$GPVTG,132.06,T,,M,1.28,N,2.37,K,D*33
$GPGGA,204010.250,4651.1825,N,12414.2521,W,2,10,0.79,-5.2,M,-19.2,M,0000,0000*71
$GPVTG,152.61,T,,M,0.87,N,1.61,K,D*30
$GPGGA,204010.500,4651.1825,N,12414.2521,W,2,10,0.79,-5.2,M,-19.2,M,0000,0000*73
$GPVTG,159.48,T,,M,0.72,N,1.34,K,D*3A
$GPGGA,204010.750,4651.1824,N,12414.2521,W,2,10,0.79,-5.2,M,-19.2,M,0000,0000*75
$GPVTG,160.77,T,,M,0.70,N,1.29,K,D*32
$GPGGA,204011.000,4651.1823,N,12414.2521,W,2,10,0.79,-5.2,M,-19.2,M,0000,0000*71
$GPRMC,204011.000,A,4651.1823,N,12414.2521,W,0.67,166.60,120721,,,D*76
$GPVTG,166.60,T,,M,0.67,N,1.24,K,D*39
$GPGGA,204011.250,4651.1823,N,12414.2522,W,2,10,0.79,-5.2,M,-19.2,M,0000,0000*75
$GPVTG,172.90,T,,M,0.52,N,0.96,K,D*3D
$GPGGA,204011.500,4651.1823,N,12414.2522,W,2,10,0.79,-5.2,M,-19.2,M,0000,0000*77
$GPVTG,176.15,T,,M,0.39,N,0.73,K,D*32
$GPGGA,204011.750,4651.1823,N,12414.2522,W,2,10,0.79,-5.2,M,-19.2,M,0000,0000*70
$GPVTG,182.98,T,,M,0.33,N,0.62,K,D*36
$GPGGA,204012.000,4651.1823,N,12414.2522,W,2,10,0.79,-5.2,M,-19.2,M,0000,0000*71
$GPRMC,204012.000,A,4651.1823,N,12414.2522,W,0.34,185.60,120721,,,D*7D
$GPVTG,185.60,T,,M,0.34,N,0.63,K,D*30
$GPGGA,204012.250,4651.1822,N,12414.2522,W,2,10,0.79,-5.2,M,-19.2,M,0000,0000*77
$GPVTG,177.75,T,,M,0.53,N,0.99,K,D*3D
$GPGGA,204012.500,4651.1820,N,12414.2521,W,2,10,0.79,-5.2,M,-19.2,M,0000,0000*74
$GPVTG,169.55,T,,M,0.73,N,1.35,K,D*35
$GPGGA,204012.750,4651.1820,N,12414.2521,W,2,10,0.79,-5.2,M,-19.2,M,0000,0000*73
$GPVTG,165.72,T,,M,0.79,N,1.46,K,D*32
$GPGGA,204013.000,4651.1819,N,12414.2520,W,2,10,0.79,-5.2,M,-19.2,M,0000,0000*7B
$GPRMC,204013.000,A,4651.1819,N,12414.2520,W,0.81,163.17,120721,,,D*71
$GPVTG,163.17,T,,M,0.81,N,1.50,K,D*37
$GPGGA,204013.250,4651.1819,N,12414.2520,W,2,10,0.79,-5.2,M,-19.2,M,0000,0000*7C
$GPVTG,160.22,T,,M,0.77,N,1.43,K,D*39
$GPGGA,204013.500,4651.1819,N,12414.2519,W,2,10,0.79,-5.2,M,-19.2,M,0000,0000*74
$GPVTG,154.99,T,,M,0.67,N,1.25,K,D*3F
$GPGGA,204013.750,4651.1820,N,12414.2519,W,2,10,0.79,-5.2,M,-19.2,M,0000,0000*79
$GPVTG,155.84,T,,M,0.54,N,1.01,K,D*34
$GPGGA,204014.000,4651.1820,N,12414.2520,W,2,10,0.79,-5.2,M,-19.2,M,0000,0000*76
$GPRMC,204014.000,A,4651.1820,N,12414.2520,W,0.40,168.40,120721,,,D*78
$GPVTG,168.40,T,,M,0.40,N,0.75,K,D*35
$GPGGA,204014.250,4651.1820,N,12414.2521,W,2,10,0.79,-5.2,M,-19.2,M,0000,0000*70
$GPVTG,203.39,T,,M,0.37,N,0.68,K,D*39
$GPGGA,204014.500,4651.1820,N,12414.2522,W,2,10,0.79,-5.2,M,-19.2,M,0000,0000*71
$GPVTG,224.33,T,,M,0.43,N,0.79,K,D*35
$GPGGA,204014.750,4651.1820,N,12414.2522,W,2,10,0.79,-5.2,M,-19.2,M,0000,0000*76
$GPVTG,224.69,T,,M,0.43,N,0.80,K,D*3C
$GPGGA,204015.000,4651.1820,N,12414.2521,W,2,10,0.79,-5.2,M,-19.2,M,0000,0000*76
$GPRMC,204015.000,A,4651.1820,N,12414.2521,W,0.34,203.61,120721,,,D*76
$GPVTG,203.61,T,,M,0.34,N,0.63,K,D*3C
$GPGGA,204015.250,4651.1820,N,12414.2520,W,2,10,0.79,-5.2,M,-19.2,M,0000,0000*70
$GPVTG,175.53,T,,M,0.33,N,0.62,K,D*39
$GPGGA,204015.500,4651.1820,N,12414.2519,W,2,10,0.79,-5.2,M,-19.2,M,0000,0000*78
$GPVTG,151.79,T,,M,0.39,N,0.72,K,D*3C
$GPGGA,204015.750,4651.1820,N,12414.2519,W,2,10,0.79,-5.2,M,-19.2,M,0000,0000*7F
$GPVTG,140.24,T,,M,0.44,N,0.82,K,D*31
$GPGGA,204016.000,4651.1820,N,12414.2518,W,2,10,0.79,-5.2,M,-19.2,M,0000,0000*7F
$GPRMC,204016.000,A,4651.1820,N,12414.2518,W,0.47,129.57,120721,,,D*75
$GPVTG,129.57,T,,M,0.47,N,0.87,K,D*3C
$GPGGA,204016.250,4651.1820,N,12414.2518,W,2,10,0.79,-5.2,M,-19.2,M,0000,0000*78
$GPVTG,120.59,T,,M,0.38,N,0.71,K,D*3A
$GPGGA,204016.500,4651.1821,N,12414.2518,W,2,10,0.79,-5.2,M,-19.2,M,0000,0000*7B
$GPVTG,116.13,T,,M,0.30,N,0.56,K,D*3C
$GPGGA,204016.750,4651.1821,N,12414.2518,W,2,10,0.79,-5.2,M,-19.2,M,0000,0000*7C
$GPVTG,117.13,T,,M,0.25,N,0.46,K,D*38
$GPGGA,204017.000,4651.1821,N,12414.2518,W,2,10,0.79,-5.2,M,-19.2,M,0000,0000*7F
$GPRMC,204017.000,A,4651.1821,N,12414.2518,W,0.25,116.21,120721,,,D*7C
$GPVTG,116.21,T,,M,0.25,N,0.46,K,D*38
$GPGGA,204017.250,4651.1821,N,12414.2517,W,2,10,0.79,-5.2,M,-19.2,M,0000,0000*77
$GPVTG,107.29,T,,M,0.30,N,0.55,K,D*36
$GPGGA,204017.500,4651.1821,N,12414.2517,W,2,10,0.79,-5.2,M,-19.2,M,0000,0000*75
$GPVTG,109.04,T,,M,0.36,N,0.67,K,D*30
$GPGGA,204017.750,4651.1821,N,12414.2517,W,2,10,0.79,-5.2,M,-19.2,M,0000,0000*72
$GPVTG,110.63,T,,M,0.43,N,0.79,K,D*34
$GPGGA,204018.000,4651.1821,N,12414.2516,W,2,10,0.79,-5.2,M,-19.2,M,0000,0000*7E
$GPRMC,204018.000,A,4651.1821,N,12414.2516,W,0.51,115.77,120721,,,D*7E
$GPVTG,115.77,T,,M,0.51,N,0.94,K,D*34
$GPGGA,204018.250,4651.1820,N,12414.2516,W,2,10,0.79,-5.2,M,-19.2,M,0000,0000*78
$GPVTG,125.47,T,,M,0.58,N,1.08,K,D*39
$GPGGA,204018.500,4651.1820,N,12414.2515,W,2,10,0.79,-5.2,M,-19.2,M,0000,0000*79
$GPVTG,135.76,T,,M,0.78,N,1.44,K,D*30
$GPGGA,204018.750,4651.1819,N,12414.2515,W,2,10,0.79,-5.2,M,-19.2,M,0000,0000*74
$GPVTG,140.08,T,,M,0.90,N,1.67,K,D*3C
$GPGGA,204019.000,4651.1818,N,12414.2513,W,2,10,0.79,-5.2,M,-19.2,M,0000,0000*70
$GPRMC,204019.000,A,4651.1818,N,12414.2513,W,1.09,139.96,120721,,,D*7D
$GPVTG,139.96,T,,M,1.09,N,2.01,K,D*37
$GPGGA,204019.250,4651.1817,N,12414.2512,W,2,10,0.79,-5.2,M,-19.2,M,0000,0000*79
$GPVTG,137.72,T,,M,1.26,N,2.33,K,D*3F
$GPGGA,204019.500,4651.1816,N,12414.2510,W,2,10,0.79,-5.2,M,-19.2,M,0000,0000*78
$GPVTG,133.12,T,,M,1.42,N,2.63,K,D*3A
$GPGGA,204019.750,4651.1816,N,12414.2509,W,2,10,0.79,-5.2,M,-19.2,M,0000,0000*77
$GPVTG,121.16,T,,M,1.59,N,2.95,K,D*3E
$GPGGA,204020.000,4651.1816,N,12414.2507,W,2,10,0.79,-5.2,M,-19.2,M,0000,0000*71
$GPRMC,204020.000,A,4651.1816,N,12414.2507,W,1.46,110.45,120721,,,D*72
$GPVTG,110.45,T,,M,1.46,N,2.70,K,D*3F
$GPGGA,204020.250,4651.1816,N,12414.2506,W,2,10,0.79,-5.2,M,-19.2,M,0000,0000*77
$GPVTG,92.11,T,,M,0.77,N,1.43,K,D*05
$GPGGA,204020.500,4651.1816,N,12414.2506,W,2,10,0.79,-5.2,M,-19.2,M,0000,0000*75
$GPVTG,84.76,T,,M,0.57,N,1.06,K,D*00
$GPGGA,204020.750,4651.1817,N,12414.2505,W,2,10,0.79,-5.2,M,-19.2,M,0000,0000*70
$GPVTG,86.99,T,,M,0.54,N,1.00,K,D*06
$GPGGA,204021.000,4651.1817,N,12414.2504,W,2,10,0.79,-5.2,M,-19.2,M,0000,0000*72
$GPRMC,204021.000,A,4651.1817,N,12414.2504,W,0.69,85.88,120721,,,D*41
$GPVTG,85.88,T,,M,0.69,N,1.29,K,D*00
$GPGGA,204021.250,4651.1817,N,12414.2503,W,2,10,0.79,-5.2,M,-19.2,M,0000,0000*72
$GPVTG,83.32,T,,M,0.82,N,1.52,K,D*0E
$GPGGA,204021.500,4651.1817,N,12414.2502,W,2,10,0.79,-5.2,M,-19.2,M,0000,0000*71
$GPVTG,89.47,T,,M,0.86,N,1.59,K,D*09
$GPGGA,204021.750,4651.1817,N,12414.2501,W,2,10,0.79,-5.2,M,-19.2,M,0000,0000*75
$GPVTG,90.44,T,,M,0.89,N,1.64,K,D*03
$GPGGA,204022.000,4651.1817,N,12414.2501,W,2,10,0.79,-5.2,M,-19.2,M,0000,0000*74
$GPRMC,204022.000,A,4651.1817,N,12414.2501,W,0.86,91.95,120721,,,D*4F
$GPVTG,91.95,T,,M,0.86,N,1.60,K,D*05
$GPGGA,204022.250,4651.1817,N,12414.2500,W,2,10,0.79,-5.2,M,-19.2,M,0000,0000*72
$GPVTG,91.28,T,,M,0.76,N,1.41,K,D*0F
$GPGGA,204022.500,4651.1817,N,12414.2501,W,2,10,0.79,-5.2,M,-19.2,M,0000,0000*71
$GPVTG,90.56,T,,M,0.55,N,1.01,K,D*02
$GPGGA,204022.750,4651.1816,N,12414.2502,W,2,10,0.79,-5.2,M,-19.2,M,0000,0000*74
$GPVTG,93.25,T,,M,0.33,N,0.62,K,D*01
$GPGGA,204023.000,4651.1816,N,12414.2503,W,2,10,0.79,-5.2,M,-19.2,M,0000,0000*76
$GPRMC,204023.000,A,4651.1816,N,12414.2503,W,0.13,97.42,120721,,,D*4D
$GPVTG,97.42,T,,M,0.13,N,0.25,K,D*05
$GPGGA,204023.250,4651.1816,N,12414.2504,W,2,10,0.79,-5.2,M,-19.2,M,0000,0000*76
$GPVTG,212.74,T,,M,0.10,N,0.19,K,D*33
$GPGGA,204023.500,4651.1815,N,12414.2505,W,2,10,0.79,-5.2,M,-19.2,M,0000,0000*76
$GPVTG,230.69,T,,M,0.23,N,0.42,K,D*31
$GPGGA,204023.750,4651.1815,N,12414.2505,W,2,10,0.79,-5.2,M,-19.2,M,0000,0000*71
$GPVTG,233.60,T,,M,0.28,N,0.51,K,D*32
$GPGGA,204024.000,4651.1815,N,12414.2506,W,2,10,0.79,-5.2,M,-19.2,M,0000,0000*77
$GPRMC,204024.000,A,4651.1815,N,12414.2506,W,0.32,238.57,120721,,,D*7C
$GPVTG,238.57,T,,M,0.32,N,0.59,K,D*3E
$GPGGA,204024.250,4651.1815,N,12414.2506,W,2,10,0.79,-5.2,M,-19.2,M,0000,0000*70
$GPVTG,243.06,T,,M,0.39,N,0.72,K,D*34
$GPGGA,204024.500,4651.1815,N,12414.2507,W,2,10,0.79,-5.2,M,-19.2,M,0000,0000*73
$GPVTG,244.33,T,,M,0.40,N,0.75,K,D*3C
$GPGGA,204024.750,4651.1815,N,12414.2507,W,2,10,0.79,-5.2,M,-19.2,M,0000,0000*74
$GPVTG,243.32,T,,M,0.39,N,0.72,K,D*33
$GPGGA,204025.000,4651.1815,N,12414.2507,W,2,10,0.79,-5.2,M,-19.2,M,0000,0000*77
$GPRMC,204025.000,A,4651.1815,N,12414.2507,W,0.34,229.00,120721,,,D*78
$GPVTG,229.00,T,,M,0.34,N,0.63,K,D*33
$GPGGA,204025.250,4651.1814,N,12414.2507,W,2,10,0.79,-5.2,M,-19.2,M,0000,0000*71
$GPVTG,208.12,T,,M,0.37,N,0.69,K,D*3A
$GPGGA,204025.500,4651.1813,N,12414.2506,W,2,10,0.79,-5.2,M,-19.2,M,0000,0000*75
$GPVTG,185.94,T,,M,0.45,N,0.84,K,D*34
$GPGGA,204025.750,4651.1813,N,12414.2505,W,2,10,0.79,-5.3,M,-19.2,M,0000,0000*70
$GPVTG,170.79,T,,M,0.53,N,0.98,K,D*37
$GPGGA,204026.000,4651.1812,N,12414.2505,W,2,10,0.79,-5.3,M,-19.2,M,0000,0000*70
$GPRMC,204026.000,A,4651.1812,N,12414.2505,W,0.59,158.80,120721,,,D*78
$GPVTG,158.80,T,,M,0.59,N,1.09,K,D*38
$GPGGA,204026.250,4651.1812,N,12414.2504,W,2,10,0.79,-5.3,M,-19.2,M,0000,0000*76
$GPVTG,150.04,T,,M,0.69,N,1.28,K,D*3C
$GPGGA,204026.500,4651.1811,N,12414.2502,W,2,10,0.79,-5.3,M,-19.2,M,0000,0000*71
$GPVTG,140.39,T,,M,0.81,N,1.50,K,D*3A
$GPGGA,204026.750,4651.1811,N,12414.2501,W,2,10,0.79,-5.3,M,-19.2,M,0000,0000*75
$GPVTG,136.34,T,,M,0.84,N,1.56,K,D*35
$GPGGA,204027.000,4651.1811,N,12414.2500,W,2,10,0.79,-5.3,M,-19.2,M,0000,0000*77
$GPRMC,204027.000,A,4651.1811,N,12414.2500,W,0.87,133.30,120721,,,D*7A
$GPVTG,133.30,T,,M,0.87,N,1.61,K,D*33
$GPGGA,204027.250,4651.1810,N,12414.2499,W,2,10,0.79,-5.3,M,-19.2,M,0000,0000*70
$GPVTG,132.05,T,,M,0.91,N,1.69,K,D*3B
$GPGGA,204027.500,4651.1810,N,12414.2499,W,2,10,0.79,-5.3,M,-19.2,M,0000,0000*72
$GPVTG,133.05,T,,M,0.94,N,1.74,K,D*33
$GPGGA,204027.750,4651.1809,N,12414.2498,W,2,10,0.79,-5.3,M,-19.2,M,0000,0000*7C
$GPVTG,133.06,T,,M,0.84,N,1.56,K,D*31
$GPGGA,204028.000,4651.1809,N,12414.2498,W,2,10,0.79,-5.3,M,-19.2,M,0000,0000*71
$GPRMC,204028.000,A,4651.1809,N,12414.2498,W,0.78,132.84,120721,,,D*72
$GPVTG,132.84,T,,M,0.78,N,1.44,K,D*3A
$GPGGA,204028.250,4651.1809,N,12414.2498,W,2,10,0.79,-5.3,M,-19.2,M,0000,0000*76
$GPVTG,132.20,T,,M,0.71,N,1.32,K,D*3C
$GPGGA,204028.500,4651.1809,N,12414.2497,W,2,10,0.79,-5.3,M,-19.2,M,0000,0000*7B
$GPVTG,129.53,T,,M,0.75,N,1.40,K,D*33
$GPGGA,204028.750,4651.1808,N,12414.2496,W,2,10,0.79,-5.3,M,-19.2,M,0000,0000*7C
$GPVTG,129.53,T,,M,0.80,N,1.48,K,D*31
$GPGGA,204029.000,4651.1808,N,12414.2496,W,2,10,0.79,-5.3,M,-19.2,M,0000,0000*7F
$GPRMC,204029.000,A,4651.1808,N,12414.2496,W,0.76,132.09,120721,,,D*77
$GPVTG,132.09,T,,M,0.76,N,1.41,K,D*34
$GPGGA,204029.250,4651.1807,N,12414.2496,W,2,10,0.79,-5.3,M,-19.2,M,0000,0000*77
$GPVTG,139.68,T,,M,0.64,N,1.19,K,D*36
$GPGGA,204029.500,4651.1806,N,12414.2496,W,2,10,0.79,-5.2,M,-19.2,M,0000,0000*75
$GPVTG,142.23,T,,M,0.64,N,1.19,K,D*35
$GPGGA,204029.750,4651.1806,N,12414.2496,W,2,10,0.79,-5.2,M,-19.2,M,0000,0000*72
$GPVTG,142.76,T,,M,0.64,N,1.19,K,D*35
$GPGGA,204030.000,4651.1805,N,12414.2495,W,2,10,0.79,-5.2,M,-19.2,M,0000,0000*78
$GPRMC,204030.000,A,4651.1805,N,12414.2495,W,0.66,139.05,120721,,,D*77
$GPVTG,139.05,T,,M,0.66,N,1.22,K,D*37
$GPGGA,204030.250,4651.1805,N,12414.2494,W,2,10,0.79,-5.2,M,-19.2,M,0000,0000*7E
$GPVTG,136.80,T,,M,0.73,N,1.35,K,D*37
$GPGGA,204030.500,4651.1804,N,12414.2493,W,2,10,0.79,-5.2,M,-19.2,M,0000,0000*7A
$GPVTG,133.95,T,,M,0.80,N,1.48,K,D*30
$GPGGA,204030.750,4651.1804,N,12414.2492,W,2,10,0.79,-5.2,M,-19.2,M,0000,0000*7C
$GPVTG,135.23,T,,M,0.81,N,1.50,K,D*33
$GPGGA,204031.000,4651.1803,N,12414.2492,W,2,10,0.79,-5.2,M,-19.2,M,0000,0000*78
$GPRMC,204031.000,A,4651.1803,N,12414.2492,W,0.81,136.80,120721,,,D*7C
$GPVTG,136.80,T,,M,0.81,N,1.51,K,D*38
$GPGGA,204031.250,4651.1802,N,12414.2492,W,2,10,0.79,-5.2,M,-19.2,M,0000,0000*7E
$GPVTG,138.22,T,,M,0.78,N,1.44,K,D*3C
$GPGGA,204031.500,4651.1802,N,12414.2492,W,2,10,0.79,-5.2,M,-19.2,M,0000,0000*7C
$GPVTG,139.95,T,,M,0.68,N,1.27,K,D*35
$GPGGA,204031.750,4651.1802,N,12414.2492,W,2,10,0.79,-5.2,M,-19.2,M,0000,0000*7B
$GPVTG,142.29,T,,M,0.62,N,1.15,K,D*35
$GPGGA,204032.000,4651.1802,N,12414.2492,W,2,10,0.79,-5.2,M,-19.2,M,0000,0000*7A
$GPRMC,204032.000,A,4651.1802,N,12414.2492,W,0.56,147.59,120721,,,D*76
$GPVTG,147.59,T,,M,0.56,N,1.04,K,D*30
$GPGGA,204032.250,4651.1801,N,12414.2492,W,2,10,0.79,-5.2,M,-19.2,M,0000,0000*7E
$GPVTG,152.32,T,,M,0.49,N,0.92,K,D*39
$GPGGA,204032.500,4651.1801,N,12414.2492,W,2,10,0.79,-5.2,M,-19.2,M,0000,0000*7C
$GPVTG,156.14,T,,M,0.48,N,0.89,K,D*32
$GPGGA,204032.750,4651.1801,N,12414.2491,W,2,10,0.79,-5.2,M,-19.2,M,0000,0000*78
$GPVTG,154.08,T,,M,0.48,N,0.90,K,D*35
$GPGGA,204033.000,4651.1801,N,12414.2491,W,2,10,0.79,-5.2,M,-19.2,M,0000,0000*7B
$GPRMC,204033.000,A,4651.1801,N,12414.2491,W,0.47,155.82,120721,,,D*72
$GPVTG,155.82,T,,M,0.47,N,0.86,K,D*3E
$GPGGA,204033.250,4651.1800,N,12414.2491,W,2,10,0.79,-5.2,M,-19.2,M,0000,0000*7D
$GPVTG,162.04,T,,M,0.42,N,0.77,K,D*3F
$GPGGA,204033.500,4651.1800,N,12414.2492,W,2,10,0.79,-5.2,M,-19.2,M,0000,0000*7C
$GPVTG,175.98,T,,M,0.35,N,0.65,K,D*3F
$GPGGA,204033.750,4651.1800,N,12414.2493,W,2,10,0.79,-5.2,M,-19.2,M,0000,0000*7A
$GPVTG,195.29,T,,M,0.31,N,0.57,K,D*3E
$GPGGA,204034.000,4651.1800,N,12414.2493,W,2,10,0.79,-5.2,M,-19.2,M,0000,0000*7F
$GPRMC,204034.000,A,4651.1800,N,12414.2493,W,0.28,192.42,120721,,,D*78
$GPVTG,192.42,T,,M,0.28,N,0.52,K,D*39
$GPGGA,204034.250,4651.1800,N,12414.2492,W,2,10,0.79,-5.2,M,-19.2,M,0000,0000*79
$GPVTG,163.70,T,,M,0.27,N,0.50,K,D*3B
$GPGGA,204034.500,4651.1800,N,12414.2490,W,2,10,0.79,-5.1,M,-19.2,M,0000,0000*7A
$GPVTG,127.95,T,,M,0.41,N,0.75,K,D*37
$GPGGA,204034.750,4651.1800,N,12414.2487,W,2,10,0.79,-5.1,M,-19.2,M,0000,0000*7B
$GPVTG,110.37,T,,M,0.79,N,1.46,K,D*31
$GPGGA,204035.000,4651.1799,N,12414.2483,W,2,10,0.79,-5.1,M,-19.2,M,0000,0000*73
$GPRMC,204035.000,A,4651.1799,N,12414.2483,W,1.15,104.94,120721,,,D*7C
$GPVTG,104.94,T,,M,1.15,N,2.13,K,D*35
$GPGGA,204035.250,4651.1799,N,12414.2479,W,2,10,0.79,-5.1,M,-19.2,M,0000,0000*71
$GPVTG,103.01,T,,M,1.65,N,3.05,K,D*3F
$GPGGA,204035.500,4651.1799,N,12414.2476,W,2,10,0.79,-5.1,M,-19.2,M,0000,0000*7C
$GPVTG,97.33,T,,M,2.35,N,4.35,K,D*00
$GPGGA,204035.750,4651.1799,N,12414.2473,W,2,10,0.79,-5.1,M,-19.2,M,0000,0000*7E
$GPVTG,95.77,T,,M,2.31,N,4.28,K,D*0A
$GPGGA,204036.000,4651.1799,N,12414.2472,W,2,10,0.79,-5.1,M,-19.2,M,0000,0000*7E
$GPRMC,204036.000,A,4651.1799,N,12414.2472,W,1.64,94.60,120721,,,D*44
$GPVTG,94.60,T,,M,1.64,N,3.03,K,D*00
$GPGGA,204036.250,4651.1799,N,12414.2471,W,2,10,0.79,-5.1,M,-19.2,M,0000,0000*7A
$GPVTG,105.13,T,,M,1.05,N,1.95,K,D*37
$GPGGA,204036.500,4651.1799,N,12414.2472,W,2,10,0.79,-5.1,M,-19.2,M,0000,0000*7B
$GPVTG,114.70,T,,M,0.46,N,0.86,K,D*37
$GPGGA,204036.750,4651.1799,N,12414.2472,W,2,10,0.79,-5.1,M,-19.2,M,0000,0000*7C
$GPVTG,161.95,T,,M,0.15,N,0.27,K,D*33
$GPGGA,204037.000,4651.1799,N,12414.2473,W,2,10,0.79,-5.1,M,-19.2,M,0000,0000*7E
$GPRMC,204037.000,A,4651.1799,N,12414.2473,W,0.28,214.72,120721,,,D*74
$GPVTG,214.72,T,,M,0.28,N,0.53,K,D*36
$GPGGA,204037.250,4651.1798,N,12414.2474,W,2,10,0.79,-5.1,M,-19.2,M,0000,0000*7F
$GPVTG,212.40,T,,M,0.48,N,0.90,K,D*38
$GPGGA,204037.500,4651.1797,N,12414.2474,W,2,10,0.79,-5.1,M,-19.2,M,0000,0000*72
$GPVTG,207.05,T,,M,0.62,N,1.15,K,D*39
$GPGGA,204037.750,4651.1797,N,12414.2475,W,2,10,0.79,-5.1,M,-19.2,M,0000,0000*74
$GPVTG,205.21,T,,M,0.68,N,1.26,K,D*37
$GPGGA,204038.000,4651.1796,N,12414.2474,W,2,10,0.79,-5.1,M,-19.2,M,0000,0000*79
$GPRMC,204038.000,A,4651.1796,N,12414.2474,W,0.73,189.64,120721,,,D*7D
$GPVTG,189.64,T,,M,0.73,N,1.35,K,D*39
$GPGGA,204038.250,4651.1795,N,12414.2473,W,2,10,0.79,-5.1,M,-19.2,M,0000,0000*7A
$GPVTG,170.45,T,,M,0.88,N,1.63,K,D*3B
$GPGGA,204038.500,4651.1794,N,12414.2472,W,2,10,0.79,-5.1,M,-19.2,M,0000,0000*78
$GPVTG,162.23,T,,M,1.04,N,1.92,K,D*33
$GPGGA,204038.750,4651.1793,N,12414.2471,W,2,10,0.79,-5.0,M,-19.2,M,0000,0000*7A
$GPVTG,159.80,T,,M,1.10,N,2.04,K,D*3B
$GPGGA,204039.000,4651.1793,N,12414.2471,W,2,10,0.79,-5.0,M,-19.2,M,0000,0000*79
$GPRMC,204039.000,A,4651.1793,N,12414.2471,W,1.14,156.87,120721,,,D*73
$GPVTG,156.87,T,,M,1.14,N,2.11,K,D*33
$GPGGA,204039.250,4651.1792,N,12414.2470,W,2,10,0.79,-5.0,M,-19.2,M,0000,0000*7E
$GPVTG,155.86,T,,M,1.15,N,2.13,K,D*32
$GPGGA,204039.500,4651.1792,N,12414.2469,W,2,10,0.79,-5.0,M,-19.2,M,0000,0000*74
$GPVTG,152.16,T,,M,1.16,N,2.15,K,D*39
$GPGGA,204039.750,4651.1791,N,12414.2469,W,2,10,0.79,-5.0,M,-19.2,M,0000,0000*70
$GPVTG,148.93,T,,M,1.15,N,2.13,K,D*3A
$GPGGA,204040.000,4651.1791,N,12414.2468,W,2,10,0.79,-5.1,M,-19.2,M,0000,0000*7C
$GPRMC,204040.000,A,4651.1791,N,12414.2468,W,1.12,149.29,120721,,,D*7B
$GPVTG,149.29,T,,M,1.12,N,2.07,K,D*38
$GPGGA,204040.250,4651.1791,N,12414.2468,W,2,10,0.79,-5.1,M,-19.2,M,0000,0000*7B
$GPVTG,150.83,T,,M,1.04,N,1.94,K,D*3E
$GPGGA,204040.500,4651.1791,N,12414.2468,W,2,10,0.79,-5.1,M,-19.2,M,0000,0000*79
$GPVTG,153.54,T,,M,0.89,N,1.65,K,D*3D
$GPGGA,204040.750,4651.1791,N,12414.2469,W,2,10,0.79,-5.1,M,-19.2,M,0000,0000*7F
$GPVTG,156.11,T,,M,0.77,N,1.42,K,D*3D
$GPGGA,204041.000,4651.1791,N,12414.2469,W,2,10,0.79,-5.1,M,-19.2,M,0000,0000*7C
$GPRMC,204041.000,A,4651.1791,N,12414.2469,W,0.59,162.98,120721,,,D*76
$GPVTG,162.98,T,,M,0.59,N,1.09,K,D*38
$GPGGA,204041.250,4651.1791,N,12414.2470,W,2,10,0.79,-5.1,M,-19.2,M,0000,0000*73
$GPVTG,169.26,T,,M,0.44,N,0.81,K,D*3B
$GPGGA,204041.500,4651.1792,N,12414.2470,W,2,10,0.79,-5.1,M,-19.2,M,0000,0000*72
$GPVTG,167.11,T,,M,0.35,N,0.65,K,D*3D
$GPGGA,204041.750,4651.1792,N,12414.2470,W,2,10,0.79,-5.1,M,-19.2,M,0000,0000*75
$GPVTG,163.02,T,,M,0.34,N,0.63,K,D*3C
$GPGGA,204042.000,4651.1792,N,12414.2469,W,2,10,0.79,-5.1,M,-19.2,M,0000,0000*7C
$GPRMC,204042.000,A,4651.1792,N,12414.2469,W,0.38,151.59,120721,,,D*7C
$GPVTG,151.59,T,,M,0.38,N,0.70,K,D*3D
$GPGGA,204042.250,4651.1791,N,12414.2469,W,2,10,0.79,-5.1,M,-19.2,M,0000,0000*78
$GPVTG,147.54,T,,M,0.43,N,0.79,K,D*32
$GPGGA,204042.500,4651.1791,N,12414.2468,W,2,10,0.79,-5.1,M,-19.2,M,0000,0000*7B
$GPVTG,142.26,T,,M,0.53,N,0.99,K,D*3D
$GPGGA,204042.750,4651.1790,N,12414.2468,W,2,10,0.79,-5.1,M,-19.2,M,0000,0000*7D
$GPVTG,141.04,T,,M,0.64,N,1.18,K,D*32
$GPGGA,204043.000,4651.1789,N,12414.2467,W,2,10,0.79,-5.1,M,-19.2,M,0000,0000*79
$GPRMC,204043.000,A,4651.1789,N,12414.2467,W,0.77,139.58,120721,,,D*7D
$GPVTG,139.58,T,,M,0.77,N,1.42,K,D*39
$GPGGA,204043.250,4651.1789,N,12414.2466,W,2,10,0.79,-5.1,M,-19.2,M,0000,0000*7F
$GPVTG,137.56,T,,M,0.90,N,1.66,K,D*36
$GPGGA,204043.500,4651.1788,N,12414.2465,W,2,10,0.79,-5.1,M,-19.2,M,0000,0000*7F
$GPVTG,137.94,T,,M,1.05,N,1.94,K,D*38
$GPGGA,204043.750,4651.1787,N,12414.2464,W,2,10,0.79,-5.1,M,-19.2,M,0000,0000*76
$GPVTG,138.80,T,,M,1.03,N,1.91,K,D*31
$GPGGA,204044.000,4651.1787,N,12414.2465,W,2,10,0.79,-5.1,M,-19.2,M,0000,0000*72
$GPRMC,204044.000,A,4651.1787,N,12414.2465,W,0.90,145.69,120721,,,D*76
$GPVTG,145.69,T,,M,0.90,N,1.67,K,D*3E
$GPGGA,204044.250,4651.1786,N,12414.2465,W,2,10,0.79,-5.1,M,-19.2,M,0000,0000*74
$GPVTG,151.06,T,,M,0.87,N,1.61,K,D*32
$GPGGA,204044.500,4651.1786,N,12414.2465,W,2,10,0.79,-5.1,M,-19.2,M,0000,0000*76
$GPVTG,151.40,T,,M,0.88,N,1.62,K,D*3C
$GPGGA,204044.750,4651.1785,N,12414.2464,W,2,10,0.79,-5.1,M,-19.2,M,0000,0000*73
$GPVTG,150.56,T,,M,0.91,N,1.68,K,D*38
$GPGGA,204045.000,4651.1785,N,12414.2464,W,2,10,0.79,-5.1,M,-19.2,M,0000,0000*70
$GPRMC,204045.000,A,4651.1785,N,12414.2464,W,0.93,149.39,120721,,,D*7E
$GPVTG,149.39,T,,M,0.93,N,1.73,K,D*31
$GPGGA,204045.250,4651.1784,N,12414.2464,W,2,10,0.79,-5.1,M,-19.2,M,0000,0000*76
$GPVTG,153.81,T,,M,0.83,N,1.53,K,D*3A
$GPGGA,204045.500,4651.1784,N,12414.2465,W,2,10,0.79,-5.1,M,-19.2,M,0000,0000*75
$GPVTG,159.58,T,,M,0.70,N,1.30,K,D*3D
$GPGGA,204045.750,4651.1785,N,12414.2465,W,2,10,0.79,-5.1,M,-19.2,M,0000,0000*73
$GPVTG,164.39,T,,M,0.56,N,1.04,K,D*37
$GPGGA,204046.000,4651.1785,N,12414.2465,W,2,10,0.79,-5.1,M,-19.2,M,0000,0000*72
$GPRMC,204046.000,A,4651.1785,N,12414.2465,W,0.47,164.24,120721,,,D*76
$GPVTG,164.24,T,,M,0.47,N,0.87,K,D*31
$GPGGA,204046.250,4651.1785,N,12414.2465,W,2,10,0.79,-5.1,M,-19.2,M,0000,0000*75
$GPVTG,157.24,T,,M,0.45,N,0.83,K,D*37
$GPGGA,204046.500,4651.1785,N,12414.2464,W,2,10,0.79,-5.1,M,-19.2,M,0000,0000*76
$GPVTG,147.91,T,,M,0.48,N,0.90,K,D*37
$GPGGA,204046.750,4651.1784,N,12414.2464,W,2,10,0.79,-5.1,M,-19.2,M,0000,0000*70
$GPVTG,141.33,T,,M,0.52,N,0.96,K,D*34
$GPGGA,204047.000,4651.1784,N,12414.2463,W,2,10,0.79,-5.1,M,-19.2,M,0000,0000*74
$GPRMC,204047.000,A,4651.1784,N,12414.2463,W,0.54,135.90,120721,,,D*79
$GPVTG,135.90,T,,M,0.54,N,1.00,K,D*36
$GPGGA,204047.250,4651.1784,N,12414.2463,W,2,10,0.79,-5.1,M,-19.2,M,0000,0000*73
$GPVTG,131.25,T,,M,0.51,N,0.94,K,D*35
$GPGGA,204047.500,4651.1785,N,12414.2462,W,2,10,0.79,-5.1,M,-19.2,M,0000,0000*71
$GPVTG,120.92,T,,M,0.43,N,0.80,K,D*3F
$GPGGA,204047.750,4651.1785,N,12414.2462,W,2,10,0.79,-5.1,M,-19.2,M,0000,0000*76
$GPVTG,117.83,T,,M,0.36,N,0.66,K,D*31
$GPGGA,204048.000,4651.1785,N,12414.2461,W,2,10,0.79,-5.1,M,-19.2,M,0000,0000*78
$GPRMC,204048.000,A,4651.1785,N,12414.2461,W,0.49,116.14,120721,,,D*74
$GPVTG,116.14,T,,M,0.49,N,0.91,K,D*3E
$GPGGA,204048.250,4651.1784,N,12414.2460,W,2,10,0.79,-5.1,M,-19.2,M,0000,0000*7F
$GPVTG,114.46,T,,M,0.63,N,1.18,K,D*33
$GPGGA,204048.500,4651.1783,N,12414.2459,W,2,10,0.79,-5.1,M,-19.2,M,0000,0000*70
$GPVTG,122.02,T,,M,0.81,N,1.51,K,D*37
$GPGGA,204048.750,4651.1782,N,12414.2458,W,2,10,0.79,-5.2,M,-19.2,M,0000,0000*74
$GPVTG,128.99,T,,M,0.97,N,1.79,K,D*32
$GPGGA,204049.000,4651.1781,N,12414.2458,W,2,10,0.79,-5.2,M,-19.2,M,0000,0000*74
$GPRMC,204049.000,A,4651.1781,N,12414.2458,W,1.08,132.27,120721,,,D*79
$GPVTG,132.27,T,,M,1.08,N,1.99,K,D*35
$GPGGA,204049.250,4651.1780,N,12414.2457,W,2,10,0.79,-5.2,M,-19.2,M,0000,0000*7D
$GPVTG,135.59,T,,M,1.15,N,2.14,K,D*31
$GPGGA,204049.500,4651.1779,N,12414.2456,W,2,10,0.79,-5.2,M,-19.2,M,0000,0000*78
$GPVTG,135.02,T,,M,1.17,N,2.17,K,D*3E
$GPGGA,204049.750,4651.1779,N,12414.2455,W,2,10,0.79,-5.2,M,-19.2,M,0000,0000*7C
$GPVTG,133.30,T,,M,1.13,N,2.09,K,D*32
$GPGGA,204050.000,4651.1779,N,12414.2454,W,2,10,0.79,-5.2,M,-19.2,M,0000,0000*77
$GPRMC,204050.000,A,4651.1779,N,12414.2454,W,1.03,129.38,120721,,,D*75
$GPVTG,129.38,T,,M,1.03,N,1.92,K,D*31
$GPGGA,204050.250,4651.1779,N,12414.2453,W,2,10,0.79,-5.2,M,-19.2,M,0000,0000*77
$GPVTG,124.98,T,,M,0.93,N,1.72,K,D*30
$GPGGA,204050.500,4651.1780,N,12414.2453,W,2,10,0.79,-5.2,M,-19.2,M,0000,0000*73
$GPVTG,119.77,T,,M,0.83,N,1.54,K,D*3A
$GPGGA,204050.750,4651.1780,N,12414.2452,W,2,10,0.79,-5.3,M,-19.2,M,0000,0000*74
$GPVTG,117.69,T,,M,0.76,N,1.41,K,D*35
$GPGGA,204051.000,4651.1780,N,12414.2452,W,2,10,0.79,-5.3,M,-19.2,M,0000,0000*77
$GPRMC,204051.000,A,4651.1780,N,12414.2452,W,0.71,115.11,120721,,,D*74
$GPVTG,115.11,T,,M,0.71,N,1.32,K,D*3B
$GPGGA,204051.250,4651.1780,N,12414.2451,W,2,10,0.79,-5.3,M,-19.2,M,0000,0000*73
$GPVTG,115.41,T,,M,0.66,N,1.22,K,D*39
$GPGGA,204051.500,4651.1780,N,12414.2451,W,2,10,0.79,-5.3,M,-19.2,M,0000,0000*71
$GPVTG,121.43,T,,M,0.62,N,1.14,K,D*3D
$GPGGA,204051.750,4651.1780,N,12414.2451,W,2,10,0.79,-5.3,M,-19.2,M,0000,0000*76
$GPVTG,125.88,T,,M,0.56,N,1.03,K,D*3F
$GPGGA,204052.000,4651.1779,N,12414.2451,W,2,10,0.79,-5.3,M,-19.2,M,0000,0000*71
$GPRMC,204052.000,A,4651.1779,N,12414.2451,W,0.51,130.95,120721,,,D*7B
$GPVTG,130.95,T,,M,0.51,N,0.95,K,D*3E
$GPGGA,204052.250,4651.1779,N,12414.2452,W,2,10,0.79,-5.3,M,-19.2,M,0000,0000*75
$GPVTG,139.80,T,,M,0.46,N,0.84,K,D*35
$GPGGA,204052.500,4651.1779,N,12414.2451,W,2,10,0.79,-5.3,M,-19.2,M,0000,0000*74
$GPVTG,141.09,T,,M,0.41,N,0.76,K,D*31
$GPGGA,204052.750,4651.1779,N,12414.2451,W,2,10,0.79,-5.3,M,-19.2,M,0000,0000*73
$GPVTG,138.19,T,,M,0.43,N,0.80,K,D*35
$GPGGA,204053.000,4651.1779,N,12414.2450,W,2,10,0.79,-5.3,M,-19.2,M,0000,0000*71
$GPRMC,204053.000,A,4651.1779,N,12414.2450,W,0.43,132.06,120721,,,D*70
$GPVTG,132.06,T,,M,0.43,N,0.80,K,D*31
$GPGGA,204053.250,4651.1779,N,12414.2450,W,2,10,0.79,-5.3,M,-19.2,M,0000,0000*76
$GPVTG,131.30,T,,M,0.40,N,0.74,K,D*3F
$GPGGA,204053.500,4651.1778,N,12414.2450,W,2,10,0.79,-5.3,M,-19.2,M,0000,0000*75
$GPVTG,140.27,T,,M,0.45,N,0.84,K,D*35
$GPGGA,204053.750,4651.1778,N,12414.2450,W,2,10,0.79,-5.3,M,-19.2,M,0000,0000*72
$GPVTG,151.68,T,,M,0.51,N,0.94,K,D*3A
$GPGGA,204054.000,4651.1777,N,12414.2450,W,2,10,0.79,-5.3,M,-19.2,M,0000,0000*78
$GPRMC,204054.000,A,4651.1777,N,12414.2450,W,0.57,155.53,120721,,,D*7D
$GPVTG,155.53,T,,M,0.57,N,1.06,K,D*3A
$GPGGA,204054.250,4651.1776,N,12414.2450,W,2,10,0.79,-5.3,M,-19.2,M,0000,0000*7E
$GPVTG,156.49,T,,M,0.65,N,1.20,K,D*37
$GPGGA,204054.500,4651.1775,N,12414.2448,W,2,10,0.79,-5.3,M,-19.2,M,0000,0000*76
$GPVTG,149.60,T,,M,0.75,N,1.38,K,D*3A
$GPGGA,204054.750,4651.1775,N,12414.2447,W,2,10,0.79,-5.3,M,-19.2,M,0000,0000*7E
$GPVTG,145.38,T,,M,0.83,N,1.53,K,D*3F
$GPGGA,204055.000,4651.1774,N,12414.2446,W,2,10,0.79,-5.3,M,-19.2,M,0000,0000*7D
$GPRMC,204055.000,A,4651.1774,N,12414.2446,W,0.92,139.67,120721,,,D*7C
$GPVTG,139.67,T,,M,0.92,N,1.70,K,D*3F
$GPGGA,204055.250,4651.1774,N,12414.2444,W,2,10,0.79,-5.3,M,-19.2,M,0000,0000*78
$GPVTG,134.13,T,,M,1.03,N,1.91,K,D*37
$GPGGA,204055.500,4651.1774,N,12414.2443,W,2,10,0.79,-5.3,M,-19.2,M,0000,0000*7D
$GPVTG,131.51,T,,M,1.08,N,2.00,K,D*34
$GPGGA,204055.750,4651.1773,N,12414.2442,W,2,10,0.79,-5.3,M,-19.2,M,0000,0000*7C
$GPVTG,131.11,T,,M,1.08,N,2.01,K,D*31
$GPGGA,204056.000,4651.1773,N,12414.2442,W,2,10,0.79,-5.3,M,-19.2,M,0000,0000*7D
$GPRMC,204056.000,A,4651.1773,N,12414.2442,W,1.03,131.23,120721,,,D*7D
$GPVTG,131.23,T,,M,1.03,N,1.91,K,D*31
$GPGGA,204056.250,4651.1772,N,12414.2441,W,2,10,0.79,-5.3,M,-19.2,M,0000,0000*78
$GPVTG,134.63,T,,M,0.96,N,1.79,K,D*3B
$GPGGA,204056.500,4651.1772,N,12414.2442,W,2,10,0.79,-5.3,M,-19.2,M,0000,0000*79
$GPVTG,143.10,T,,M,0.83,N,1.53,K,D*33
$GPGGA,204056.750,4651.1772,N,12414.2442,W,2,10,0.79,-5.3,M,-19.2,M,0000,0000*7E
$GPVTG,153.79,T,,M,0.69,N,1.29,K,D*34
$GPGGA,204057.000,4651.1772,N,12414.2443,W,2,10,0.79,-5.3,M,-19.2,M,0000,0000*7C
$GPRMC,204057.000,A,4651.1772,N,12414.2443,W,0.54,168.45,120721,,,D*73
$GPVTG,168.45,T,,M,0.54,N,1.00,K,D*36
$GPGGA,204057.250,4651.1772,N,12414.2443,W,2,10,0.79,-5.3,M,-19.2,M,0000,0000*7B
$GPVTG,170.87,T,,M,0.51,N,0.94,K,D*38
$GPGGA,204057.500,4651.1771,N,12414.2443,W,2,10,0.79,-5.3,M,-19.2,M,0000,0000*7A
$GPVTG,169.71,T,,M,0.47,N,0.87,K,D*3C
$GPGGA,204057.750,4651.1771,N,12414.2442,W,2,10,0.79,-5.3,M,-19.2,M,0000,0000*7C
$GPVTG,164.36,T,,M,0.45,N,0.84,K,D*33
$GPGGA,204058.000,4651.1771,N,12414.2441,W,2,10,0.79,-5.3,M,-19.2,M,0000,0000*72
$GPRMC,204058.000,A,4651.1771,N,12414.2441,W,0.46,154.95,120721,,,D*7C
$GPVTG,154.95,T,,M,0.46,N,0.85,K,D*3B
$GPGGA,204058.250,4651.1771,N,12414.2440,W,2,10,0.79,-5.3,M,-19.2,M,0000,0000*74
$GPVTG,143.68,T,,M,0.53,N,0.99,K,D*36
$GPGGA,204058.500,4651.1771,N,12414.2439,W,2,10,0.79,-5.3,M,-19.2,M,0000,0000*78
$GPVTG,132.78,T,,M,0.54,N,1.00,K,D*37
$GPGGA,204058.750,4651.1771,N,12414.2438,W,2,10,0.79,-5.3,M,-19.2,M,0000,0000*7E
$GPVTG,127.39,T,,M,0.62,N,1.15,K,D*37
$GPGGA,204059.000,4651.1771,N,12414.2436,W,2,10,0.79,-5.3,M,-19.2,M,0000,0000*73
$GPRMC,204059.000,A,4651.1771,N,12414.2436,W,0.73,122.15,120721,,,D*72
$GPVTG,122.15,T,,M,0.73,N,1.36,K,D*3D
$GPGGA,204059.250,4651.1770,N,12414.2435,W,2,10,0.79,-5.3,M,-19.2,M,0000,0000*76
$GPVTG,120.50,T,,M,0.91,N,1.68,K,D*39
$GPGGA,204059.500,4651.1770,N,12414.2433,W,2,10,0.79,-5.3,M,-19.2,M,0000,0000*72
$GPVTG,117.52,T,,M,0.98,N,1.82,K,D*32
$GPGGA,204059.750,4651.1770,N,12414.2432,W,2,10,0.79,-5.3,M,-19.2,M,0000,0000*74
$GPVTG,115.80,T,,M,0.99,N,1.83,K,D*3F
$GPGGA,204100.000,4651.1769,N,12414.2431,W,2,10,0.79,-5.3,M,-19.2,M,0000,0000*70
$GPRMC,204100.000,A,4651.1769,N,12414.2431,W,0.94,116.06,120721,,,D*7D
$GPVTG,116.06,T,,M,0.94,N,1.74,K,D*37
$GPGGA,204100.250,4651.1769,N,12414.2431,W,2,10,0.79,-5.3,M,-19.2,M,0000,0000*77
$GPVTG,117.83,T,,M,0.81,N,1.50,K,D*39
$GPGGA,204100.500,4651.1769,N,12414.2430,W,2,10,0.79,-5.4,M,-19.2,M,0000,0000*73
$GPVTG,121.39,T,,M,0.76,N,1.40,K,D*34
$GPGGA,204100.750,4651.1768,N,12414.2430,W,2,10,0.79,-5.4,M,-19.2,M,0000,0000*75
$GPVTG,127.72,T,,M,0.76,N,1.41,K,D*3C
$GPGGA,204101.000,4651.1767,N,12414.2429,W,2,10,0.79,-5.4,M,-19.2,M,0000,0000*71
$GPRMC,204101.000,A,4651.1767,N,12414.2429,W,0.82,132.46,120721,,,D*7E
$GPVTG,132.46,T,,M,0.82,N,1.52,K,D*36
$GPGGA,204101.250,4651.1766,N,12414.2428,W,2,10,0.79,-5.4,M,-19.2,M,0000,0000*76
$GPVTG,134.31,T,,M,0.93,N,1.73,K,D*33
$GPGGA,204101.500,4651.1765,N,12414.2427,W,2,10,0.79,-5.4,M,-19.2,M,0000,0000*78
$GPVTG,136.02,T,,M,0.99,N,1.84,K,D*33
$GPGGA,204101.750,4651.1765,N,12414.2427,W,2,10,0.79,-5.4,M,-19.2,M,0000,0000*7F
$GPVTG,136.48,T,,M,1.01,N,1.87,K,D*3E
$GPGGA,204102.000,4651.1764,N,12414.2426,W,2,10,0.79,-5.4,M,-19.2,M,0000,0000*7E
$GPRMC,204102.000,A,4651.1764,N,12414.2426,W,1.02,135.94,120721,,,D*70
$GPVTG,135.94,T,,M,1.02,N,1.89,K,D*31
$GPGGA,204102.250,4651.1763,N,12414.2425,W,2,10,0.79,-5.4,M,-19.2,M,0000,0000*7D
$GPVTG,137.09,T,,M,1.06,N,1.96,K,D*3D
$GPGGA,204102.500,4651.1763,N,12414.2425,W,2,10,0.79,-5.4,M,-19.2,M,0000,0000*7F
$GPVTG,142.00,T,,M,1.02,N,1.88,K,D*3D
$GPGGA,204102.750,4651.1762,N,12414.2425,W,2,10,0.79,-5.4,M,-19.2,M,0000,0000*79
$GPVTG,147.63,T,,M,0.94,N,1.73,K,D*37
$GPGGA,204103.000,4651.1761,N,12414.2426,W,2,10,0.79,-5.4,M,-19.2,M,0000,0000*7A
$GPRMC,204103.000,A,4651.1761,N,12414.2426,W,0.90,160.08,120721,,,D*7B
$GPVTG,160.08,T,,M,0.90,N,1.68,K,D*31
$GPGGA,204103.250,4651.1761,N,12414.2426,W,2,10,0.79,-5.4,M,-19.2,M,0000,0000*7D
$GPVTG,169.03,T,,M,0.85,N,1.57,K,D*3B
$GPGGA,204103.500,4651.1760,N,12414.2426,W,2,10,0.79,-5.4,M,-19.2,M,0000,0000*7E
$GPVTG,173.09,T,,M,0.83,N,1.53,K,D*38
$GPGGA,204103.750,4651.1760,N,12414.2426,W,2,10,0.79,-5.4,M,-19.2,M,0000,0000*79
$GPVTG,173.57,T,,M,0.81,N,1.50,K,D*32
$GPGGA,204104.000,4651.1759,N,12414.2426,W,2,10,0.79,-5.4,M,-19.2,M,0000,0000*76
$GPRMC,204104.000,A,4651.1759,N,12414.2426,W,0.76,173.11,120721,,,D*75
$GPVTG,173.11,T,,M,0.76,N,1.41,K,D*38
$GPGGA,204104.250,4651.1759,N,12414.2426,W,2,10,0.79,-5.4,M,-19.2,M,0000,0000*71
$GPVTG,176.05,T,,M,0.67,N,1.24,K,D*3B
$GPGGA,204104.500,4651.1760,N,12414.2426,W,2,10,0.79,-5.4,M,-19.2,M,0000,0000*79
$GPVTG,182.23,T,,M,0.54,N,0.99,K,D*33
$GPGGA,204104.750,4651.1760,N,12414.2426,W,2,10,0.79,-5.4,M,-19.2,M,0000,0000*7E
$GPVTG,182.44,T,,M,0.45,N,0.84,K,D*3E
$GPGGA,204105.000,4651.1760,N,12414.2426,W,2,10,0.79,-5.4,M,-19.2,M,0000,0000*7D
$GPRMC,204105.000,A,4651.1760,N,12414.2426,W,0.40,176.80,120721,,,D*76
$GPVTG,176.80,T,,M,0.40,N,0.73,K,D*30
$GPGGA,204105.250,4651.1759,N,12414.2425,W,2,10,0.79,-5.4,M,-19.2,M,0000,0000*73
$GPVTG,166.92,T,,M,0.44,N,0.82,K,D*38
$GPGGA,204105.500,4651.1758,N,12414.2424,W,2,10,0.79,-5.4,M,-19.2,M,0000,0000*71
$GPVTG,156.07,T,,M,0.63,N,1.17,K,D*3F
$GPGGA,204105.750,4651.1758,N,12414.2424,W,2,10,0.79,-5.4,M,-19.2,M,0000,0000*76
$GPVTG,150.89,T,,M,0.66,N,1.21,K,D*3F
$GPGGA,204106.000,4651.1758,N,12414.2422,W,2,10,0.79,-5.4,M,-19.2,M,0000,0000*71
$GPRMC,204106.000,A,4651.1758,N,12414.2422,W,0.66,139.72,120721,,,D*78
$GPVTG,139.72,T,,M,0.66,N,1.23,K,D*36
$GPGGA,204106.250,4651.1758,N,12414.2421,W,2,10,0.79,-5.4,M,-19.2,M,0000,0000*75
$GPVTG,129.41,T,,M,0.74,N,1.37,K,D*31
$GPGGA,204106.500,4651.1757,N,12414.2420,W,2,10,0.79,-5.4,M,-19.2,M,0000,0000*79
$GPVTG,127.22,T,,M,0.85,N,1.58,K,D*3D
$GPGGA,204106.750,4651.1757,N,12414.2419,W,2,10,0.79,-5.4,M,-19.2,M,0000,0000*74
$GPVTG,130.78,T,,M,0.90,N,1.67,K,D*3C
$GPGGA,204107.000,4651.1756,N,12414.2418,W,2,10,0.79,-5.4,M,-19.2,M,0000,0000*77
$GPRMC,204107.000,A,4651.1756,N,12414.2418,W,0.96,133.25,120721,,,D*79
$GPVTG,133.25,T,,M,0.96,N,1.77,K,D*30
$GPGGA,204107.250,4651.1755,N,12414.2417,W,2,10,0.79,-5.4,M,-19.2,M,0000,0000*7C
$GPVTG,131.51,T,,M,1.07,N,1.99,K,D*38
$GPGGA,204107.500,4651.1754,N,12414.2415,W,2,10,0.79,-5.4,M,-19.2,M,0000,0000*7D
$GPVTG,127.38,T,,M,1.19,N,2.21,K,D*3F
$GPGGA,204107.750,4651.1754,N,12414.2414,W,2,10,0.79,-5.4,M,-19.2,M,0000,0000*7B
$GPVTG,125.28,T,,M,1.26,N,2.33,K,D*33
$GPGGA,204108.000,4651.1753,N,12414.2412,W,2,10,0.79,-5.4,M,-19.2,M,0000,0000*77
$GPRMC,204108.000,A,4651.1753,N,12414.2412,W,1.29,122.22,120721,,,D*7B
$GPVTG,122.22,T,,M,1.29,N,2.40,K,D*35
$GPGGA,204108.250,4651.1753,N,12414.2411,W,2,10,0.79,-5.4,M,-19.2,M,0000,0000*73
$GPVTG,118.76,T,,M,1.30,N,2.41,K,D*34
$GPGGA,204108.500,4651.1753,N,12414.2409,W,2,10,0.79,-5.4,M,-19.2,M,0000,0000*78
$GPVTG,116.39,T,,M,1.31,N,2.43,K,D*32
$GPGGA,204108.750,4651.1753,N,12414.2408,W,2,10,0.79,-5.4,M,-19.2,M,0000,0000*7E
$GPVTG,117.61,T,,M,1.24,N,2.30,K,D*3E
$GPGGA,204109.000,4651.1752,N,12414.2409,W,2,10,0.79,-5.4,M,-19.2,M,0000,0000*7D
$GPRMC,204109.000,A,4651.1752,N,12414.2409,W,0.98,123.57,120721,,,D*79
$GPVTG,123.57,T,,M,0.98,N,1.81,K,D*33
$GPGGA,204109.250,4651.1752,N,12414.2410,W,2,10,0.79,-5.4,M,-19.2,M,0000,0000*72
$GPVTG,135.11,T,,M,0.67,N,1.24,K,D*39
$GPGGA,204109.500,4651.1752,N,12414.2411,W,2,10,0.79,-5.4,M,-19.2,M,0000,0000*71
$GPVTG,155.09,T,,M,0.44,N,0.82,K,D*3A
$GPGGA,204109.750,4651.1751,N,12414.2412,W,2,10,0.79,-5.4,M,-19.2,M,0000,0000*76
$GPVTG,171.26,T,,M,0.41,N,0.76,K,D*3F
$GPGGA,204110.000,4651.1751,N,12414.2412,W,2,10,0.79,-5.4,M,-19.2,M,0000,0000*7C
$GPRMC,204110.000,A,4651.1751,N,12414.2412,W,0.43,182.42,120721,,,D*71
$GPVTG,182.42,T,,M,0.43,N,0.80,K,D*3A
$GPGGA,204110.250,4651.1751,N,12414.2412,W,2,10,0.79,-5.4,M,-19.2,M,0000,0000*7B
$GPVTG,179.14,T,,M,0.40,N,0.73,K,D*32
$GPGGA,204110.500,4651.1751,N,12414.2411,W,2,10,0.79,-5.4,M,-19.2,M,0000,0000*7A
$GPVTG,161.90,T,,M,0.42,N,0.78,K,D*3E
$GPGGA,204110.750,4651.1751,N,12414.2410,W,2,10,0.79,-5.4,M,-19.2,M,0000,0000*7C
$GPVTG,146.70,T,,M,0.44,N,0.82,K,D*36
$GPGGA,204111.000,4651.1751,N,12414.2408,W,2,10,0.79,-5.4,M,-19.2,M,0000,0000*76
$GPRMC,204111.000,A,4651.1751,N,12414.2408,W,0.51,126.63,120721,,,D*75
$GPVTG,126.63,T,,M,0.51,N,0.94,K,D*31
$GPGGA,204111.250,4651.1750,N,12414.2408,W,2,10,0.79,-5.4,M,-19.2,M,0000,0000*70
$GPVTG,125.96,T,,M,0.58,N,1.08,K,D*35
$GPGGA,204111.500,4651.1750,N,12414.2407,W,2,10,0.79,-5.4,M,-19.2,M,0000,0000*7D
$GPVTG,126.95,T,,M,0.66,N,1.22,K,D*30
$GPGGA,204111.750,4651.1749,N,12414.2406,W,2,10,0.79,-5.4,M,-19.2,M,0000,0000*73
$GPVTG,129.64,T,,M,0.72,N,1.33,K,D*34
$GPGGA,204112.000,4651.1748,N,12414.2406,W,2,10,0.79,-5.4,M,-19.2,M,0000,0000*73
$GPRMC,204112.000,A,4651.1748,N,12414.2406,W,0.70,136.37,120721,,,D*73
$GPVTG,136.37,T,,M,0.70,N,1.31,K,D*3C
$GPGGA,204112.250,4651.1748,N,12414.2406,W,2,10,0.79,-5.4,M,-19.2,M,0000,0000*74
$GPVTG,143.22,T,,M,0.63,N,1.17,K,D*3C
$GPGGA,204112.500,4651.1748,N,12414.2406,W,2,10,0.79,-5.4,M,-19.2,M,0000,0000*76
$GPVTG,149.79,T,,M,0.57,N,1.05,K,D*3C
$GPGGA,204112.750,4651.1747,N,12414.2406,W,2,10,0.79,-5.4,M,-19.2,M,0000,0000*7E
$GPVTG,154.37,T,,M,0.52,N,0.97,K,D*35
$GPGGA,204113.000,4651.1747,N,12414.2406,W,2,10,0.79,-5.4,M,-19.2,M,0000,0000*7D
$GPRMC,204113.000,A,4651.1747,N,12414.2406,W,0.46,162.18,120721,,,D*74
$GPVTG,162.18,T,,M,0.46,N,0.86,K,D*38
$GPGGA,204113.250,4651.1747,N,12414.2406,W,2,10,0.79,-5.3,M,-19.2,M,0000,0000*7D
$GPVTG,167.11,T,,M,0.41,N,0.75,K,D*3F
$GPGGA,204113.500,4651.1747,N,12414.2406,W,2,10,0.79,-5.3,M,-19.2,M,0000,0000*7F
$GPVTG,163.27,T,,M,0.44,N,0.82,K,D*33
$GPGGA,204113.750,4651.1746,N,12414.2406,W,2,10,0.79,-5.3,M,-19.2,M,0000,0000*79
$GPVTG,159.42,T,,M,0.48,N,0.88,K,D*3F
$GPGGA,204114.000,4651.1746,N,12414.2405,W,2,10,0.79,-5.3,M,-19.2,M,0000,0000*7F
$GPRMC,204114.000,A,4651.1746,N,12414.2405,W,0.56,148.02,120721,,,D*73
$GPVTG,148.02,T,,M,0.56,N,1.04,K,D*31
$GPGGA,204114.250,4651.1745,N,12414.2403,W,2,10,0.79,-5.3,M,-19.2,M,0000,0000*7D
$GPVTG,138.89,T,,M,0.61,N,1.14,K,D*30
$GPGGA,204114.500,4651.1745,N,12414.2402,W,2,10,0.79,-5.3,M,-19.2,M,0000,0000*7E
$GPVTG,130.07,T,,M,0.71,N,1.31,K,D*38
$GPGGA,204114.750,4651.1745,N,12414.2402,W,2,10,0.79,-5.3,M,-19.2,M,0000,0000*79
$GPVTG,128.77,T,,M,0.69,N,1.28,K,D*37
$GPGGA,204115.000,4651.1745,N,12414.2402,W,2,10,0.79,-5.3,M,-19.2,M,0000,0000*7A
$GPRMC,204115.000,A,4651.1745,N,12414.2402,W,0.60,133.76,120721,,,D*7C
$GPVTG,133.76,T,,M,0.60,N,1.11,K,D*3F
$GPGGA,204115.250,4651.1744,N,12414.2402,W,2,10,0.79,-5.3,M,-19.2,M,0000,0000*7C
$GPVTG,141.65,T,,M,0.59,N,1.09,K,D*3B
$GPGGA,204115.500,4651.1744,N,12414.2401,W,2,10,0.79,-5.3,M,-19.2,M,0000,0000*7D
$GPVTG,138.56,T,,M,0.64,N,1.18,K,D*3B
$GPGGA,204115.750,4651.1744,N,12414.2401,W,2,10,0.79,-5.3,M,-19.2,M,0000,0000*7A
$GPVTG,135.43,T,,M,0.60,N,1.11,K,D*3F
$GPGGA,204116.000,4651.1744,N,12414.2400,W,2,10,0.79,-5.3,M,-19.2,M,0000,0000*7A
$GPRMC,204116.000,A,4651.1744,N,12414.2400,W,0.52,135.18,120721,,,D*73
$GPVTG,135.18,T,,M,0.52,N,0.97,K,D*3F
$GPGGA,204116.250,4651.1744,N,12414.2400,W,2,10,0.79,-5.3,M,-19.2,M,0000,0000*7D
$GPVTG,139.54,T,,M,0.52,N,0.97,K,D*3B
$GPGGA,204116.500,4651.1744,N,12414.2400,W,2,10,0.79,-5.3,M,-19.2,M,0000,0000*7F
$GPVTG,141.78,T,,M,0.48,N,0.89,K,D*3E
$GPGGA,204116.750,4651.1744,N,12414.2400,W,2,10,0.79,-5.3,M,-19.2,M,0000,0000*78
$GPVTG,138.31,T,,M,0.45,N,0.83,K,D*3A
$GPGGA,204117.000,4651.1744,N,12414.2399,W,2,10,0.79,-5.3,M,-19.2,M,0000,0000*7C
$GPRMC,204117.000,A,4651.1744,N,12414.2399,W,0.39,131.06,120721,,,D*73
$GPVTG,131.06,T,,M,0.39,N,0.71,K,D*31
$GPGGA,204117.250,4651.1745,N,12414.2399,W,2,10,0.79,-5.3,M,-19.2,M,0000,0000*7A
$GPVTG,117.02,T,,M,0.35,N,0.65,K,D*38
$GPGGA,204117.500,4651.1745,N,12414.2398,W,2,10,0.79,-5.3,M,-19.2,M,0000,0000*79
$GPVTG,110.86,T,,M,0.38,N,0.70,K,D*3A
$GPGGA,204117.750,4651.1745,N,12414.2398,W,2,10,0.79,-5.3,M,-19.2,M,0000,0000*7E
$GPVTG,110.23,T,,M,0.41,N,0.75,K,D*3E
$GPGGA,204118.000,4651.1745,N,12414.2397,W,2,10,0.79,-5.3,M,-19.2,M,0000,0000*7C
$GPRMC,204118.000,A,4651.1745,N,12414.2397,W,0.48,109.52,120721,,,D*7F
$GPVTG,109.52,T,,M,0.48,N,0.90,K,D*32
$GPGGA,204118.250,4651.1744,N,12414.2396,W,2,10,0.79,-5.3,M,-19.2,M,0000,0000*7B
$GPVTG,113.21,T,,M,0.64,N,1.19,K,D*33
$GPGGA,204118.500,4651.1744,N,12414.2394,W,2,10,0.79,-5.3,M,-19.2,M,0000,0000*7B
$GPVTG,112.30,T,,M,0.79,N,1.46,K,D*34
$GPGGA,204118.750,4651.1743,N,12414.2393,W,2,10,0.79,-5.3,M,-19.2,M,0000,0000*7C
$GPVTG,112.63,T,,M,0.92,N,1.70,K,D*32
$GPGGA,204119.000,4651.1743,N,12414.2391,W,2,10,0.79,-5.3,M,-19.2,M,0000,0000*7D
$GPRMC,204119.000,A,4651.1743,N,12414.2391,W,1.00,113.57,120721,,,D*7D
$GPVTG,113.57,T,,M,1.00,N,1.86,K,D*37
$GPGGA,204119.250,4651.1743,N,12414.2390,W,2,10,0.79,-5.3,M,-19.2,M,0000,0000*7B
$GPVTG,113.35,T,,M,1.01,N,1.87,K,D*33
$GPGGA,204119.500,4651.1742,N,12414.2390,W,2,10,0.79,-5.3,M,-19.2,M,0000,0000*78
$GPVTG,114.38,T,,M,0.96,N,1.78,K,D*36
$GPGGA,204119.750,4651.1742,N,12414.2389,W,2,10,0.79,-5.3,M,-19.2,M,0000,0000*77
$GPVTG,119.41,T,,M,0.87,N,1.62,K,D*3E
$GPGGA,204120.000,4651.1741,N,12414.2391,W,2,10,0.79,-5.2,M,-19.2,M,0000,0000*74
$GPRMC,204120.000,A,4651.1741,N,12414.2391,W,0.66,132.85,120721,,,D*78
$GPVTG,132.85,T,,M,0.66,N,1.22,K,D*34
$GPGGA,204120.250,4651.1740,N,12414.2392,W,2,10,0.79,-5.2,M,-19.2,M,0000,0000*71
$GPVTG,156.64,T,,M,0.60,N,1.11,K,D*3F
$GPGGA,204120.500,4651.1740,N,12414.2394,W,2,10,0.79,-5.2,M,-19.2,M,0000,0000*75
$GPVTG,187.70,T,,M,0.53,N,0.97,K,D*39
$GPGGA,204120.750,4651.1740,N,12414.2394,W,2,10,0.79,-5.2,M,-19.2,M,0000,0000*72
$GPVTG,190.39,T,,M,0.51,N,0.95,K,D*32
$GPGGA,204121.000,4651.1740,N,12414.2394,W,2,10,0.79,-5.2,M,-19.2,M,0000,0000*71
$GPRMC,204121.000,A,4651.1740,N,12414.2394,W,0.48,185.04,120721,,,D*74
$GPVTG,185.04,T,,M,0.48,N,0.89,K,D*3D
$GPGGA,204121.250,4651.1740,N,12414.2393,W,2,10,0.79,-5.2,M,-19.2,M,0000,0000*71
$GPVTG,173.31,T,,M,0.46,N,0.85,K,D*30
$GPGGA,204121.500,4651.1739,N,12414.2392,W,2,10,0.79,-5.2,M,-19.2,M,0000,0000*7C
$GPVTG,163.45,T,,M,0.47,N,0.87,K,D*31
$GPGGA,204121.750,4651.1739,N,12414.2391,W,2,10,0.79,-5.2,M,-19.2,M,0000,0000*78
$GPVTG,150.91,T,,M,0.52,N,0.96,K,D*3C
$GPGGA,204122.000,4651.1739,N,12414.2390,W,2,10,0.79,-5.1,M,-19.2,M,0000,0000*7B
$GPRMC,204122.000,A,4651.1739,N,12414.2390,W,0.60,144.59,120721,,,D*72
$GPVTG,144.59,T,,M,0.60,N,1.10,K,D*33
$GPGGA,204122.250,4651.1738,N,12414.2389,W,2,10,0.79,-5.1,M,-19.2,M,0000,0000*75
$GPVTG,138.11,T,,M,0.73,N,1.34,K,D*30
$GPGGA,204122.500,4651.1738,N,12414.2388,W,2,10,0.79,-5.1,M,-19.2,M,0000,0000*76
$GPVTG,135.01,T,,M,0.78,N,1.44,K,D*30
$GPGGA,204122.750,4651.1738,N,12414.2387,W,2,10,0.79,-5.1,M,-19.2,M,0000,0000*7E
$GPVTG,133.53,T,,M,0.76,N,1.41,K,D*3A
$GPGGA,204123.000,4651.1738,N,12414.2386,W,2,10,0.79,-5.1,M,-19.2,M,0000,0000*7C
$GPRMC,204123.000,A,4651.1738,N,12414.2386,W,0.70,128.84,120721,,,D*7E
$GPVTG,128.84,T,,M,0.70,N,1.30,K,D*3A
$GPGGA,204123.250,4651.1738,N,12414.2386,W,2,10,0.79,-5.1,M,-19.2,M,0000,0000*7B
$GPVTG,128.17,T,,M,0.64,N,1.19,K,D*3E
$GPGGA,204123.500,4651.1738,N,12414.2386,W,2,10,0.79,-5.1,M,-19.2,M,0000,0000*79
$GPVTG,132.36,T,,M,0.57,N,1.06,K,D*38
$GPGGA,204123.750,4651.1738,N,12414.2386,W,2,10,0.79,-5.1,M,-19.2,M,0000,0000*7E
$GPVTG,133.99,T,,M,0.52,N,0.96,K,D*31
$GPGGA,204124.000,4651.1737,N,12414.2386,W,2,10,0.79,-5.1,M,-19.2,M,0000,0000*74
$GPRMC,204124.000,A,4651.1737,N,12414.2386,W,0.52,135.84,120721,,,D*7A
$GPVTG,135.84,T,,M,0.52,N,0.97,K,D*3A
$GPGGA,204124.250,4651.1737,N,12414.2385,W,2,10,0.79,-5.1,M,-19.2,M,0000,0000*70
$GPVTG,138.06,T,,M,0.54,N,1.00,K,D*34
$GPGGA,204124.500,4651.1736,N,12414.2386,W,2,10,0.79,-5.1,M,-19.2,M,0000,0000*70
$GPVTG,148.23,T,,M,0.55,N,1.02,K,D*37
$GPGGA,204124.750,4651.1736,N,12414.2386,W,2,10,0.79,-5.1,M,-19.2,M,0000,0000*77
$GPVTG,151.68,T,,M,0.53,N,0.98,K,D*34
$GPGGA,204125.000,4651.1736,N,12414.2386,W,2,10,0.79,-5.1,M,-19.2,M,0000,0000*74
$GPRMC,204125.000,A,4651.1736,N,12414.2386,W,0.49,160.24,120721,,,D*7A
$GPVTG,160.24,T,,M,0.49,N,0.90,K,D*3D
$GPGGA,204125.250,4651.1736,N,12414.2387,W,2,10,0.79,-5.1,M,-19.2,M,0000,0000*72
$GPVTG,180.59,T,,M,0.41,N,0.76,K,D*39
$GPGGA,204125.500,4651.1736,N,12414.2387,W,2,10,0.79,-5.1,M,-19.2,M,0000,0000*70
$GPVTG,189.90,T,,M,0.37,N,0.68,K,D*3B
$GPGGA,204125.750,4651.1736,N,12414.2387,W,2,10,0.79,-5.1,M,-19.2,M,0000,0000*77
$GPVTG,185.26,T,,M,0.36,N,0.66,K,D*35
$GPGGA,204126.000,4651.1736,N,12414.2386,W,2,10,0.79,-5.1,M,-19.2,M,0000,0000*77
$GPRMC,204126.000,A,4651.1736,N,12414.2386,W,0.34,161.77,120721,,,D*74
$GPVTG,161.77,T,,M,0.34,N,0.62,K,D*3D
$GPGGA,204126.250,4651.1736,N,12414.2384,W,2,10,0.79,-5.1,M,-19.2,M,0000,0000*72
$GPVTG,132.96,T,,M,0.46,N,0.85,K,D*38
$GPGGA,204126.500,4651.1735,N,12414.2383,W,2,10,0.79,-5.1,M,-19.2,M,0000,0000*74
$GPVTG,127.08,T,,M,0.72,N,1.33,K,D*30
$GPGGA,204126.750,4651.1734,N,12414.2381,W,2,10,0.79,-5.1,M,-19.2,M,0000,0000*70
$GPVTG,128.64,T,,M,0.94,N,1.73,K,D*39
$GPGGA,204127.000,4651.1732,N,12414.2379,W,2,10,0.79,-5.1,M,-19.2,M,0000,0000*72
$GPRMC,204127.000,A,4651.1732,N,12414.2379,W,1.28,133.65,120721,,,D*79
$GPVTG,133.65,T,,M,1.28,N,2.38,K,D*38
$GPGGA,204127.250,4651.1732,N,12414.2378,W,2,10,0.79,-5.1,M,-19.2,M,0000,0000*74
$GPVTG,134.08,T,,M,1.34,N,2.48,K,D*3E
$GPGGA,204127.500,4651.1731,N,12414.2378,W,2,10,0.79,-5.1,M,-19.2,M,0000,0000*75
$GPVTG,134.91,T,,M,1.35,N,2.51,K,D*37
$GPGGA,204127.750,4651.1730,N,12414.2377,W,2,10,0.79,-5.1,M,-19.2,M,0000,0000*7C
$GPVTG,135.70,T,,M,1.31,N,2.42,K,D*3F
$GPGGA,204128.000,4651.1730,N,12414.2376,W,2,10,0.79,-5.1,M,-19.2,M,0000,0000*70
$GPRMC,204128.000,A,4651.1730,N,12414.2376,W,1.30,135.00,120721,,,D*77
$GPVTG,135.00,T,,M,1.30,N,2.40,K,D*3B
$GPGGA,204128.250,4651.1730,N,12414.2374,W,2,10,0.79,-5.1,M,-19.2,M,0000,0000*75
$GPVTG,131.52,T,,M,1.33,N,2.47,K,D*3C
$GPGGA,204128.500,4651.1729,N,12414.2373,W,2,10,0.79,-5.1,M,-19.2,M,0000,0000*78
$GPVTG,127.94,T,,M,1.42,N,2.64,K,D*36
$GPGGA,204128.750,4651.1729,N,12414.2371,W,2,10,0.79,-5.1,M,-19.2,M,0000,0000*7D
$GPVTG,127.08,T,,M,1.52,N,2.81,K,D*39
$GPGGA,204129.000,4651.1728,N,12414.2370,W,2,10,0.79,-5.1,M,-19.2,M,0000,0000*7E
$GPRMC,204129.000,A,4651.1728,N,12414.2370,W,1.33,125.90,120721,,,D*72
$GPVTG,125.90,T,,M,1.33,N,2.47,K,D*37
$GPGGA,204129.250,4651.1728,N,12414.2370,W,2,10,0.79,-5.1,M,-19.2,M,0000,0000*79
$GPVTG,129.74,T,,M,1.16,N,2.15,K,D*31
$GPGGA,204129.500,4651.1727,N,12414.2369,W,2,10,0.79,-5.1,M,-19.2,M,0000,0000*7C
$GPVTG,139.53,T,,M,1.00,N,1.84,K,D*39
$GPGGA,204129.750,4651.1727,N,12414.2369,W,2,10,0.79,-5.1,M,-19.2,M,0000,0000*7B
$GPVTG,142.16,T,,M,0.86,N,1.60,K,D*31
$GPGGA,204130.000,4651.1728,N,12414.2371,W,2,10,0.79,-5.2,M,-19.2,M,0000,0000*74
$GPRMC,204130.000,A,4651.1728,N,12414.2371,W,0.43,171.83,120721,,,D*7E
$GPVTG,171.83,T,,M,0.43,N,0.80,K,D*3B
$GPGGA,204130.250,4651.1728,N,12414.2372,W,2,10,0.79,-5.2,M,-19.2,M,0000,0000*70
$GPVTG,214.58,T,,M,0.40,N,0.75,K,D*34
$GPGGA,204130.500,4651.1728,N,12414.2374,W,2,10,0.79,-5.2,M,-19.2,M,0000,0000*74
$GPVTG,249.89,T,,M,0.54,N,1.00,K,D*36
$GPGGA,204130.750,4651.1728,N,12414.2375,W,2,10,0.79,-5.2,M,-19.2,M,0000,0000*72
$GPVTG,256.19,T,,M,0.60,N,1.11,K,D*36
$GPGGA,204131.000,4651.1728,N,12414.2375,W,2,10,0.79,-5.2,M,-19.2,M,0000,0000*71
$GPRMC,204131.000,A,4651.1728,N,12414.2375,W,0.58,264.42,120721,,,D*7B
$GPVTG,264.42,T,,M,0.58,N,1.07,K,D*35
$GPGGA,204131.250,4651.1728,N,12414.2375,W,2,10,0.79,-5.2,M,-19.2,M,0000,0000*76
$GPVTG,264.56,T,,M,0.48,N,0.90,K,D*3E
$GPGGA,204131.500,4651.1728,N,12414.2374,W,2,10,0.79,-5.2,M,-19.2,M,0000,0000*75
$GPVTG,259.74,T,,M,0.29,N,0.54,K,D*3F
$GPGGA,204131.750,4651.1728,N,12414.2373,W,2,10,0.79,-5.2,M,-19.2,M,0000,0000*75
$GPVTG,224.61,T,,M,0.15,N,0.28,K,D*35
$GPGGA,204132.000,4651.1727,N,12414.2372,W,2,10,0.79,-5.2,M,-19.2,M,0000,0000*7A
$GPRMC,204132.000,A,4651.1727,N,12414.2372,W,0.24,167.34,120721,,,D*7A
$GPVTG,167.34,T,,M,0.24,N,0.45,K,D*38
$GPGGA,204132.250,4651.1726,N,12414.2371,W,2,10,0.79,-5.2,M,-19.2,M,0000,0000*7F
$GPVTG,155.78,T,,M,0.49,N,0.90,K,D*32
$GPGGA,204132.500,4651.1725,N,12414.2370,W,2,10,0.79,-5.2,M,-19.2,M,0000,0000*7F
$GPVTG,151.18,T,,M,0.65,N,1.20,K,D*34
$GPGGA,204132.750,4651.1724,N,12414.2369,W,2,10,0.79,-5.2,M,-19.2,M,0000,0000*71
$GPVTG,148.21,T,,M,0.74,N,1.36,K,D*31
$GPGGA,204133.000,4651.1723,N,12414.2369,W,2,10,0.79,-5.2,M,-19.2,M,0000,0000*75
$GPRMC,204133.000,A,4651.1723,N,12414.2369,W,0.88,147.85,120721,,,D*7B
$GPVTG,147.85,T,,M,0.88,N,1.64,K,D*34
$GPGGA,204133.250,4651.1722,N,12414.2368,W,2,10,0.79,-5.2,M,-19.2,M,0000,0000*72
$GPVTG,146.74,T,,M,0.97,N,1.80,K,D*3F
$GPGGA,204133.500,4651.1722,N,12414.2367,W,2,10,0.79,-5.2,M,-19.2,M,0000,0000*7F
$GPVTG,143.33,T,,M,0.93,N,1.72,K,D*30
$GPGGA,204133.750,4651.1722,N,12414.2367,W,2,10,0.79,-5.2,M,-19.2,M,0000,0000*78
$GPVTG,142.73,T,,M,0.83,N,1.55,K,D*31
$GPGGA,204134.000,4651.1722,N,12414.2367,W,2,10,0.79,-5.1,M,-19.2,M,0000,0000*7E
$GPRMC,204134.000,A,4651.1722,N,12414.2367,W,0.62,143.33,120721,,,D*7E
$GPVTG,143.33,T,,M,0.62,N,1.15,K,D*3F
$GPGGA,204134.250,4651.1722,N,12414.2367,W,2,10,0.79,-5.1,M,-19.2,M,0000,0000*79
$GPVTG,141.11,T,,M,0.57,N,1.05,K,D*3A
$GPGGA,204134.500,4651.1721,N,12414.2366,W,2,10,0.79,-5.1,M,-19.2,M,0000,0000*79
$GPVTG,135.44,T,,M,0.64,N,1.19,K,D*34
$GPGGA,204134.750,4651.1721,N,12414.2365,W,2,10,0.79,-5.1,M,-19.2,M,0000,0000*7D
$GPVTG,132.09,T,,M,0.68,N,1.27,K,D*3B
$GPGGA,204135.000,4651.1721,N,12414.2364,W,2,10,0.79,-5.1,M,-19.2,M,0000,0000*7F
$GPRMC,204135.000,A,4651.1721,N,12414.2364,W,0.76,122.92,120721,,,D*76
$GPVTG,122.92,T,,M,0.76,N,1.42,K,D*34
$GPGGA,204135.250,4651.1720,N,12414.2363,W,2,10,0.79,-5.1,M,-19.2,M,0000,0000*7E
$GPVTG,121.13,T,,M,0.84,N,1.55,K,D*35
$GPGGA,204135.500,4651.1720,N,12414.2361,W,2,10,0.79,-5.1,M,-19.2,M,0000,0000*7E
$GPVTG,116.45,T,,M,0.98,N,1.82,K,D*35
$GPGGA,204135.750,4651.1720,N,12414.2358,W,2,10,0.79,-5.1,M,-19.2,M,0000,0000*73
$GPVTG,109.40,T,,M,1.15,N,2.14,K,D*36
$GPGGA,204136.000,4651.1720,N,12414.2356,W,2,09,0.92,-5.1,M,-19.2,M,0000,0000*71
$GPRMC,204136.000,A,4651.1720,N,12414.2356,W,1.22,107.41,120721,,,D*7C
$GPVTG,107.41,T,,M,1.22,N,2.26,K,D*3C
$GPGGA,204136.250,4651.1719,N,12414.2355,W,2,09,0.92,-5.1,M,-19.2,M,0000,0000*7F
$GPVTG,107.99,T,,M,1.29,N,2.39,K,D*3C
$GPGGA,204136.500,4651.1719,N,12414.2353,W,2,10,0.79,-5.0,M,-19.2,M,0000,0000*77
$GPVTG,108.73,T,,M,1.33,N,2.47,K,D*35
$GPGGA,204136.750,4651.1718,N,12414.2352,W,2,10,0.79,-5.0,M,-19.2,M,0000,0000*70
$GPVTG,109.02,T,,M,1.32,N,2.45,K,D*31
$GPGGA,204137.000,4651.1718,N,12414.2352,W,2,10,0.79,-5.1,M,-19.2,M,0000,0000*72
$GPRMC,204137.000,A,4651.1718,N,12414.2352,W,1.09,112.23,120721,,,D*7B
$GPVTG,112.23,T,,M,1.09,N,2.02,K,D*33
$GPGGA,204137.250,4651.1717,N,12414.2353,W,2,10,0.79,-5.1,M,-19.2,M,0000,0000*7B
$GPVTG,117.63,T,,M,0.95,N,1.76,K,D*36
$GPGGA,204137.500,4651.1717,N,12414.2353,W,2,10,0.79,-5.1,M,-19.2,M,0000,0000*79
$GPVTG,124.96,T,,M,0.75,N,1.39,K,D*39
$GPGGA,204137.750,4651.1716,N,12414.2354,W,2,10,0.79,-5.1,M,-19.2,M,0000,0000*78
$GPVTG,133.45,T,,M,0.66,N,1.22,K,D*39
$GPGGA,204138.000,4651.1716,N,12414.2354,W,2,10,0.79,-5.1,M,-19.2,M,0000,0000*75
$GPRMC,204138.000,A,4651.1716,N,12414.2354,W,0.56,141.84,120721,,,D*7C
$GPVTG,141.84,T,,M,0.56,N,1.04,K,D*36
$GPGGA,204138.250,4651.1716,N,12414.2354,W,2,10,0.79,-5.1,M,-19.2,M,0000,0000*72
$GPVTG,144.56,T,,M,0.50,N,0.93,K,D*35
$GPGGA,204138.500,4651.1716,N,12414.2354,W,2,10,0.79,-5.1,M,-19.2,M,0000,0000*70
$GPVTG,138.56,T,,M,0.47,N,0.88,K,D*32
$GPGGA,204138.750,4651.1716,N,12414.2353,W,2,10,0.79,-5.1,M,-19.2,M,0000,0000*70
$GPVTG,133.48,T,,M,0.53,N,0.99,K,D*33
$GPGGA,204139.000,4651.1716,N,12414.2353,W,2,10,0.79,-5.1,M,-19.2,M,0000,0000*73
$GPRMC,204139.000,A,4651.1716,N,12414.2353,W,0.52,132.08,120721,,,D*7E
$GPVTG,132.08,T,,M,0.52,N,0.96,K,D*38
$GPGGA,204139.250,4651.1716,N,12414.2353,W,2,10,0.79,-5.1,M,-19.2,M,0000,0000*74
$GPVTG,137.38,T,,M,0.33,N,0.62,K,D*32
$GPGGA,204139.500,4651.1716,N,12414.2354,W,2,10,0.79,-5.1,M,-19.2,M,0000,0000*71
$GPVTG,145.23,T,,M,0.27,N,0.49,K,D*31
$GPGGA,204139.750,4651.1716,N,12414.2354,W,2,10,0.79,-5.0,M,-19.2,M,0000,0000*77
$GPVTG,158.34,T,,M,0.29,N,0.53,K,D*3E
$GPGGA,204140.000,4651.1716,N,12414.2354,W,2,10,0.79,-5.1,M,-19.2,M,0000,0000*7A
$GPRMC,204140.000,A,4651.1716,N,12414.2354,W,0.34,176.27,120721,,,D*7A
$GPVTG,176.27,T,,M,0.34,N,0.62,K,D*3E
$GPGGA,204140.250,4651.1715,N,12414.2355,W,2,10,0.79,-5.1,M,-19.2,M,0000,0000*7F
$GPVTG,183.46,T,,M,0.42,N,0.78,K,D*39
$GPGGA,204140.500,4651.1715,N,12414.2355,W,2,10,0.79,-5.1,M,-19.2,M,0000,0000*7D
$GPVTG,182.00,T,,M,0.48,N,0.89,K,D*3E
$GPGGA,204140.750,4651.1714,N,12414.2355,W,2,10,0.79,-5.1,M,-19.2,M,0000,0000*7B
$GPVTG,182.06,T,,M,0.48,N,0.89,K,D*38
$GPGGA,204141.000,4651.1714,N,12414.2355,W,2,10,0.79,-5.1,M,-19.2,M,0000,0000*78
$GPRMC,204141.000,A,4651.1714,N,12414.2355,W,0.52,181.95,120721,,,D*79
$GPVTG,181.95,T,,M,0.52,N,0.97,K,D*35
$GPGGA,204141.250,4651.1714,N,12414.2354,W,2,10,0.79,-5.1,M,-19.2,M,0000,0000*7E
$GPVTG,180.77,T,,M,0.56,N,1.03,K,D*30
$GPGGA,204141.500,4651.1713,N,12414.2354,W,2,10,0.80,-5.1,M,-19.2,M,0000,0000*7D
$GPVTG,151.36,T,,M,0.58,N,1.08,K,D*3C
$GPGGA,204141.750,4651.1713,N,12414.2353,W,2,10,0.80,-5.1,M,-19.2,M,0000,0000*7D
$GPVTG,144.95,T,,M,0.57,N,1.06,K,D*30
$GPGGA,204142.000,4651.1713,N,12414.2353,W,2,10,0.80,-5.1,M,-19.2,M,0000,0000*7C
$GPRMC,204142.000,A,4651.1713,N,12414.2353,W,0.59,138.87,120721,,,D*71
$GPVTG,138.87,T,,M,0.59,N,1.09,K,D*39
$GPGGA,204142.250,4651.1713,N,12414.2352,W,2,10,0.80,-5.1,M,-19.2,M,0000,0000*7A
$GPVTG,133.08,T,,M,0.60,N,1.12,K,D*35
$GPGGA,204142.500,4651.1712,N,12414.2351,W,2,10,0.80,-5.1,M,-19.2,M,0000,0000*7A
$GPVTG,129.00,T,,M,0.62,N,1.15,K,D*33
$GPGGA,204142.750,4651.1712,N,12414.2351,W,2,10,0.80,-5.1,M,-19.2,M,0000,0000*7D
$GPVTG,128.85,T,,M,0.64,N,1.18,K,D*34
$GPGGA,204143.000,4651.1712,N,12414.2350,W,2,10,0.80,-5.1,M,-19.2,M,0000,0000*7F
$GPRMC,204143.000,A,4651.1712,N,12414.2350,W,0.67,130.01,120721,,,D*79
$GPVTG,130.01,T,,M,0.67,N,1.25,K,D*3C
$GPGGA,204143.250,4651.1711,N,12414.2350,W,2,10,0.80,-5.1,M,-19.2,M,0000,0000*7B
$GPVTG,131.53,T,,M,0.70,N,1.29,K,D*30
$GPGGA,204143.500,4651.1710,N,12414.2349,W,2,10,0.80,-5.1,M,-19.2,M,0000,0000*70
$GPVTG,133.10,T,,M,0.76,N,1.41,K,D*3D
$GPGGA,204143.750,4651.1710,N,12414.2348,W,2,10,0.80,-5.1,M,-19.2,M,0000,0000*76
$GPVTG,134.53,T,,M,0.77,N,1.43,K,D*3E
$GPGGA,204144.000,4651.1709,N,12414.2348,W,2,10,0.80,-5.1,M,-19.2,M,0000,0000*7B
$GPRMC,204144.000,A,4651.1709,N,12414.2348,W,0.77,135.28,120721,,,D*72
$GPVTG,135.28,T,,M,0.77,N,1.42,K,D*32
$GPGGA,204144.250,4651.1709,N,12414.2347,W,2,10,0.80,-5.1,M,-19.2,M,0000,0000*73
$GPVTG,134.06,T,,M,0.74,N,1.37,K,D*3E
$GPGGA,204144.500,4651.1710,N,12414.2347,W,2,10,0.80,-5.1,M,-19.2,M,0000,0000*79
$GPVTG,131.11,T,,M,0.71,N,1.32,K,D*3D
$GPGGA,204144.750,4651.1709,N,12414.2346,W,2,10,0.80,-5.1,M,-19.2,M,0000,0000*77
$GPVTG,129.83,T,,M,0.70,N,1.29,K,D*34
$GPGGA,204145.000,4651.1709,N,12414.2346,W,2,10,0.80,-5.1,M,-19.2,M,0000,0000*74
$GPRMC,204145.000,A,4651.1709,N,12414.2346,W,0.69,128.84,120721,,,D*78
$GPVTG,128.84,T,,M,0.69,N,1.29,K,D*3A
$GPGGA,204145.250,4651.1709,N,12414.2345,W,2,10,0.80,-5.1,M,-19.2,M,0000,0000*70
$GPVTG,128.75,T,,M,0.69,N,1.29,K,D*34
$GPGGA,204145.500,4651.1709,N,12414.2344,W,2,10,0.80,-5.1,M,-19.2,M,0000,0000*73
$GPVTG,128.51,T,,M,0.70,N,1.30,K,D*32
$GPGGA,204145.750,4651.1709,N,12414.2343,W,2,10,0.80,-5.1,M,-19.2,M,0000,0000*73
$GPVTG,128.14,T,,M,0.71,N,1.31,K,D*33
$GPGGA,204146.000,4651.1710,N,12414.2342,W,2,10,0.80,-5.1,M,-19.2,M,0000,0000*7B
$GPRMC,204146.000,A,4651.1710,N,12414.2342,W,0.69,127.69,120721,,,D*7B
$GPVTG,127.69,T,,M,0.69,N,1.28,K,D*37
$GPGGA,204146.250,4651.1710,N,12414.2343,W,2,10,0.80,-5.1,M,-19.2,M,0000,0000*7D
$GPVTG,127.34,T,,M,0.65,N,1.20,K,D*3B
$GPGGA,204146.500,4651.1709,N,12414.2343,W,2,10,0.80,-5.1,M,-19.2,M,0000,0000*77
$GPVTG,123.33,T,,M,0.62,N,1.14,K,D*38
$GPGGA,204146.750,4651.1709,N,12414.2342,W,2,10,0.80,-5.1,M,-19.2,M,0000,0000*71
$GPVTG,125.18,T,,M,0.60,N,1.11,K,D*30
$GPGGA,204147.000,4651.1709,N,12414.2341,W,2,10,0.80,-5.1,M,-19.2,M,0000,0000*71
$GPRMC,204147.000,A,4651.1709,N,12414.2341,W,0.62,123.39,120721,,,D*7B
$GPVTG,123.39,T,,M,0.62,N,1.15,K,D*33
$GPGGA,204147.250,4651.1709,N,12414.2340,W,2,10,0.80,-5.1,M,-19.2,M,0000,0000*77
$GPVTG,121.54,T,,M,0.63,N,1.18,K,D*36
$GPGGA,204147.500,4651.1708,N,12414.2340,W,2,10,0.80,-5.1,M,-19.2,M,0000,0000*74
$GPVTG,121.74,T,,M,0.66,N,1.22,K,D*38
$GPGGA,204147.750,4651.1708,N,12414.2339,W,2,10,0.80,-5.1,M,-19.2,M,0000,0000*7D
$GPVTG,121.54,T,,M,0.66,N,1.21,K,D*39
$GPGGA,204148.000,4651.1708,N,12414.2339,W,2,10,0.80,-5.1,M,-19.2,M,0000,0000*70
$GPRMC,204148.000,A,4651.1708,N,12414.2339,W,0.65,122.00,120721,,,D*76
$GPVTG,122.00,T,,M,0.65,N,1.21,K,D*38
$GPGGA,204148.250,4651.1707,N,12414.2338,W,2,10,0.80,-5.1,M,-19.2,M,0000,0000*79
$GPVTG,123.99,T,,M,0.66,N,1.23,K,D*38
$GPGGA,204148.500,4651.1707,N,12414.2337,W,2,10,0.80,-5.1,M,-19.2,M,0000,0000*74
$GPVTG,122.45,T,,M,0.67,N,1.25,K,D*3F
$GPGGA,204148.750,4651.1707,N,12414.2336,W,2,10,0.80,-5.1,M,-19.2,M,0000,0000*72
$GPVTG,121.93,T,,M,0.71,N,1.32,K,D*36
$GPGGA,204149.000,4651.1706,N,12414.2335,W,2,10,0.80,-5.1,M,-19.2,M,0000,0000*73
$GPRMC,204149.000,A,4651.1706,N,12414.2335,W,0.74,121.51,120721,,,D*72
$GPVTG,121.51,T,,M,0.74,N,1.36,K,D*39
$GPGGA,204149.250,4651.1706,N,12414.2334,W,2,10,0.80,-5.1,M,-19.2,M,0000,0000*75
