$GPGGA,220014.500,4739.0693,N,12215.7774,W,2,09,0.86,-0.2,M,-17.3,M,0000,0000*7E
$GPVTG,207.60,T,,M,0.54,N,1.01,K,D*3A
$GPGGA,220014.750,4739.0693,N,12215.7774,W,2,09,0.86,-0.2,M,-17.3,M,0000,0000*79
$GPVTG,208.01,T,,M,0.55,N,1.01,K,D*33
$GPGGA,220015.000,4739.0693,N,12215.7774,W,2,09,0.86,-0.2,M,-17.3,M,0000,0000*7A
$GPVTG,208.51,T,,M,0.55,N,1.03,K,D*34
$GPGGA,220015.250,4739.0692,N,12215.7775,W,2,09,0.85,-0.2,M,-17.3,M,0000,0000*7E
$GPRMC,220015.250,A,4739.0692,N,12215.7775,W,0.52,209.35,230822,,,D*7A
$GPVTG,209.35,T,,M,0.52,N,0.97,K,D*3C
$GPGGA,220015.500,4739.0692,N,12215.7775,W,2,09,0.85,-0.2,M,-17.3,M,0000,0000*7C
$GPVTG,209.67,T,,M,0.56,N,1.03,K,D*33
$GPGGA,220015.750,4739.0692,N,12215.7775,W,2,09,0.86,-0.2,M,-17.3,M,0000,0000*78
$GPVTG,209.97,T,,M,0.57,N,1.06,K,D*38
$GPGGA,220016.000,4739.0691,N,12215.7775,W,2,09,0.86,-0.2,M,-17.3,M,0000,0000*7A
$GPVTG,209.99,T,,M,0.59,N,1.09,K,D*37
$GPGGA,220016.250,4739.0691,N,12215.7775,W,2,09,0.85,-0.1,M,-17.3,M,0000,0000*7D
$GPRMC,220016.250,A,4739.0691,N,12215.7775,W,0.62,209.51,230822,,,D*7B
$GPVTG,209.51,T,,M,0.62,N,1.15,K,D*36
$GPGGA,220016.500,4739.0690,N,12215.7776,W,2,09,0.85,-0.1,M,-17.3,M,0000,0000*7D
$GPVTG,208.68,T,,M,0.64,N,1.19,K,D*37
$GPGGA,220016.750,4739.0690,N,12215.7776,W,2,09,0.86,-0.1,M,-17.3,M,0000,0000*79
$GPVTG,208.30,T,,M,0.63,N,1.17,K,D*33
$GPGGA,220017.000,4739.0690,N,12215.7776,W,2,09,0.86,-0.1,M,-17.3,M,0000,0000*7A
$GPVTG,208.18,T,,M,0.62,N,1.14,K,D*3B
$GPGGA,220017.250,4739.0689,N,12215.7776,W,2,09,0.86,-0.1,M,-17.3,M,0000,0000*75
$GPRMC,220017.250,A,4739.0689,N,12215.7776,W,0.59,207.66,230822,,,D*72
$GPVTG,207.66,T,,M,0.59,N,1.09,K,D*39
$GPGGA,220017.500,4739.0689,N,12215.7776,W,2,09,0.85,-0.1,M,-17.3,M,0000,0000*74
$GPVTG,208.03,T,,M,0.37,N,0.68,K,D*3B
$GPGGA,220017.750,4739.0688,N,12215.7776,W,2,09,0.85,-0.1,M,-17.3,M,0000,0000*72
$GPVTG,208.11,T,,M,0.40,N,0.74,K,D*35
$GPGGA,220018.000,4739.0688,N,12215.7776,W,2,09,0.86,-0.1,M,-17.3,M,0000,0000*7C
$GPVTG,208.14,T,,M,0.46,N,0.85,K,D*38
$GPGGA,220018.250,4739.0688,N,12215.7776,W,2,09,0.85,-0.1,M,-17.3,M,0000,0000*78
$GPRMC,220018.250,A,4739.0688,N,12215.7776,W,0.66,208.49,230822,,,D*72
$GPVTG,208.49,T,,M,0.66,N,1.22,K,D*3E
$GPGGA,220018.500,4739.0687,N,12215.7777,W,2,09,0.85,-0.1,M,-17.3,M,0000,0000*74
$GPVTG,208.93,T,,M,0.60,N,1.11,K,D*3F
$GPGGA,220018.750,4739.0687,N,12215.7777,W,2,09,0.85,-0.1,M,-17.3,M,0000,0000*73
$GPVTG,209.70,T,,M,0.43,N,0.80,K,D*3B
$GPGGA,220019.000,4739.0687,N,12215.7778,W,2,09,0.86,-0.1,M,-17.3,M,0000,0000*7C
$GPVTG,210.37,T,,M,0.43,N,0.80,K,D*30
$GPGGA,220019.250,4739.0686,N,12215.7778,W,2,09,0.85,-0.1,M,-17.3,M,0000,0000*79
$GPRMC,220019.250,A,4739.0686,N,12215.7778,W,0.47,210.28,230822,,,D*7E
$GPVTG,210.28,T,,M,0.47,N,0.88,K,D*32
$GPGGA,220019.500,4739.0686,N,12215.7778,W,2,09,0.85,-0.2,M,-17.3,M,0000,0000*78
$GPVTG,210.59,T,,M,0.53,N,0.97,K,D*3F
$GPGGA,220019.750,4739.0686,N,12215.7778,W,2,09,0.85,-0.2,M,-17.3,M,0000,0000*7F
$GPVTG,211.31,T,,M,0.59,N,1.09,K,D*3C
$GPGGA,220020.000,4739.0686,N,12215.7778,W,2,09,0.85,-0.1,M,-17.3,M,0000,0000*74
$GPVTG,211.43,T,,M,0.57,N,1.05,K,D*3B
$GPGGA,220020.250,4739.0685,N,12215.7779,W,2,09,0.86,-0.1,M,-17.3,M,0000,0000*72
$GPRMC,220020.250,A,4739.0685,N,12215.7779,W,0.58,211.70,230822,,,D*74
$GPVTG,211.70,T,,M,0.58,N,1.07,K,D*36
$GPGGA,220020.500,4739.0685,N,12215.7779,W,2,09,0.85,-0.2,M,-17.3,M,0000,0000*70
$GPVTG,211.11,T,,M,0.32,N,0.59,K,D*37
$GPGGA,220020.750,4739.0685,N,12215.7780,W,2,09,0.85,-0.2,M,-17.3,M,0000,0000*71
$GPVTG,210.30,T,,M,0.33,N,0.61,K,D*3F
$GPGGA,220021.000,4739.0684,N,12215.7780,W,2,09,0.86,-0.2,M,-17.3,M,0000,0000*70
$GPVTG,209.92,T,,M,0.34,N,0.64,K,D*3D
$GPGGA,220021.250,4739.0684,N,12215.7780,W,2,09,0.86,-0.2,M,-17.3,M,0000,0000*77
$GPRMC,220021.250,A,4739.0684,N,12215.7780,W,0.37,210.00,230822,,,D*7D
$GPVTG,210.00,T,,M,0.37,N,0.69,K,D*30
$GPGGA,220021.500,4739.0684,N,12215.7780,W,2,09,0.86,-0.2,M,-17.3,M,0000,0000*75
$GPVTG,210.04,T,,M,0.39,N,0.72,K,D*30
$GPGGA,220021.750,4739.0683,N,12215.7781,W,2,09,0.85,-0.2,M,-17.3,M,0000,0000*77
$GPVTG,211.16,T,,M,0.60,N,1.11,K,D*3A
$GPGGA,220022.000,4739.0683,N,12215.7781,W,2,09,0.85,-0.2,M,-17.3,M,0000,0000*76
$GPVTG,212.27,T,,M,0.59,N,1.09,K,D*38
$GPGGA,220022.250,4739.0683,N,12215.7781,W,2,09,0.85,-0.2,M,-17.3,M,0000,0000*71
$GPRMC,220022.250,A,4739.0683,N,12215.7781,W,0.54,212.16,230822,,,D*78
$GPVTG,212.16,T,,M,0.54,N,1.00,K,D*3E
$GPGGA,220022.500,4739.0682,N,12215.7782,W,2,09,0.85,-0.2,M,-17.3,M,0000,0000*71
$GPVTG,211.72,T,,M,0.50,N,0.92,K,D*31
$GPGGA,220022.750,4739.0682,N,12215.7782,W,2,09,0.86,-0.2,M,-17.3,M,0000,0000*75
$GPVTG,211.51,T,,M,0.48,N,0.88,K,D*32
$GPGGA,220023.000,4739.0682,N,12215.7783,W,2,09,0.86,-0.3,M,-17.3,M,0000,0000*76
$GPVTG,211.23,T,,M,0.49,N,0.90,K,D*3F
$GPGGA,220023.250,4739.0681,N,12215.7783,W,2,09,0.85,-0.3,M,-17.3,M,0000,0000*71
$GPRMC,220023.250,A,4739.0681,N,12215.7783,W,0.47,211.31,230822,,,D*7D
$GPVTG,211.31,T,,M,0.47,N,0.86,K,D*35
$GPGGA,220023.500,4739.0681,N,12215.7783,W,2,09,0.85,-0.3,M,-17.3,M,0000,0000*73
$GPVTG,211.38,T,,M,0.49,N,0.91,K,D*34
$GPGGA,220023.750,4739.0680,N,12215.7783,W,2,09,0.86,-0.3,M,-17.3,M,0000,0000*76
$GPVTG,211.79,T,,M,0.52,N,0.97,K,D*3D
$GPGGA,220024.000,4739.0680,N,12215.7784,W,2,09,0.85,-0.2,M,-17.3,M,0000,0000*76
$GPVTG,212.53,T,,M,0.56,N,1.03,K,D*3E
$GPGGA,220024.250,4739.0680,N,12215.7784,W,2,09,0.85,-0.2,M,-17.3,M,0000,0000*71
$GPRMC,220024.250,A,4739.0680,N,12215.7784,W,0.55,212.59,230822,,,D*72
$GPVTG,212.59,T,,M,0.55,N,1.01,K,D*35
$GPGGA,220024.500,4739.0679,N,12215.7784,W,2,09,0.86,-0.1,M,-17.3,M,0000,0000*75
$GPVTG,212.42,T,,M,0.52,N,0.97,K,D*36
$GPGGA,220024.750,4739.0679,N,12215.7784,W,2,09,0.86,-0.1,M,-17.3,M,0000,0000*72
$GPVTG,212.28,T,,M,0.50,N,0.92,K,D*3D
$GPGGA,220025.000,4739.0678,N,12215.7785,W,2,09,0.85,-0.2,M,-17.3,M,0000,0000*71
$GPVTG,211.82,T,,M,0.48,N,0.90,K,D*35
$GPGGA,220025.250,4739.0678,N,12215.7785,W,2,09,0.85,-0.2,M,-17.3,M,0000,0000*76
$GPRMC,220025.250,A,4739.0678,N,12215.7785,W,0.47,211.67,230822,,,D*78
$GPVTG,211.67,T,,M,0.47,N,0.88,K,D*38
$GPGGA,220025.500,4739.0678,N,12215.7785,W,2,09,0.86,-0.2,M,-17.3,M,0000,0000*77
$GPVTG,211.67,T,,M,0.48,N,0.90,K,D*3E
$GPGGA,220025.750,4739.0677,N,12215.7785,W,2,09,0.85,-0.2,M,-17.3,M,0000,0000*7C
$GPVTG,212.93,T,,M,0.52,N,0.96,K,D*3B
$GPGGA,220026.000,4739.0677,N,12215.7786,W,2,09,0.85,-0.1,M,-17.3,M,0000,0000*7D
$GPVTG,213.70,T,,M,0.51,N,0.95,K,D*37
$GPGGA,220026.250,4739.0676,N,12215.7786,W,2,09,0.86,-0.1,M,-17.3,M,0000,0000*78
$GPRMC,220026.250,A,4739.0676,N,12215.7786,W,0.51,214.37,230822,,,D*71
$GPVTG,214.37,T,,M,0.51,N,0.94,K,D*32
$GPGGA,220026.500,4739.0676,N,12215.7787,W,2,09,0.85,-0.1,M,-17.3,M,0000,0000*78
$GPVTG,213.25,T,,M,0.50,N,0.93,K,D*30
$GPGGA,220026.750,4739.0676,N,12215.7787,W,2,09,0.85,-0.2,M,-17.3,M,0000,0000*7C
$GPVTG,211.81,T,,M,0.49,N,0.90,K,D*37
$GPGGA,220027.000,4739.0675,N,12215.7787,W,2,09,0.86,-0.2,M,-17.3,M,0000,0000*7F
$GPVTG,210.73,T,,M,0.48,N,0.88,K,D*33
$GPGGA,220027.250,4739.0675,N,12215.7787,W,2,09,0.85,-0.2,M,-17.3,M,0000,0000*7B
$GPRMC,220027.250,A,4739.0675,N,12215.7787,W,0.47,211.34,230822,,,D*73
$GPVTG,211.34,T,,M,0.47,N,0.87,K,D*31
$GPGGA,220027.500,4739.0675,N,12215.7788,W,2,09,0.85,-0.2,M,-17.3,M,0000,0000*76
$GPVTG,212.22,T,,M,0.46,N,0.86,K,D*35
$GPGGA,220027.750,4739.0675,N,12215.7788,W,2,09,0.85,-0.1,M,-17.3,M,0000,0000*72
$GPVTG,212.59,T,,M,0.47,N,0.88,K,D*36
$GPGGA,220028.000,4739.0674,N,12215.7788,W,2,09,0.85,0.0,M,-17.3,M,0000,0000*52
$GPVTG,212.72,T,,M,0.48,N,0.89,K,D*31
$GPGGA,220028.250,4739.0674,N,12215.7788,W,2,09,0.85,0.0,M,-17.3,M,0000,0000*55
$GPRMC,220028.250,A,4739.0674,N,12215.7788,W,0.47,212.62,230822,,,D*72
$GPVTG,212.62,T,,M,0.47,N,0.87,K,D*31
$GPGGA,220028.500,4739.0674,N,12215.7789,W,2,09,0.85,0.0,M,-17.3,M,0000,0000*56
$GPVTG,211.65,T,,M,0.47,N,0.88,K,D*3A
$GPGGA,220028.750,4739.0674,N,12215.7789,W,2,09,0.85,-0.1,M,-17.3,M,0000,0000*7D
$GPVTG,211.30,T,,M,0.45,N,0.83,K,D*33
$GPGGA,220029.000,4739.0673,N,12215.7789,W,2,09,0.85,-0.1,M,-17.3,M,0000,0000*79
$GPVTG,211.19,T,,M,0.42,N,0.78,K,D*3B
$GPGGA,220029.250,4739.0673,N,12215.7789,W,2,09,0.85,-0.1,M,-17.3,M,0000,0000*7E
$GPRMC,220029.250,A,4739.0673,N,12215.7789,W,0.40,211.02,230822,,,D*77
$GPVTG,211.02,T,,M,0.40,N,0.75,K,D*3E
$GPGGA,220029.500,4739.0673,N,12215.7790,W,2,09,0.85,-0.1,M,-17.3,M,0000,0000*74
$GPVTG,211.69,T,,M,0.46,N,0.85,K,D*3A
$GPGGA,220029.750,4739.0673,N,12215.7790,W,2,09,0.85,-0.1,M,-17.3,M,0000,0000*73
$GPVTG,212.23,T,,M,0.50,N,0.93,K,D*37
$GPGGA,220030.000,4739.0672,N,12215.7790,W,2,09,0.85,-0.1,M,-17.3,M,0000,0000*78
$GPVTG,212.15,T,,M,0.50,N,0.92,K,D*33
$GPGGA,220030.250,4739.0672,N,12215.7790,W,2,09,0.85,-0.1,M,-17.3,M,0000,0000*7F
$GPRMC,220030.250,A,4739.0672,N,12215.7790,W,0.47,211.90,230822,,,D*7A
$GPVTG,211.90,T,,M,0.47,N,0.87,K,D*3F
$GPGGA,220030.500,4739.0672,N,12215.7791,W,2,09,0.85,-0.1,M,-17.3,M,0000,0000*7C
$GPVTG,211.01,T,,M,0.50,N,0.93,K,D*34
$GPGGA,220030.750,4739.0671,N,12215.7791,W,2,09,0.85,-0.1,M,-17.3,M,0000,0000*78
$GPVTG,210.84,T,,M,0.40,N,0.73,K,D*37
$GPGGA,220031.000,4739.0671,N,12215.7791,W,2,09,0.85,-0.1,M,-17.3,M,0000,0000*7B
$GPVTG,210.55,T,,M,0.42,N,0.77,K,D*3D
$GPGGA,220031.250,4739.0671,N,12215.7791,W,2,09,0.85,-0.1,M,-17.3,M,0000,0000*7C
$GPRMC,220031.250,A,4739.0671,N,12215.7791,W,0.45,210.46,230822,,,D*71
$GPVTG,210.46,T,,M,0.45,N,0.84,K,D*34
$GPGGA,220031.500,4739.0671,N,12215.7791,W,2,09,0.85,-0.1,M,-17.3,M,0000,0000*7E
$GPVTG,210.19,T,,M,0.54,N,1.00,K,D*33
$GPGGA,220031.750,4739.0670,N,12215.7792,W,2,09,0.85,-0.1,M,-17.3,M,0000,0000*7B
$GPVTG,211.65,T,,M,0.58,N,1.07,K,D*32
$GPGGA,220032.000,4739.0670,N,12215.7792,W,2,09,0.85,-0.1,M,-17.3,M,0000,0000*7A
$GPVTG,211.66,T,,M,0.56,N,1.04,K,D*3C
$GPGGA,220032.250,4739.0670,N,12215.7792,W,2,09,0.85,-0.1,M,-17.3,M,0000,0000*7D
$GPRMC,220032.250,A,4739.0670,N,12215.7792,W,0.50,211.85,230822,,,D*7A
$GPVTG,211.85,T,,M,0.50,N,0.92,K,D*39
$GPGGA,220032.500,4739.0669,N,12215.7793,W,2,09,0.85,-0.1,M,-17.3,M,0000,0000*76
$GPVTG,211.90,T,,M,0.40,N,0.75,K,D*35
$GPGGA,220032.750,4739.0669,N,12215.7793,W,2,09,0.85,-0.1,M,-17.3,M,0000,0000*71
$GPVTG,211.17,T,,M,0.41,N,0.77,K,D*39
$GPGGA,220033.000,4739.0669,N,12215.7793,W,2,09,0.85,-0.1,M,-17.3,M,0000,0000*72
$GPVTG,210.59,T,,M,0.41,N,0.77,K,D*32
$GPGGA,220033.250,4739.0669,N,12215.7793,W,2,09,0.85,-0.2,M,-17.3,M,0000,0000*76
$GPRMC,220033.250,A,4739.0669,N,12215.7793,W,0.42,209.90,230822,,,D*7C
$GPVTG,209.90,T,,M,0.42,N,0.78,K,D*33
$GPGGA,220033.500,4739.0668,N,12215.7793,W,2,09,0.85,-0.2,M,-17.3,M,0000,0000*75
$GPVTG,209.35,T,,M,0.48,N,0.88,K,D*39
$GPGGA,220033.750,4739.0668,N,12215.7794,W,2,09,0.85,-0.2,M,-17.3,M,0000,0000*75
$GPVTG,208.97,T,,M,0.50,N,0.92,K,D*32
$GPGGA,220034.000,4739.0668,N,12215.7794,W,2,09,0.85,-0.2,M,-17.3,M,0000,0000*70
$GPVTG,209.12,T,,M,0.54,N,1.00,K,D*30
$GPGGA,220034.250,4739.0667,N,12215.7794,W,2,09,0.85,-0.2,M,-17.3,M,0000,0000*78
$GPRMC,220034.250,A,4739.0667,N,12215.7794,W,0.48,209.08,230822,,,D*79
$GPVTG,209.08,T,,M,0.48,N,0.89,K,D*36
$GPGGA,220034.500,4739.0667,N,12215.7794,W,2,09,0.85,-0.2,M,-17.3,M,0000,0000*7A
$GPVTG,209.22,T,,M,0.44,N,0.82,K,D*39
$GPGGA,220034.750,4739.0667,N,12215.7794,W,2,09,0.85,-0.1,M,-17.3,M,0000,0000*7E
$GPVTG,208.85,T,,M,0.45,N,0.83,K,D*35
$GPGGA,220035.000,4739.0667,N,12215.7795,W,2,09,0.85,-0.1,M,-17.3,M,0000,0000*7C
$GPVTG,208.02,T,,M,0.49,N,0.90,K,D*34
$GPGGA,220035.250,4739.0666,N,12215.7795,W,2,09,0.85,-0.1,M,-17.3,M,0000,0000*7A
$GPRMC,220035.250,A,4739.0666,N,12215.7795,W,0.51,207.99,230822,,,D*76
$GPVTG,207.99,T,,M,0.51,N,0.94,K,D*34
$GPGGA,220035.500,4739.0666,N,12215.7795,W,2,09,0.85,-0.1,M,-17.3,M,0000,0000*78
$GPVTG,206.94,T,,M,0.49,N,0.91,K,D*34
$GPGGA,220035.750,4739.0666,N,12215.7795,W,2,09,0.85,-0.1,M,-17.3,M,0000,0000*7F
$GPVTG,206.12,T,,M,0.43,N,0.79,K,D*36
$GPGGA,220036.000,4739.0665,N,12215.7795,W,2,09,0.85,-0.1,M,-17.3,M,0000,0000*7D
$GPVTG,205.74,T,,M,0.43,N,0.79,K,D*35
$GPGGA,220036.250,4739.0665,N,12215.7795,W,2,09,0.85,-0.1,M,-17.3,M,0000,0000*7A
$GPRMC,220036.250,A,4739.0665,N,12215.7795,W,0.47,204.70,230822,,,D*75
$GPVTG,204.70,T,,M,0.47,N,0.88,K,D*3A
$GPGGA,220036.500,4739.0665,N,12215.7795,W,2,09,0.85,-0.1,M,-17.3,M,0000,0000*78
$GPVTG,204.06,T,,M,0.43,N,0.80,K,D*37
$GPGGA,220036.750,4739.0664,N,12215.7796,W,2,09,0.85,-0.1,M,-17.3,M,0000,0000*7D
$GPVTG,203.00,T,,M,0.46,N,0.85,K,D*36
$GPGGA,220037.000,4739.0664,N,12215.7796,W,2,09,0.85,-0.1,M,-17.3,M,0000,0000*7E
$GPVTG,201.89,T,,M,0.47,N,0.87,K,D*36
$GPGGA,220037.250,4739.0664,N,12215.7796,W,2,09,0.85,-0.1,M,-17.3,M,0000,0000*79
$GPRMC,220037.250,A,4739.0664,N,12215.7796,W,0.44,200.80,230822,,,D*7E
$GPVTG,200.80,T,,M,0.44,N,0.81,K,D*3B
$GPGGA,220037.500,4739.0663,N,12215.7796,W,2,09,0.85,-0.1,M,-17.3,M,0000,0000*7C
$GPVTG,200.21,T,,M,0.41,N,0.76,K,D*3D
$GPGGA,220037.750,4739.0663,N,12215.7796,W,2,09,0.85,-0.1,M,-17.3,M,0000,0000*7B
$GPVTG,200.34,T,,M,0.38,N,0.70,K,D*31
$GPGGA,220038.000,4739.0663,N,12215.7796,W,2,09,0.85,-0.1,M,-17.3,M,0000,0000*76
$GPVTG,199.69,T,,M,0.42,N,0.77,K,D*30
$GPGGA,220038.250,4739.0663,N,12215.7796,W,2,09,0.85,-0.1,M,-17.3,M,0000,0000*71
$GPRMC,220038.250,A,4739.0663,N,12215.7796,W,0.43,199.12,230822,,,D*79
$GPVTG,199.12,T,,M,0.43,N,0.80,K,D*35
$GPGGA,220038.500,4739.0662,N,12215.7796,W,2,09,0.85,-0.1,M,-17.3,M,0000,0000*72
$GPVTG,198.56,T,,M,0.44,N,0.82,K,D*31
$GPGGA,220038.750,4739.0662,N,12215.7796,W,2,09,0.85,-0.1,M,-17.3,M,0000,0000*75
$GPVTG,198.85,T,,M,0.43,N,0.79,K,D*3C
$GPGGA,220039.000,4739.0662,N,12215.7796,W,2,09,0.85,-0.1,M,-17.3,M,0000,0000*76
$GPVTG,199.33,T,,M,0.40,N,0.75,K,D*3F
$GPGGA,220039.250,4739.0662,N,12215.7796,W,2,09,0.85,-0.1,M,-17.3,M,0000,0000*71
$GPRMC,220039.250,A,4739.0662,N,12215.7796,W,0.39,199.75,230822,,,D*75
$GPVTG,199.75,T,,M,0.39,N,0.72,K,D*34
$GPGGA,220039.500,4739.0661,N,12215.7797,W,2,09,0.85,-0.1,M,-17.3,M,0000,0000*71
$GPVTG,199.91,T,,M,0.41,N,0.76,K,D*35
$GPGGA,220039.750,4739.0661,N,12215.7797,W,2,09,0.85,-0.1,M,-17.3,M,0000,0000*76
$GPVTG,199.43,T,,M,0.41,N,0.75,K,D*39
$GPGGA,220040.000,4739.0661,N,12215.7797,W,2,09,0.85,-0.1,M,-17.3,M,0000,0000*7A
$GPVTG,198.56,T,,M,0.43,N,0.81,K,D*35
$GPGGA,220040.250,4739.0660,N,12215.7797,W,2,09,0.85,-0.1,M,-17.3,M,0000,0000*7C
$GPRMC,220040.250,A,4739.0660,N,12215.7797,W,0.45,198.06,230822,,,D*76
$GPVTG,198.06,T,,M,0.45,N,0.83,K,D*34
$GPGGA,220040.500,4739.0660,N,12215.7797,W,2,09,0.85,-0.1,M,-17.3,M,0000,0000*7E
$GPVTG,197.25,T,,M,0.46,N,0.84,K,D*3E
$GPGGA,220040.750,4739.0660,N,12215.7797,W,2,09,0.85,-0.1,M,-17.3,M,0000,0000*79
$GPVTG,197.10,T,,M,0.40,N,0.74,K,D*31
$GPGGA,220041.000,4739.0660,N,12215.7797,W,2,09,0.85,-0.1,M,-17.3,M,0000,0000*7A
$GPVTG,197.29,T,,M,0.39,N,0.72,K,D*33
$GPGGA,220041.250,4739.0659,N,12215.7797,W,2,09,0.85,-0.2,M,-17.3,M,0000,0000*74
$GPRMC,220041.250,A,4739.0659,N,12215.7797,W,0.37,197.53,230822,,,D*77
$GPVTG,197.53,T,,M,0.37,N,0.68,K,D*3B
$GPGGA,220041.500,4739.0659,N,12215.7797,W,2,09,0.85,-0.1,M,-17.3,M,0000,0000*75
$GPVTG,198.14,T,,M,0.36,N,0.67,K,D*39
$GPGGA,220041.750,4739.0659,N,12215.7798,W,2,09,0.85,-0.1,M,-17.3,M,0000,0000*7D
$GPVTG,198.87,T,,M,0.40,N,0.73,K,D*37
$GPGGA,220042.000,4739.0659,N,12215.7798,W,2,09,0.85,-0.1,M,-17.3,M,0000,0000*7C
$GPVTG,198.74,T,,M,0.41,N,0.76,K,D*3F
$GPGGA,220042.250,4739.0658,N,12215.7798,W,2,09,0.85,-0.1,M,-17.3,M,0000,0000*7A
$GPRMC,220042.250,A,4739.0658,N,12215.7798,W,0.51,197.85,230822,,,D*71
$GPVTG,197.85,T,,M,0.51,N,0.94,K,D*33
$GPGGA,220042.500,4739.0658,N,12215.7798,W,2,09,0.85,-0.1,M,-17.3,M,0000,0000*78
$GPVTG,197.80,T,,M,0.41,N,0.76,K,D*3B
$GPGGA,220042.750,4739.0658,N,12215.7798,W,2,09,0.85,-0.2,M,-17.3,M,0000,0000*7C
$GPVTG,198.92,T,,M,0.40,N,0.74,K,D*34
$GPGGA,220043.000,4739.0658,N,12215.7798,W,2,09,0.85,-0.2,M,-17.3,M,0000,0000*7F
$GPVTG,199.96,T,,M,0.42,N,0.78,K,D*3F
$GPGGA,220043.250,4739.0657,N,12215.7799,W,2,09,0.85,-0.2,M,-17.3,M,0000,0000*76
$GPRMC,220043.250,A,4739.0657,N,12215.7799,W,0.31,200.99,230822,,,D*78
$GPVTG,200.99,T,,M,0.31,N,0.57,K,D*3A
$GPGGA,220043.500,4739.0657,N,12215.7799,W,2,09,0.85,-0.1,M,-17.3,M,0000,0000*77
$GPVTG,200.52,T,,M,0.39,N,0.72,K,D*32
$GPGGA,220043.750,4739.0657,N,12215.7799,W,2,09,0.85,-0.1,M,-17.3,M,0000,0000*70
$GPVTG,199.36,T,,M,0.41,N,0.75,K,D*3B
$GPGGA,220044.000,4739.0657,N,12215.7799,W,2,09,0.85,-0.1,M,-17.3,M,0000,0000*75
$GPVTG,198.84,T,,M,0.41,N,0.76,K,D*30
$GPGGA,220044.250,4739.0656,N,12215.7799,W,2,09,0.85,-0.2,M,-17.3,M,0000,0000*70
$GPRMC,220044.250,A,4739.0656,N,12215.7799,W,0.36,200.44,230822,,,D*79
$GPVTG,200.44,T,,M,0.36,N,0.66,K,D*3F
$GPGGA,220044.500,4739.0656,N,12215.7799,W,2,09,0.85,-0.2,M,-17.3,M,0000,0000*72
$GPVTG,202.26,T,,M,0.42,N,0.79,K,D*34
$GPGGA,220044.750,4739.0656,N,12215.7800,W,2,09,0.85,-0.2,M,-17.3,M,0000,0000*7A
$GPVTG,203.22,T,,M,0.30,N,0.56,K,D*39
$GPGGA,220045.000,4739.0656,N,12215.7800,W,2,09,0.85,-0.1,M,-17.3,M,0000,0000*7A
$GPVTG,204.00,T,,M,0.38,N,0.71,K,D*33
$GPGGA,220045.250,4739.0656,N,12215.7800,W,2,09,0.85,-0.1,M,-17.3,M,0000,0000*7D
$GPRMC,220045.250,A,4739.0656,N,12215.7800,W,0.31,203.61,230822,,,D*74
$GPVTG,203.61,T,,M,0.31,N,0.57,K,D*3E
$GPGGA,220045.500,4739.0655,N,12215.7800,W,2,09,0.85,-0.1,M,-17.3,M,0000,0000*7C
$GPVTG,202.19,T,,M,0.37,N,0.68,K,D*3A
$GPGGA,220045.750,4739.0655,N,12215.7800,W,2,09,0.85,-0.1,M,-17.3,M,0000,0000*7B
$GPVTG,200.56,T,,M,0.39,N,0.73,K,D*37
$GPGGA,220046.000,4739.0655,N,12215.7800,W,2,09,0.85,-0.1,M,-17.3,M,0000,0000*7A
$GPVTG,201.01,T,,M,0.39,N,0.72,K,D*35
$GPGGA,220046.250,4739.0655,N,12215.7800,W,2,09,0.85,-0.1,M,-17.3,M,0000,0000*7D
$GPRMC,220046.250,A,4739.0655,N,12215.7800,W,0.38,202.22,230822,,,D*7B
$GPVTG,202.22,T,,M,0.38,N,0.71,K,D*35
$GPGGA,220046.500,4739.0654,N,12215.7801,W,2,09,0.85,-0.1,M,-17.3,M,0000,0000*7F
$GPVTG,204.40,T,,M,0.30,N,0.56,K,D*3A
$GPGGA,220046.750,4739.0654,N,12215.7801,W,2,09,0.85,-0.1,M,-17.3,M,0000,0000*78
$GPVTG,205.47,T,,M,0.29,N,0.53,K,D*31
$GPGGA,220047.000,4739.0654,N,12215.7801,W,2,09,0.85,-0.1,M,-17.3,M,0000,0000*7B
$GPVTG,204.96,T,,M,0.24,N,0.45,K,D*36
$GPGGA,220047.250,4739.0654,N,12215.7801,W,2,09,0.85,-0.1,M,-17.3,M,0000,0000*7C
$GPRMC,220047.250,A,4739.0654,N,12215.7801,W,0.33,203.78,230822,,,D*7F
$GPVTG,203.78,T,,M,0.33,N,0.60,K,D*30
$GPGGA,220047.500,4739.0654,N,12215.7801,W,2,09,0.85,-0.1,M,-17.3,M,0000,0000*7E
$GPVTG,201.97,T,,M,0.31,N,0.57,K,D*35
$GPGGA,220047.750,4739.0654,N,12215.7801,W,2,09,0.85,-0.1,M,-17.3,M,0000,0000*79
$GPVTG,201.81,T,,M,0.25,N,0.47,K,D*36
$GPGGA,220048.000,4739.0653,N,12215.7801,W,2,09,0.85,-0.1,M,-17.3,M,0000,0000*73
$GPVTG,202.57,T,,M,0.30,N,0.55,K,D*39
$GPGGA,220048.250,4739.0653,N,12215.7801,W,2,09,0.85,-0.1,M,-17.3,M,0000,0000*74
$GPRMC,220048.250,A,4739.0653,N,12215.7801,W,0.29,203.72,230822,,,D*76
$GPVTG,203.72,T,,M,0.29,N,0.53,K,D*31
$GPGGA,220048.500,4739.0653,N,12215.7801,W,2,09,0.85,-0.1,M,-17.3,M,0000,0000*76
$GPVTG,203.58,T,,M,0.18,N,0.33,K,D*3D
$GPGGA,220048.750,4739.0653,N,12215.7802,W,2,09,0.85,-0.1,M,-17.3,M,0000,0000*72
$GPVTG,202.58,T,,M,0.17,N,0.32,K,D*32
$GPGGA,220049.000,4739.0653,N,12215.7802,W,2,09,0.85,-0.1,M,-17.3,M,0000,0000*71
$GPVTG,200.63,T,,M,0.25,N,0.46,K,D*3A
$GPGGA,220049.250,4739.0653,N,12215.7801,W,2,09,0.85,-0.1,M,-17.3,M,0000,0000*75
$GPRMC,220049.250,A,4739.0653,N,12215.7801,W,0.31,198.76,230822,,,D*7B
$GPVTG,198.76,T,,M,0.31,N,0.58,K,D*36
$GPGGA,220049.500,4739.0652,N,12215.7801,W,2,09,0.85,-0.1,M,-17.3,M,0000,0000*76
$GPVTG,198.09,T,,M,0.38,N,0.70,K,D*3D
$GPGGA,220049.750,4739.0652,N,12215.7801,W,2,09,0.85,-0.1,M,-17.3,M,0000,0000*71
$GPVTG,197.77,T,,M,0.37,N,0.69,K,D*3C
$GPGGA,220050.000,4739.0652,N,12215.7802,W,2,09,0.85,-0.1,M,-17.3,M,0000,0000*78
$GPVTG,197.79,T,,M,0.29,N,0.53,K,D*34
$GPGGA,220050.250,4739.0652,N,12215.7802,W,2,09,0.85,-0.1,M,-17.3,M,0000,0000*7F
$GPRMC,220050.250,A,4739.0652,N,12215.7802,W,0.15,197.79,230822,,,D*77
$GPVTG,197.79,T,,M,0.15,N,0.27,K,D*38
$GPGGA,220050.500,4739.0652,N,12215.7802,W,2,09,0.85,-0.1,M,-17.3,M,0000,0000*7D
$GPVTG,196.07,T,,M,0.22,N,0.40,K,D*35
$GPGGA,220050.750,4739.0652,N,12215.7802,W,2,09,0.85,-0.1,M,-17.3,M,0000,0000*7A
$GPVTG,193.75,T,,M,0.27,N,0.50,K,D*31
$GPGGA,220051.000,4739.0651,N,12215.7801,W,2,09,0.85,-0.1,M,-17.3,M,0000,0000*79
$GPVTG,191.34,T,,M,0.34,N,0.64,K,D*33
$GPGGA,220051.250,4739.0651,N,12215.7801,W,2,09,0.85,-0.1,M,-17.3,M,0000,0000*7E
$GPRMC,220051.250,A,4739.0651,N,12215.7801,W,0.36,190.85,230822,,,D*73
$GPVTG,190.85,T,,M,0.36,N,0.67,K,D*39
$GPGGA,220051.500,4739.0651,N,12215.7801,W,2,09,0.85,-0.1,M,-17.3,M,0000,0000*7C
$GPVTG,190.24,T,,M,0.32,N,0.59,K,D*3B
$GPGGA,220051.750,4739.0651,N,12215.7801,W,2,09,0.85,-0.1,M,-17.3,M,0000,0000*7B
$GPVTG,189.59,T,,M,0.17,N,0.32,K,D*33
$GPGGA,220052.000,4739.0651,N,12215.7801,W,2,09,0.85,-0.1,M,-17.3,M,0000,0000*7A
$GPVTG,187.63,T,,M,0.24,N,0.45,K,D*34
$GPGGA,220052.250,4739.0650,N,12215.7801,W,2,09,0.85,-0.1,M,-17.3,M,0000,0000*7C
$GPRMC,220052.250,A,4739.0650,N,12215.7801,W,0.32,184.82,230822,,,D*77
$GPVTG,184.82,T,,M,0.32,N,0.59,K,D*32
$GPGGA,220052.500,4739.0650,N,12215.7801,W,2,09,0.85,-0.1,M,-17.3,M,0000,0000*7E
$GPVTG,181.76,T,,M,0.43,N,0.79,K,D*38
$GPGGA,220052.750,4739.0650,N,12215.7801,W,2,09,0.85,-0.1,M,-17.3,M,0000,0000*79
$GPVTG,180.52,T,,M,0.42,N,0.78,K,D*3F
$GPGGA,220053.000,4739.0650,N,12215.7801,W,2,09,0.85,-0.1,M,-17.3,M,0000,0000*7A
$GPVTG,181.50,T,,M,0.45,N,0.83,K,D*3F
$GPGGA,220053.250,4739.0649,N,12215.7801,W,2,09,0.85,-0.1,M,-17.3,M,0000,0000*75
$GPRMC,220053.250,A,4739.0649,N,12215.7801,W,0.45,179.96,230822,,,D*79
$GPVTG,179.96,T,,M,0.45,N,0.83,K,D*32
$GPGGA,220053.500,4739.0649,N,12215.7801,W,2,09,0.85,-0.1,M,-17.3,M,0000,0000*77
$GPVTG,178.71,T,,M,0.39,N,0.73,K,D*3E
$GPGGA,220053.750,4739.0649,N,12215.7801,W,2,09,0.85,-0.1,M,-17.3,M,0000,0000*70
$GPVTG,177.01,T,,M,0.38,N,0.71,K,D*35
$GPGGA,220054.000,4739.0649,N,12215.7800,W,2,09,0.85,-0.1,M,-17.3,M,0000,0000*74
$GPVTG,175.11,T,,M,0.36,N,0.67,K,D*3F
$GPGGA,220054.250,4739.0648,N,12215.7800,W,2,09,0.85,-0.1,M,-17.3,M,0000,0000*72
$GPRMC,220054.250,A,4739.0648,N,12215.7800,W,0.46,173.55,230822,,,D*78
$GPVTG,173.55,T,,M,0.46,N,0.85,K,D*32
$GPGGA,220054.500,4739.0648,N,12215.7800,W,2,09,0.85,-0.1,M,-17.3,M,0000,0000*70
$GPVTG,174.85,T,,M,0.45,N,0.84,K,D*3A
$GPGGA,220054.750,4739.0648,N,12215.7800,W,2,09,0.85,-0.1,M,-17.3,M,0000,0000*77
$GPVTG,176.54,T,,M,0.44,N,0.81,K,D*30
$GPGGA,220055.000,4739.0647,N,12215.7800,W,2,09,0.85,0.0,M,-17.3,M,0000,0000*57
$GPVTG,176.92,T,,M,0.37,N,0.69,K,D*38
$GPGGA,220055.250,4739.0647,N,12215.7800,W,2,09,0.85,0.0,M,-17.3,M,0000,0000*50
$GPRMC,220055.250,A,4739.0647,N,12215.7800,W,0.33,177.06,230822,,,D*76
$GPVTG,177.06,T,,M,0.33,N,0.61,K,D*38
$GPGGA,220055.500,4739.0647,N,12215.7800,W,2,09,0.85,0.0,M,-17.3,M,0000,0000*52
$GPVTG,176.07,T,,M,0.40,N,0.74,K,D*38
$GPGGA,220055.750,4739.0647,N,12215.7800,W,2,09,0.85,0.0,M,-17.3,M,0000,0000*55
$GPVTG,174.52,T,,M,0.43,N,0.79,K,D*34
$GPGGA,220056.000,4739.0646,N,12215.7800,W,2,09,0.85,0.0,M,-17.3,M,0000,0000*55
$GPVTG,173.71,T,,M,0.44,N,0.82,K,D*31
$GPGGA,220056.250,4739.0646,N,12215.7800,W,2,09,0.85,0.1,M,-17.3,M,0000,0000*53
$GPRMC,220056.250,A,4739.0646,N,12215.7800,W,0.42,174.24,230822,,,D*71
$GPVTG,174.24,T,,M,0.42,N,0.78,K,D*35
$GPGGA,220056.500,4739.0646,N,12215.7800,W,2,09,0.85,0.1,M,-17.3,M,0000,0000*51
$GPVTG,175.05,T,,M,0.45,N,0.82,K,D*35
$GPGGA,220056.750,4739.0646,N,12215.7800,W,2,09,0.85,0.1,M,-17.3,M,0000,0000*56
$GPVTG,175.75,T,,M,0.37,N,0.68,K,D*33
$GPGGA,220057.000,4739.0645,N,12215.7800,W,2,09,0.85,0.1,M,-17.3,M,0000,0000*56
$GPVTG,176.09,T,,M,0.41,N,0.76,K,D*35
$GPGGA,220057.250,4739.0645,N,12215.7800,W,2,09,0.85,0.1,M,-17.3,M,0000,0000*51
$GPRMC,220057.250,A,4739.0645,N,12215.7800,W,0.36,175.74,230822,,,D*74
$GPVTG,175.74,T,,M,0.36,N,0.66,K,D*3D
$GPGGA,220057.500,4739.0645,N,12215.7800,W,2,09,0.85,0.2,M,-17.3,M,0000,0000*50
$GPVTG,174.39,T,,M,0.34,N,0.64,K,D*35
$GPGGA,220057.750,4739.0645,N,12215.7800,W,2,09,0.85,0.2,M,-17.3,M,0000,0000*57
$GPVTG,173.60,T,,M,0.22,N,0.40,K,D*3F
$GPGGA,220058.000,4739.0644,N,12215.7799,W,2,09,0.85,0.2,M,-17.3,M,0000,0000*54
$GPVTG,172.77,T,,M,0.34,N,0.64,K,D*39
$GPGGA,220058.250,4739.0644,N,12215.7799,W,2,09,0.85,0.2,M,-17.3,M,0000,0000*53
$GPRMC,220058.250,A,4739.0644,N,12215.7799,W,0.35,172.55,230822,,,D*72
$GPVTG,172.55,T,,M,0.35,N,0.66,K,D*3A
$GPGGA,220058.500,4739.0644,N,12215.7799,W,2,09,0.85,0.2,M,-17.3,M,0000,0000*51
$GPVTG,173.43,T,,M,0.41,N,0.75,K,D*3D
$GPGGA,220058.750,4739.0644,N,12215.7799,W,2,09,0.85,0.2,M,-17.3,M,0000,0000*56
$GPVTG,174.29,T,,M,0.36,N,0.66,K,D*34
$GPGGA,220059.000,4739.0643,N,12215.7799,W,2,09,0.85,0.2,M,-17.3,M,0000,0000*52
$GPVTG,174.92,T,,M,0.33,N,0.61,K,D*36
$GPGGA,220059.250,4739.0643,N,12215.7799,W,2,09,0.85,0.3,M,-17.3,M,0000,0000*54
$GPRMC,220059.250,A,4739.0643,N,12215.7799,W,0.43,174.31,230822,,,D*71
$GPVTG,174.31,T,,M,0.43,N,0.79,K,D*31
$GPGGA,220059.500,4739.0643,N,12215.7799,W,2,09,0.85,0.3,M,-17.3,M,0000,0000*56
$GPVTG,172.79,T,,M,0.51,N,0.94,K,D*3B
$GPGGA,220059.750,4739.0643,N,12215.7799,W,2,09,0.85,0.3,M,-17.3,M,0000,0000*51
$GPVTG,171.84,T,,M,0.43,N,0.79,K,D*3A
$GPGGA,220100.000,4739.0642,N,12215.7799,W,2,09,0.85,0.3,M,-17.3,M,0000,0000*5F
$GPVTG,172.31,T,,M,0.25,N,0.47,K,D*3A
$GPGGA,220100.250,4739.0642,N,12215.7799,W,2,09,0.85,0.3,M,-17.3,M,0000,0000*58
$GPRMC,220100.250,A,4739.0642,N,12215.7799,W,0.26,172.92,230822,,,D*71
$GPVTG,172.92,T,,M,0.26,N,0.47,K,D*30
$GPGGA,220100.500,4739.0642,N,12215.7799,W,2,09,0.85,0.3,M,-17.3,M,0000,0000*5A
$GPVTG,172.93,T,,M,0.24,N,0.45,K,D*31
$GPGGA,220100.750,4739.0642,N,12215.7799,W,2,09,0.85,0.3,M,-17.3,M,0000,0000*5D
$GPVTG,172.72,T,,M,0.23,N,0.42,K,D*3E
$GPGGA,220101.000,4739.0642,N,12215.7799,W,2,09,0.85,0.4,M,-17.3,M,0000,0000*59
$GPVTG,172.25,T,,M,0.26,N,0.48,K,D*33
$GPGGA,220101.250,4739.0641,N,12215.7799,W,2,09,0.85,0.4,M,-17.3,M,0000,0000*5D
$GPRMC,220101.250,A,4739.0641,N,12215.7799,W,0.33,170.78,230822,,,D*71
$GPVTG,170.78,T,,M,0.33,N,0.61,K,D*36
$GPGGA,220101.500,4739.0641,N,12215.7799,W,2,09,0.85,0.4,M,-17.3,M,0000,0000*5F
$GPVTG,169.72,T,,M,0.38,N,0.70,K,D*3F
$GPGGA,220101.750,4739.0641,N,12215.7798,W,2,09,0.85,0.4,M,-17.3,M,0000,0000*59
$GPVTG,169.45,T,,M,0.36,N,0.66,K,D*32
$GPGGA,220102.000,4739.0641,N,12215.7798,W,2,09,0.85,0.4,M,-17.3,M,0000,0000*58
$GPVTG,169.61,T,,M,0.33,N,0.62,K,D*35
$GPGGA,220102.250,4739.0640,N,12215.7798,W,2,09,0.85,0.4,M,-17.3,M,0000,0000*5E
$GPRMC,220102.250,A,4739.0640,N,12215.7798,W,0.24,169.99,230822,,,D*73
$GPVTG,169.99,T,,M,0.24,N,0.44,K,D*30
$GPGGA,220102.500,4739.0640,N,12215.7798,W,2,09,0.85,0.4,M,-17.3,M,0000,0000*5C
$GPVTG,169.67,T,,M,0.21,N,0.39,K,D*3E
$GPGGA,220102.750,4739.0640,N,12215.7798,W,2,09,0.85,0.4,M,-17.3,M,0000,0000*5B
$GPVTG,169.52,T,,M,0.21,N,0.38,K,D*39
$GPGGA,220103.000,4739.0640,N,12215.7798,W,2,09,0.85,0.4,M,-17.3,M,0000,0000*58
$GPVTG,168.67,T,,M,0.26,N,0.48,K,D*3E
$GPGGA,220103.250,4739.0640,N,12215.7798,W,2,09,0.85,0.4,M,-17.3,M,0000,0000*5F
$GPRMC,220103.250,A,4739.0640,N,12215.7798,W,0.30,168.09,230822,,,D*7F
$GPVTG,168.09,T,,M,0.30,N,0.56,K,D*3E
$GPGGA,220103.500,4739.0640,N,12215.7798,W,2,09,0.85,0.4,M,-17.3,M,0000,0000*5D
$GPVTG,167.82,T,,M,0.23,N,0.43,K,D*34
$GPGGA,220103.750,4739.0640,N,12215.7798,W,2,09,0.85,0.4,M,-17.3,M,0000,0000*5A
$GPVTG,168.55,T,,M,0.27,N,0.49,K,D*3F
$GPGGA,220104.000,4739.0639,N,12215.7798,W,2,09,0.85,0.4,M,-17.3,M,0000,0000*51
$GPVTG,169.28,T,,M,0.32,N,0.60,K,D*3B
$GPGGA,220104.250,4739.0639,N,12215.7798,W,2,09,0.85,0.4,M,-17.3,M,0000,0000*56
$GPRMC,220104.250,A,4739.0639,N,12215.7798,W,0.32,169.80,230822,,,D*74
$GPVTG,169.80,T,,M,0.32,N,0.59,K,D*33
$GPGGA,220104.500,4739.0639,N,12215.7798,W,2,09,0.85,0.4,M,-17.3,M,0000,0000*54
$GPVTG,169.51,T,,M,0.26,N,0.49,K,D*3B
$GPGGA,220104.750,4739.0639,N,12215.7798,W,2,09,0.85,0.4,M,-17.3,M,0000,0000*53
$GPVTG,169.12,T,,M,0.16,N,0.30,K,D*31
$GPGGA,220105.000,4739.0639,N,12215.7798,W,2,09,0.85,0.4,M,-17.3,M,0000,0000*50
$GPVTG,168.97,T,,M,0.24,N,0.45,K,D*3E
$GPGGA,220105.250,4739.0638,N,12215.7798,W,2,09,0.85,0.4,M,-17.3,M,0000,0000*56
$GPRMC,220105.250,A,4739.0638,N,12215.7798,W,0.35,170.03,230822,,,D*70
$GPVTG,170.03,T,,M,0.35,N,0.66,K,D*3B
$GPGGA,220105.500,4739.0638,N,12215.7798,W,2,09,0.85,0.4,M,-17.3,M,0000,0000*54
$GPVTG,171.24,T,,M,0.39,N,0.73,K,D*37
$GPGGA,220105.750,4739.0638,N,12215.7798,W,2,09,0.85,0.4,M,-17.3,M,0000,0000*53
$GPVTG,171.10,T,,M,0.36,N,0.66,K,D*3B
$GPGGA,220106.000,4739.0638,N,12215.7798,W,2,09,0.85,0.4,M,-17.3,M,0000,0000*52
$GPVTG,170.32,T,,M,0.33,N,0.60,K,D*39
$GPGGA,220106.250,4739.0637,N,12215.7797,W,2,09,0.85,0.4,M,-17.3,M,0000,0000*55
$GPRMC,220106.250,A,4739.0637,N,12215.7797,W,0.31,170.25,230822,,,D*73
$GPVTG,170.25,T,,M,0.31,N,0.57,K,D*39
$GPGGA,220106.500,4739.0637,N,12215.7797,W,2,09,0.85,0.4,M,-17.3,M,0000,0000*57
$GPVTG,170.78,T,,M,0.34,N,0.64,K,D*34
$GPGGA,220106.750,4739.0637,N,12215.7797,W,2,09,0.85,0.4,M,-17.3,M,0000,0000*50
$GPVTG,171.71,T,,M,0.37,N,0.69,K,D*32
$GPGGA,220107.000,4739.0637,N,12215.7797,W,2,09,0.85,0.4,M,-17.3,M,0000,0000*53
$GPVTG,172.59,T,,M,0.35,N,0.65,K,D*35
$GPGGA,220107.250,4739.0636,N,12215.7797,W,2,09,0.85,0.4,M,-17.3,M,0000,0000*55
$GPRMC,220107.250,A,4739.0636,N,12215.7797,W,0.37,173.00,230822,,,D*71
$GPVTG,173.00,T,,M,0.37,N,0.68,K,D*37
$GPGGA,220107.500,4739.0636,N,12215.7797,W,2,09,0.85,0.4,M,-17.3,M,0000,0000*57
$GPVTG,173.16,T,,M,0.36,N,0.66,K,D*3F
$GPGGA,220107.750,4739.0636,N,12215.7797,W,2,09,0.85,0.4,M,-17.3,M,0000,0000*50
$GPVTG,173.19,T,,M,0.40,N,0.73,K,D*35
$GPGGA,220108.000,4739.0636,N,12215.7797,W,2,09,0.85,0.4,M,-17.3,M,0000,0000*5D
$GPVTG,173.68,T,,M,0.40,N,0.75,K,D*35
$GPGGA,220108.250,4739.0635,N,12215.7797,W,2,09,0.85,0.4,M,-17.3,M,0000,0000*59
$GPRMC,220108.250,A,4739.0635,N,12215.7797,W,0.37,174.58,230822,,,D*77
$GPVTG,174.58,T,,M,0.37,N,0.68,K,D*3D
$GPGGA,220108.500,4739.0635,N,12215.7797,W,2,09,0.85,0.4,M,-17.3,M,0000,0000*5B
$GPVTG,175.87,T,,M,0.34,N,0.62,K,D*37
$GPGGA,220108.750,4739.0635,N,12215.7797,W,2,09,0.85,0.4,M,-17.3,M,0000,0000*5C
$GPVTG,176.91,T,,M,0.38,N,0.71,K,D*3D
$GPGGA,220109.000,4739.0635,N,12215.7798,W,2,09,0.85,0.4,M,-17.3,M,0000,0000*50
$GPVTG,177.26,T,,M,0.47,N,0.88,K,D*3E
$GPGGA,220109.250,4739.0634,N,12215.7798,W,2,09,0.85,0.4,M,-17.3,M,0000,0000*56
$GPRMC,220109.250,A,4739.0634,N,12215.7798,W,0.48,177.55,230822,,,D*7E
$GPVTG,177.55,T,,M,0.48,N,0.90,K,D*3C
$GPGGA,220109.500,4739.0634,N,12215.7798,W,2,09,0.85,0.4,M,-17.3,M,0000,0000*54
$GPVTG,176.77,T,,M,0.46,N,0.86,K,D*34
$GPGGA,220109.750,4739.0634,N,12215.7797,W,2,09,0.85,0.4,M,-17.3,M,0000,0000*5C
$GPVTG,176.56,T,,M,0.45,N,0.83,K,D*31
$GPGGA,220110.000,4739.0633,N,12215.7797,W,2,09,0.85,0.4,M,-17.3,M,0000,0000*51
$GPVTG,176.46,T,,M,0.46,N,0.84,K,D*34
$GPGGA,220110.250,4739.0633,N,12215.7797,W,2,09,0.85,0.4,M,-17.3,M,0000,0000*56
$GPRMC,220110.250,A,4739.0633,N,12215.7797,W,0.42,177.50,230822,,,D*71
$GPVTG,177.50,T,,M,0.42,N,0.78,K,D*35
$GPGGA,220110.500,4739.0633,N,12215.7797,W,2,09,0.85,0.4,M,-17.3,M,0000,0000*54
$GPVTG,179.06,T,,M,0.44,N,0.82,K,D*3B
$GPGGA,220110.750,4739.0632,N,12215.7798,W,2,09,0.85,0.4,M,-17.3,M,0000,0000*5D
$GPVTG,180.24,T,,M,0.40,N,0.74,K,D*30
$GPGGA,220111.000,4739.0632,N,12215.7798,W,2,09,0.85,0.4,M,-17.3,M,0000,0000*5E
$GPVTG,180.74,T,,M,0.33,N,0.62,K,D*36
$GPGGA,220111.250,4739.0632,N,12215.7798,W,2,09,0.85,0.4,M,-17.3,M,0000,0000*59
$GPRMC,220111.250,A,4739.0632,N,12215.7798,W,0.36,180.89,230822,,,D*71
$GPVTG,180.89,T,,M,0.36,N,0.67,K,D*34
$GPGGA,220111.500,4739.0632,N,12215.7798,W,2,09,0.85,0.4,M,-17.3,M,0000,0000*5B
$GPVTG,180.66,T,,M,0.38,N,0.70,K,D*3D
$GPGGA,220111.750,4739.0631,N,12215.7798,W,2,09,0.85,0.4,M,-17.3,M,0000,0000*5F
$GPVTG,180.69,T,,M,0.45,N,0.84,K,D*33
$GPGGA,220112.000,4739.0631,N,12215.7798,W,2,09,0.85,0.4,M,-17.3,M,0000,0000*5E
$GPVTG,181.17,T,,M,0.41,N,0.76,K,D*32
$GPGGA,220112.250,4739.0631,N,12215.7798,W,2,09,0.85,0.4,M,-17.3,M,0000,0000*59
$GPRMC,220112.250,A,4739.0631,N,12215.7798,W,0.47,182.20,230822,,,D*76
$GPVTG,182.20,T,,M,0.47,N,0.86,K,D*3C
$GPGGA,220112.500,4739.0631,N,12215.7798,W,2,09,0.85,0.4,M,-17.3,M,0000,0000*5B
$GPVTG,183.09,T,,M,0.46,N,0.86,K,D*37
$GPGGA,220112.750,4739.0630,N,12215.7798,W,2,09,0.85,0.4,M,-17.3,M,0000,0000*5D
$GPVTG,183.62,T,,M,0.37,N,0.68,K,D*3C
$GPGGA,220113.000,4739.0630,N,12215.7798,W,2,09,0.85,0.4,M,-17.3,M,0000,0000*5E
$GPVTG,184.44,T,,M,0.32,N,0.59,K,D*38
$GPGGA,220113.250,4739.0630,N,12215.7798,W,2,09,0.85,0.4,M,-17.3,M,0000,0000*59
$GPRMC,220113.250,A,4739.0630,N,12215.7798,W,0.31,185.11,230822,,,D*72
$GPVTG,185.11,T,,M,0.31,N,0.57,K,D*34
$GPGGA,220113.500,4739.0630,N,12215.7798,W,2,09,0.85,0.4,M,-17.3,M,0000,0000*5B
$GPVTG,185.37,T,,M,0.35,N,0.64,K,D*34
$GPGGA,220113.750,4739.0629,N,12215.7798,W,2,09,0.85,0.4,M,-17.3,M,0000,0000*54
$GPVTG,185.34,T,,M,0.34,N,0.62,K,D*30
$GPGGA,220114.000,4739.0629,N,12215.7798,W,2,09,0.85,0.4,M,-17.3,M,0000,0000*51
$GPVTG,185.68,T,,M,0.38,N,0.70,K,D*36
$GPGGA,220114.250,4739.0629,N,12215.7798,W,2,09,0.85,0.4,M,-17.3,M,0000,0000*56
$GPRMC,220114.250,A,4739.0629,N,12215.7798,W,0.40,185.82,230822,,,D*71
$GPVTG,185.82,T,,M,0.40,N,0.75,K,D*38
$GPGGA,220114.500,4739.0629,N,12215.7799,W,2,09,0.85,0.4,M,-17.3,M,0000,0000*55
$GPVTG,185.88,T,,M,0.42,N,0.77,K,D*32
$GPGGA,220114.750,4739.0628,N,12215.7799,W,2,09,0.85,0.4,M,-17.3,M,0000,0000*53
$GPVTG,186.29,T,,M,0.45,N,0.83,K,D*36
$GPGGA,220115.000,4739.0628,N,12215.7799,W,2,09,0.85,0.4,M,-17.3,M,0000,0000*50
$GPVTG,187.14,T,,M,0.45,N,0.84,K,D*3E
$GPGGA,220115.250,4739.0628,N,12215.7799,W,2,09,0.85,0.4,M,-17.3,M,0000,0000*57
$GPRMC,220115.250,A,4739.0628,N,12215.7799,W,0.46,187.90,230822,,,D*77
$GPVTG,187.90,T,,M,0.46,N,0.85,K,D*30
$GPGGA,220115.500,4739.0627,N,12215.7799,W,2,09,0.85,0.4,M,-17.3,M,0000,0000*5A
$GPVTG,188.76,T,,M,0.46,N,0.85,K,D*37
$GPGGA,220115.750,4739.0627,N,12215.7799,W,2,09,0.85,0.4,M,-17.3,M,0000,0000*5D
$GPVTG,189.75,T,,M,0.39,N,0.72,K,D*35
$GPGGA,220116.000,4739.0627,N,12215.7799,W,2,09,0.85,0.4,M,-17.3,M,0000,0000*5C
$GPVTG,189.96,T,,M,0.33,N,0.61,K,D*30
$GPGGA,220116.250,4739.0627,N,12215.7799,W,2,09,0.85,0.4,M,-17.3,M,0000,0000*5B
$GPRMC,220116.250,A,4739.0627,N,12215.7799,W,0.29,189.86,230822,,,D*7B
$GPVTG,189.86,T,,M,0.29,N,0.54,K,D*3C
$GPGGA,220116.500,4739.0626,N,12215.7799,W,2,09,0.85,0.4,M,-17.3,M,0000,0000*58
$GPVTG,189.15,T,,M,0.44,N,0.81,K,D*35
$GPGGA,220116.750,4739.0626,N,12215.7799,W,2,09,0.85,0.4,M,-17.3,M,0000,0000*5F
$GPVTG,189.52,T,,M,0.54,N,1.00,K,D*3F
$GPGGA,220117.000,4739.0626,N,12215.7800,W,2,09,0.85,0.4,M,-17.3,M,0000,0000*53
$GPVTG,189.32,T,,M,0.46,N,0.85,K,D*36
$GPGGA,220117.250,4739.0625,N,12215.7800,W,2,09,0.85,0.4,M,-17.3,M,0000,0000*57
$GPRMC,220117.250,A,4739.0625,N,12215.7800,W,0.39,190.58,230822,,,D*7D
$GPVTG,190.58,T,,M,0.39,N,0.72,K,D*32
$GPGGA,220117.500,4739.0625,N,12215.7800,W,2,09,0.85,0.4,M,-17.3,M,0000,0000*55
$GPVTG,191.59,T,,M,0.37,N,0.68,K,D*37
$GPGGA,220117.750,4739.0625,N,12215.7800,W,2,09,0.85,0.4,M,-17.3,M,0000,0000*52
$GPVTG,192.46,T,,M,0.36,N,0.67,K,D*34
$GPGGA,220118.000,4739.0625,N,12215.7800,W,2,09,0.85,0.5,M,-17.3,M,0000,0000*5E
$GPVTG,192.78,T,,M,0.41,N,0.77,K,D*38
$GPGGA,220118.250,4739.0624,N,12215.7800,W,2,09,0.85,0.5,M,-17.3,M,0000,0000*58
$GPRMC,220118.250,A,4739.0624,N,12215.7800,W,0.39,192.87,230822,,,D*73
$GPVTG,192.87,T,,M,0.39,N,0.71,K,D*31
$GPGGA,220118.500,4739.0624,N,12215.7800,W,2,09,0.85,0.5,M,-17.3,M,0000,0000*5A
$GPVTG,193.02,T,,M,0.42,N,0.78,K,D*38
$GPGGA,220118.750,4739.0624,N,12215.7800,W,2,09,0.85,0.4,M,-17.3,M,0000,0000*5C
$GPVTG,192.64,T,,M,0.39,N,0.73,K,D*3E
$GPGGA,220119.000,4739.0624,N,12215.7800,W,2,09,0.85,0.4,M,-17.3,M,0000,0000*5F
$GPVTG,193.04,T,,M,0.37,N,0.68,K,D*3D
$GPGGA,220119.250,4739.0623,N,12215.7801,W,2,09,0.85,0.4,M,-17.3,M,0000,0000*5E
$GPRMC,220119.250,A,4739.0623,N,12215.7801,W,0.39,193.37,230822,,,D*7E
$GPVTG,193.37,T,,M,0.39,N,0.72,K,D*38
$GPGGA,220119.500,4739.0623,N,12215.7801,W,2,09,0.85,0.4,M,-17.3,M,0000,0000*5C
$GPVTG,193.75,T,,M,0.33,N,0.61,K,D*36
$GPGGA,220119.750,4739.0623,N,12215.7801,W,2,09,0.85,0.4,M,-17.3,M,0000,0000*5B
$GPVTG,193.51,T,,M,0.44,N,0.82,K,D*3D
$GPGGA,220120.000,4739.0623,N,12215.7801,W,2,09,0.85,0.4,M,-17.3,M,0000,0000*53
$GPVTG,193.47,T,,M,0.44,N,0.81,K,D*39
$GPGGA,220120.250,4739.0622,N,12215.7801,W,2,09,0.85,0.4,M,-17.3,M,0000,0000*55
$GPRMC,220120.250,A,4739.0622,N,12215.7801,W,0.32,193.26,230822,,,D*7E
$GPVTG,193.26,T,,M,0.32,N,0.59,K,D*3A
$GPGGA,220120.500,4739.0622,N,12215.7801,W,2,09,0.85,0.4,M,-17.3,M,0000,0000*57
$GPVTG,193.61,T,,M,0.22,N,0.40,K,D*30
$GPGGA,220120.750,4739.0622,N,12215.7801,W,2,09,0.85,0.4,M,-17.3,M,0000,0000*50
$GPVTG,193.38,T,,M,0.28,N,0.53,K,D*34
$GPGGA,220121.000,4739.0622,N,12215.7801,W,2,09,0.85,0.4,M,-17.3,M,0000,0000*53
$GPVTG,193.87,T,,M,0.43,N,0.79,K,D*35
$GPGGA,220121.250,4739.0621,N,12215.7801,W,2,09,0.85,0.4,M,-17.3,M,0000,0000*57
$GPRMC,220121.250,A,4739.0621,N,12215.7801,W,0.42,193.02,230822,,,D*7D
$GPVTG,193.02,T,,M,0.42,N,0.78,K,D*38
$GPGGA,220121.500,4739.0621,N,12215.7801,W,2,09,0.85,0.4,M,-17.3,M,0000,0000*55
$GPVTG,192.52,T,,M,0.45,N,0.84,K,D*38
$GPGGA,220121.750,4739.0621,N,12215.7801,W,2,09,0.85,0.4,M,-17.3,M,0000,0000*52
$GPVTG,192.42,T,,M,0.40,N,0.75,K,D*32
$GPGGA,220122.000,4739.0621,N,12215.7802,W,2,09,0.85,0.4,M,-17.3,M,0000,0000*50
$GPVTG,192.51,T,,M,0.32,N,0.60,K,D*31
$GPGGA,220122.250,4739.0620,N,12215.7802,W,2,09,0.85,0.4,M,-17.3,M,0000,0000*56
$GPRMC,220122.250,A,4739.0620,N,12215.7802,W,0.31,193.28,230822,,,D*70
$GPVTG,193.28,T,,M,0.31,N,0.58,K,D*36
$GPGGA,220122.500,4739.0620,N,12215.7802,W,2,09,0.85,0.4,M,-17.3,M,0000,0000*54
$GPVTG,193.16,T,,M,0.28,N,0.52,K,D*39
$GPGGA,220122.750,4739.0620,N,12215.7802,W,2,09,0.85,0.5,M,-17.3,M,0000,0000*52
$GPVTG,192.34,T,,M,0.34,N,0.62,K,D*36
$GPGGA,220123.000,4739.0620,N,12215.7802,W,2,09,0.85,0.5,M,-17.3,M,0000,0000*51
$GPVTG,190.56,T,,M,0.42,N,0.78,K,D*3A
$GPGGA,220123.250,4739.0619,N,12215.7802,W,2,09,0.85,0.5,M,-17.3,M,0000,0000*5C
$GPRMC,220123.250,A,4739.0619,N,12215.7802,W,0.49,189.73,230822,,,D*71
$GPVTG,189.73,T,,M,0.49,N,0.90,K,D*38
$GPGGA,220123.500,4739.0619,N,12215.7802,W,2,09,0.85,0.5,M,-17.3,M,0000,0000*5E
$GPVTG,190.27,T,,M,0.33,N,0.61,K,D*32
$GPGGA,220123.750,4739.0619,N,12215.7802,W,2,09,0.85,0.5,M,-17.3,M,0000,0000*59
$GPVTG,191.36,T,,M,0.30,N,0.56,K,D*34
$GPGGA,220124.000,4739.0619,N,12215.7802,W,2,09,0.85,0.4,M,-17.3,M,0000,0000*5D
$GPVTG,192.65,T,,M,0.27,N,0.50,K,D*31
$GPGGA,220124.250,4739.0619,N,12215.7802,W,2,09,0.85,0.5,M,-17.3,M,0000,0000*5B
$GPRMC,220124.250,A,4739.0619,N,12215.7802,W,0.32,193.13,230822,,,D*77
$GPVTG,193.13,T,,M,0.32,N,0.59,K,D*3C
$GPGGA,220124.500,4739.0618,N,12215.7802,W,2,09,0.85,0.5,M,-17.3,M,0000,0000*58
$GPVTG,191.97,T,,M,0.54,N,1.00,K,D*3F
$GPGGA,220124.750,4739.0618,N,12215.7802,W,2,09,0.85,0.5,M,-17.3,M,0000,0000*5F
$GPVTG,190.94,T,,M,0.47,N,0.87,K,D*31
$GPGGA,220125.000,4739.0618,N,12215.7802,W,2,09,0.85,0.5,M,-17.3,M,0000,0000*5C
$GPVTG,189.62,T,,M,0.59,N,1.09,K,D*38
$GPGGA,220125.250,4739.0617,N,12215.7802,W,2,09,0.85,0.4,M,-17.3,M,0000,0000*55
$GPRMC,220125.250,A,4739.0617,N,12215.7802,W,0.53,189.30,230822,,,D*75
$GPVTG,189.30,T,,M,0.53,N,0.98,K,D*3C
$GPGGA,220125.500,4739.0617,N,12215.7802,W,2,09,0.85,0.4,M,-17.3,M,0000,0000*57
$GPVTG,189.15,T,,M,0.26,N,0.48,K,D*34
$GPGGA,220125.750,4739.0617,N,12215.7802,W,2,09,0.85,0.4,M,-17.3,M,0000,0000*50
$GPVTG,189.76,T,,M,0.24,N,0.45,K,D*3E
$GPGGA,220126.000,4739.0617,N,12215.7802,W,2,09,0.85,0.5,M,-17.3,M,0000,0000*50
$GPVTG,189.67,T,,M,0.20,N,0.37,K,D*3F
$GPGGA,220126.250,4739.0616,N,12215.7802,W,2,09,0.85,0.5,M,-17.3,M,0000,0000*56
$GPRMC,220126.250,A,4739.0616,N,12215.7802,W,0.27,189.25,230822,,,D*70
$GPVTG,189.25,T,,M,0.27,N,0.50,K,D*3F
$GPGGA,220126.500,4739.0616,N,12215.7803,W,2,09,0.85,0.4,M,-17.3,M,0000,0000*54
$GPVTG,189.26,T,,M,0.54,N,0.99,K,D*3D
$GPGGA,220126.750,4739.0615,N,12215.7803,W,2,09,0.85,0.4,M,-17.3,M,0000,0000*50
$GPVTG,188.75,T,,M,0.56,N,1.03,K,D*3A
$GPGGA,220127.000,4739.0615,N,12215.7803,W,2,09,0.85,0.3,M,-17.3,M,0000,0000*54
$GPVTG,187.16,T,,M,0.52,N,0.97,K,D*38
$GPGGA,220127.250,4739.0615,N,12215.7803,W,2,09,0.85,0.3,M,-17.3,M,0000,0000*53
$GPRMC,220127.250,A,4739.0615,N,12215.7803,W,0.30,186.26,230822,,,D*79
$GPVTG,186.26,T,,M,0.30,N,0.56,K,D*33
$GPGGA,220127.500,4739.0615,N,12215.7802,W,2,09,0.85,0.4,M,-17.3,M,0000,0000*57
$GPVTG,185.19,T,,M,0.29,N,0.53,K,D*31
$GPGGA,220127.750,4739.0614,N,12215.7802,W,2,09,0.85,0.4,M,-17.3,M,0000,0000*51
$GPVTG,185.62,T,,M,0.30,N,0.55,K,D*33
$GPGGA,220128.000,4739.0614,N,12215.7802,W,2,09,0.85,0.4,M,-17.3,M,0000,0000*5C
$GPVTG,186.43,T,,M,0.32,N,0.58,K,D*3C
$GPGGA,220128.250,4739.0614,N,12215.7802,W,2,09,0.85,0.5,M,-17.3,M,0000,0000*5A
$GPRMC,220128.250,A,4739.0614,N,12215.7802,W,0.37,186.17,230822,,,D*73
$GPVTG,186.17,T,,M,0.37,N,0.69,K,D*3A
$GPGGA,220128.500,4739.0614,N,12215.7802,W,2,09,0.85,0.5,M,-17.3,M,0000,0000*58
$GPVTG,185.86,T,,M,0.45,N,0.83,K,D*30
$GPGGA,220128.750,4739.0613,N,12215.7802,W,2,09,0.85,0.5,M,-17.3,M,0000,0000*58
$GPVTG,184.56,T,,M,0.55,N,1.03,K,D*34
$GPGGA,220129.000,4739.0613,N,12215.7802,W,2,09,0.85,0.5,M,-17.3,M,0000,0000*5B
$GPVTG,183.35,T,,M,0.48,N,0.89,K,D*39
$GPGGA,220129.250,4739.0612,N,12215.7802,W,2,09,0.85,0.5,M,-17.3,M,0000,0000*5D
$GPRMC,220129.250,A,4739.0612,N,12215.7802,W,0.34,182.70,230822,,,D*72
$GPVTG,182.70,T,,M,0.34,N,0.64,K,D*31
$GPGGA,220129.500,4739.0612,N,12215.7802,W,2,09,0.85,0.5,M,-17.3,M,0000,0000*5F
$GPVTG,182.12,T,,M,0.25,N,0.46,K,D*35
$GPGGA,220129.750,4739.0612,N,12215.7802,W,2,09,0.85,0.4,M,-17.3,M,0000,0000*59
$GPVTG,182.25,T,,M,0.29,N,0.53,K,D*39
$GPGGA,220130.000,4739.0612,N,12215.7802,W,2,09,0.85,0.4,M,-17.3,M,0000,0000*53
$GPVTG,182.05,T,,M,0.52,N,0.96,K,D*3E
$GPGGA,220130.250,4739.0612,N,12215.7802,W,2,09,0.85,0.4,M,-17.3,M,0000,0000*54
$GPRMC,220130.250,A,4739.0612,N,12215.7802,W,0.71,182.17,230822,,,D*7A
$GPVTG,182.17,T,,M,0.71,N,1.32,K,D*33
$GPGGA,220130.500,4739.0611,N,12215.7802,W,2,09,0.85,0.5,M,-17.3,M,0000,0000*54
$GPVTG,182.23,T,,M,0.64,N,1.18,K,D*38
$GPGGA,220130.750,4739.0611,N,12215.7802,W,2,09,0.85,0.5,M,-17.3,M,0000,0000*53
$GPVTG,182.12,T,,M,0.38,N,0.71,K,D*3D
$GPGGA,220131.000,4739.0610,N,12215.7802,W,2,09,0.85,0.5,M,-17.3,M,0000,0000*51
$GPVTG,181.32,T,,M,0.22,N,0.40,K,D*35
$GPGGA,220131.250,4739.0610,N,12215.7802,W,2,09,0.85,0.4,M,-17.3,M,0000,0000*57
$GPRMC,220131.250,A,4739.0610,N,12215.7802,W,0.26,180.56,230822,,,D*7C
$GPVTG,180.56,T,,M,0.26,N,0.48,K,D*3A
$GPGGA,220131.500,4739.0610,N,12215.7801,W,2,09,0.85,0.3,M,-17.3,M,0000,0000*51
$GPVTG,180.62,T,,M,0.48,N,0.90,K,D*30
$GPGGA,220131.750,4739.0610,N,12215.7801,W,2,09,0.85,0.3,M,-17.3,M,0000,0000*56
$GPVTG,180.40,T,,M,0.50,N,0.93,K,D*3A
$GPGGA,220132.000,4739.0609,N,12215.7801,W,2,09,0.85,0.3,M,-17.3,M,0000,0000*5F
$GPVTG,180.17,T,,M,0.51,N,0.94,K,D*3E
$GPGGA,220132.250,4739.0609,N,12215.7801,W,2,09,0.85,0.4,M,-17.3,M,0000,0000*5F
$GPRMC,220132.250,A,4739.0609,N,12215.7801,W,0.47,180.11,230822,,,D*70
$GPVTG,180.11,T,,M,0.47,N,0.86,K,D*3C
$GPGGA,220132.500,4739.0609,N,12215.7801,W,2,09,0.85,0.5,M,-17.3,M,0000,0000*5C
$GPVTG,178.68,T,,M,0.39,N,0.72,K,D*37
$GPGGA,220132.750,4739.0608,N,12215.7801,W,2,09,0.85,0.5,M,-17.3,M,0000,0000*5A
$GPVTG,177.96,T,,M,0.36,N,0.66,K,D*33
$GPGGA,220133.000,4739.0608,N,12215.7801,W,2,09,0.85,0.5,M,-17.3,M,0000,0000*59
$GPVTG,177.68,T,,M,0.36,N,0.66,K,D*32
$GPGGA,220133.250,4739.0608,N,12215.7801,W,2,09,0.85,0.4,M,-17.3,M,0000,0000*5F
$GPRMC,220133.250,A,4739.0608,N,12215.7801,W,0.36,179.27,230822,,,D*75
$GPVTG,179.27,T,,M,0.36,N,0.67,K,D*36
$GPGGA,220133.500,4739.0607,N,12215.7801,W,2,09,0.85,0.4,M,-17.3,M,0000,0000*52
$GPVTG,180.03,T,,M,0.39,N,0.72,K,D*3D
$GPGGA,220133.750,4739.0607,N,12215.7801,W,2,09,0.85,0.5,M,-17.3,M,0000,0000*54
$GPVTG,179.83,T,,M,0.44,N,0.81,K,D*35
$GPGGA,220134.000,4739.0606,N,12215.7801,W,2,09,0.85,0.5,M,-17.3,M,0000,0000*50
$GPVTG,178.65,T,,M,0.48,N,0.89,K,D*38
$GPGGA,220134.250,4739.0606,N,12215.7801,W,2,09,0.85,0.5,M,-17.3,M,0000,0000*57
$GPRMC,220134.250,A,4739.0606,N,12215.7801,W,0.45,176.93,230822,,,D*78
$GPVTG,176.93,T,,M,0.45,N,0.83,K,D*38
$GPGGA,220134.500,4739.0606,N,12215.7800,W,2,09,0.85,0.6,M,-17.3,M,0000,0000*57
$GPVTG,176.16,T,,M,0.53,N,0.98,K,D*38
$GPGGA,220134.750,4739.0605,N,12215.7800,W,2,09,0.85,0.5,M,-17.3,M,0000,0000*50
$GPVTG,176.10,T,,M,0.40,N,0.74,K,D*3E
$GPGGA,220135.000,4739.0605,N,12215.7800,W,2,09,0.85,0.4,M,-17.3,M,0000,0000*52
$GPVTG,176.75,T,,M,0.40,N,0.74,K,D*3D
$GPGGA,220135.250,4739.0605,N,12215.7800,W,2,09,0.85,0.4,M,-17.3,M,0000,0000*55
$GPRMC,220135.250,A,4739.0605,N,12215.7800,W,0.32,177.94,230822,,,D*7D
$GPVTG,177.94,T,,M,0.32,N,0.60,K,D*33
$GPGGA,220135.500,4739.0605,N,12215.7800,W,2,09,0.85,0.5,M,-17.3,M,0000,0000*56
$GPVTG,177.25,T,,M,0.37,N,0.69,K,D*35
$GPGGA,220135.750,4739.0604,N,12215.7800,W,2,09,0.85,0.5,M,-17.3,M,0000,0000*50
$GPVTG,178.20,T,,M,0.36,N,0.68,K,D*3F
$GPGGA,220136.000,4739.0604,N,12215.7800,W,2,09,0.85,0.6,M,-17.3,M,0000,0000*52
$GPVTG,176.46,T,,M,0.57,N,1.05,K,D*3C
$GPGGA,220136.250,4739.0604,N,12215.7800,W,2,09,0.85,0.6,M,-17.3,M,0000,0000*55
$GPRMC,220136.250,A,4739.0604,N,12215.7800,W,0.64,174.31,230822,,,D*70
$GPVTG,174.31,T,,M,0.64,N,1.18,K,D*32
$GPGGA,220136.500,4739.0603,N,12215.7800,W,2,09,0.85,0.5,M,-17.3,M,0000,0000*53
$GPVTG,174.10,T,,M,0.37,N,0.68,K,D*31
$GPGGA,220136.750,4739.0603,N,12215.7800,W,2,09,0.85,0.5,M,-17.3,M,0000,0000*54
$GPVTG,174.72,T,,M,0.35,N,0.65,K,D*3A
$GPGGA,220137.000,4739.0603,N,12215.7800,W,2,09,0.85,0.6,M,-17.3,M,0000,0000*54
$GPVTG,176.61,T,,M,0.35,N,0.65,K,D*3A
$GPGGA,220137.250,4739.0603,N,12215.7800,W,2,09,0.85,0.7,M,-17.3,M,0000,0000*52
$GPRMC,220137.250,A,4739.0603,N,12215.7800,W,0.40,176.34,230822,,,D*77
$GPVTG,176.34,T,,M,0.40,N,0.74,K,D*38
$GPGGA,220137.500,4739.0602,N,12215.7800,W,2,09,0.85,0.7,M,-17.3,M,0000,0000*51
$GPVTG,175.89,T,,M,0.38,N,0.71,K,D*37
$GPGGA,220137.750,4739.0602,N,12215.7800,W,2,09,0.85,0.7,M,-17.3,M,0000,0000*56
$GPVTG,175.10,T,,M,0.35,N,0.66,K,D*3C
$GPGGA,220138.000,4739.0602,N,12215.7800,W,2,09,0.85,0.7,M,-17.3,M,0000,0000*5B
$GPVTG,174.98,T,,M,0.36,N,0.67,K,D*3F
$GPGGA,220138.250,4739.0601,N,12215.7800,W,2,09,0.85,0.7,M,-17.3,M,0000,0000*5F
$GPRMC,220138.250,A,4739.0601,N,12215.7800,W,0.37,174.94,230822,,,D*72
$GPVTG,174.94,T,,M,0.37,N,0.69,K,D*3C
$GPGGA,220138.500,4739.0601,N,12215.7799,W,2,09,0.85,0.7,M,-17.3,M,0000,0000*52
$GPVTG,175.34,T,,M,0.39,N,0.72,K,D*33
$GPGGA,220138.750,4739.0600,N,12215.7799,W,2,09,0.85,0.8,M,-17.3,M,0000,0000*5B
$GPVTG,175.78,T,,M,0.43,N,0.79,K,D*3D
$GPGGA,220139.000,4739.0600,N,12215.7799,W,2,09,0.85,0.9,M,-17.3,M,0000,0000*59
$GPVTG,174.83,T,,M,0.59,N,1.10,K,D*3D
$GPGGA,220139.250,4739.0600,N,12215.7799,W,2,09,0.85,0.9,M,-17.3,M,0000,0000*5E
$GPRMC,220139.250,A,4739.0600,N,12215.7799,W,0.43,174.39,230822,,,D*79
$GPVTG,174.39,T,,M,0.43,N,0.80,K,D*3F
$GPGGA,220139.500,4739.0599,N,12215.7799,W,2,09,0.85,0.8,M,-17.3,M,0000,0000*5E
$GPVTG,174.25,T,,M,0.43,N,0.80,K,D*32
$GPGGA,220139.750,4739.0599,N,12215.7799,W,2,09,0.85,0.8,M,-17.3,M,0000,0000*59
$GPVTG,174.30,T,,M,0.39,N,0.72,K,D*36
$GPGGA,220140.000,4739.0599,N,12215.7799,W,2,09,0.85,0.8,M,-17.3,M,0000,0000*55
$GPVTG,174.69,T,,M,0.33,N,0.61,K,D*32
$GPGGA,220140.250,4739.0599,N,12215.7799,W,2,09,0.85,0.8,M,-17.3,M,0000,0000*52
$GPRMC,220140.250,A,4739.0599,N,12215.7799,W,0.38,174.42,230822,,,D*74
$GPVTG,174.42,T,,M,0.38,N,0.70,K,D*30
$GPGGA,220140.500,4739.0599,N,12215.7799,W,2,09,0.85,0.8,M,-17.3,M,0000,0000*50
$GPVTG,174.46,T,,M,0.40,N,0.75,K,D*3E
$GPGGA,220140.750,4739.0598,N,12215.7799,W,2,09,0.85,0.8,M,-17.3,M,0000,0000*56
$GPVTG,174.89,T,,M,0.41,N,0.76,K,D*3F
$GPGGA,220141.000,4739.0598,N,12215.7799,W,2,09,0.85,0.8,M,-17.3,M,0000,0000*55
$GPVTG,175.27,T,,M,0.59,N,1.09,K,D*3A
$GPGGA,220141.250,4739.0597,N,12215.7799,W,2,09,0.85,0.8,M,-17.3,M,0000,0000*5D
$GPRMC,220141.250,A,4739.0597,N,12215.7799,W,0.54,174.99,230822,,,D*77
$GPVTG,174.99,T,,M,0.54,N,1.00,K,D*3A
$GPGGA,220141.500,4739.0597,N,12215.7799,W,2,09,0.85,0.8,M,-17.3,M,0000,0000*5F
$GPVTG,175.34,T,,M,0.37,N,0.69,K,D*37
$GPGGA,220141.750,4739.0597,N,12215.7798,W,2,09,0.85,0.8,M,-17.3,M,0000,0000*59
$GPVTG,174.59,T,,M,0.33,N,0.62,K,D*32
$GPGGA,220142.000,4739.0597,N,12215.7798,W,2,09,0.85,0.8,M,-17.3,M,0000,0000*58
$GPVTG,173.94,T,,M,0.36,N,0.67,K,D*34
$GPGGA,220142.250,4739.0596,N,12215.7798,W,2,09,0.85,0.7,M,-17.3,M,0000,0000*51
$GPRMC,220142.250,A,4739.0596,N,12215.7798,W,0.42,173.79,230822,,,D*7A
$GPVTG,173.79,T,,M,0.42,N,0.77,K,D*35
$GPGGA,220142.500,4739.0596,N,12215.7798,W,2,09,0.85,0.7,M,-17.3,M,0000,0000*53
$GPVTG,174.08,T,,M,0.46,N,0.86,K,D*3E
$GPGGA,220142.750,4739.0596,N,12215.7798,W,2,09,0.85,0.8,M,-17.3,M,0000,0000*5B
$GPVTG,173.92,T,,M,0.65,N,1.20,K,D*36
$GPGGA,220143.000,4739.0595,N,12215.7798,W,2,09,0.85,0.9,M,-17.3,M,0000,0000*5A
$GPVTG,173.66,T,,M,0.61,N,1.14,K,D*3E
$GPGGA,220143.250,4739.0595,N,12215.7798,W,2,09,0.85,0.9,M,-17.3,M,0000,0000*5D
$GPRMC,220143.250,A,4739.0595,N,12215.7798,W,0.59,173.28,230822,,,D*76
$GPVTG,173.28,T,,M,0.59,N,1.10,K,D*3B
$GPGGA,220143.500,4739.0595,N,12215.7798,W,2,09,0.85,1.0,M,-17.3,M,0000,0000*57
$GPVTG,173.16,T,,M,0.36,N,0.67,K,D*3E
$GPGGA,220143.750,4739.0594,N,12215.7798,W,2,09,0.85,0.9,M,-17.3,M,0000,0000*59
$GPVTG,172.97,T,,M,0.41,N,0.76,K,D*36
$GPGGA,220144.000,4739.0594,N,12215.7798,W,2,09,0.85,0.9,M,-17.3,M,0000,0000*5C
$GPVTG,172.55,T,,M,0.46,N,0.85,K,D*33
$GPGGA,220144.250,4739.0594,N,12215.7798,W,2,09,0.85,0.9,M,-17.3,M,0000,0000*5B
$GPRMC,220144.250,A,4739.0594,N,12215.7798,W,0.51,173.43,230822,,,D*75
$GPVTG,173.43,T,,M,0.51,N,0.95,K,D*32
$GPGGA,220144.500,4739.0593,N,12215.7798,W,2,09,0.85,0.9,M,-17.3,M,0000,0000*5E
$GPVTG,174.29,T,,M,0.50,N,0.93,K,D*3E
$GPGGA,220144.750,4739.0593,N,12215.7798,W,2,09,0.85,1.0,M,-17.3,M,0000,0000*51
$GPVTG,174.08,T,,M,0.50,N,0.93,K,D*3D
$GPGGA,220145.000,4739.0593,N,12215.7798,W,2,09,0.85,1.0,M,-17.3,M,0000,0000*52
$GPVTG,173.58,T,,M,0.52,N,0.96,K,D*38
$GPGGA,220145.250,4739.0593,N,12215.7798,W,2,09,0.85,1.0,M,-17.3,M,0000,0000*55
$GPRMC,220145.250,A,4739.0593,N,12215.7798,W,0.52,173.48,230822,,,D*7B
$GPVTG,173.48,T,,M,0.52,N,0.97,K,D*38
$GPGGA,220145.500,4739.0592,N,12215.7798,W,2,09,0.85,0.9,M,-17.3,M,0000,0000*5E
$GPVTG,173.41,T,,M,0.52,N,0.97,K,D*31
$GPGGA,220145.750,4739.0592,N,12215.7798,W,2,09,0.85,0.8,M,-17.3,M,0000,0000*58
$GPVTG,173.65,T,,M,0.50,N,0.93,K,D*31
$GPGGA,220146.000,4739.0592,N,12215.7798,W,2,09,0.85,0.9,M,-17.3,M,0000,0000*58
$GPVTG,173.50,T,,M,0.48,N,0.90,K,D*3D
$GPGGA,220146.250,4739.0591,N,12215.7798,W,2,09,0.85,0.9,M,-17.3,M,0000,0000*5C
$GPRMC,220146.250,A,4739.0591,N,12215.7798,W,0.49,172.77,230822,,,D*7D
$GPVTG,172.77,T,,M,0.49,N,0.90,K,D*38
$GPGGA,220146.500,4739.0591,N,12215.7798,W,2,09,0.85,0.9,M,-17.3,M,0000,0000*5E
$GPVTG,172.48,T,,M,0.52,N,0.97,K,D*39
$GPGGA,220146.750,4739.0591,N,12215.7798,W,2,09,0.85,0.9,M,-17.3,M,0000,0000*59
$GPVTG,172.23,T,,M,0.52,N,0.97,K,D*34
$GPGGA,220147.000,4739.0590,N,12215.7798,W,2,09,0.85,0.9,M,-17.3,M,0000,0000*5B
$GPVTG,172.21,T,,M,0.41,N,0.77,K,D*3A
$GPGGA,220147.250,4739.0590,N,12215.7798,W,2,09,0.85,0.9,M,-17.3,M,0000,0000*5C
$GPRMC,220147.250,A,4739.0590,N,12215.7798,W,0.31,172.72,230822,,,D*77
$GPVTG,172.72,T,,M,0.31,N,0.58,K,D*36
$GPGGA,220147.500,4739.0590,N,12215.7798,W,2,09,0.85,0.9,M,-17.3,M,0000,0000*5E
$GPVTG,172.90,T,,M,0.36,N,0.66,K,D*30
$GPGGA,220147.750,4739.0590,N,12215.7798,W,2,09,0.85,0.9,M,-17.3,M,0000,0000*59
$GPVTG,172.81,T,,M,0.46,N,0.85,K,D*3A
$GPGGA,220148.000,4739.0589,N,12215.7798,W,2,09,0.85,0.9,M,-17.3,M,0000,0000*5C
$GPVTG,172.37,T,,M,0.53,N,0.98,K,D*3F
$GPGGA,220148.250,4739.0589,N,12215.7798,W,2,09,0.85,0.9,M,-17.3,M,0000,0000*5B
$GPRMC,220148.250,A,4739.0589,N,12215.7798,W,0.62,172.74,230822,,,D*70
$GPVTG,172.74,T,,M,0.62,N,1.15,K,D*3E
$GPGGA,220148.500,4739.0588,N,12215.7798,W,2,09,0.85,0.9,M,-17.3,M,0000,0000*58
$GPVTG,172.09,T,,M,0.64,N,1.18,K,D*3F
$GPGGA,220148.750,4739.0588,N,12215.7797,W,2,09,0.85,0.9,M,-17.3,M,0000,0000*50
$GPVTG,172.67,T,,M,0.39,N,0.71,K,D*31
$GPGGA,220149.000,4739.0588,N,12215.7797,W,2,09,0.85,1.0,M,-17.3,M,0000,0000*5B
$GPVTG,172.59,T,,M,0.18,N,0.34,K,D*3E
$GPGGA,220149.250,4739.0587,N,12215.7797,W,2,09,0.85,1.1,M,-17.3,M,0000,0000*52
$GPRMC,220149.250,A,4739.0587,N,12215.7797,W,0.34,171.62,230822,,,D*77
$GPVTG,171.62,T,,M,0.34,N,0.63,K,D*39
$GPGGA,220149.500,4739.0587,N,12215.7797,W,2,09,0.85,1.1,M,-17.3,M,0000,0000*50
$GPVTG,171.44,T,,M,0.33,N,0.61,K,D*38
$GPGGA,220149.750,4739.0587,N,12215.7797,W,2,09,0.85,1.0,M,-17.3,M,0000,0000*56
$GPVTG,171.37,T,,M,0.37,N,0.68,K,D*31
$GPGGA,220150.000,4739.0586,N,12215.7797,W,2,09,0.85,1.0,M,-17.3,M,0000,0000*5D
$GPVTG,171.88,T,,M,0.41,N,0.76,K,D*3B
$GPGGA,220150.250,4739.0586,N,12215.7798,W,2,09,0.85,1.1,M,-17.3,M,0000,0000*54
$GPRMC,220150.250,A,4739.0586,N,12215.7798,W,0.38,172.55,230822,,,D*7A
$GPVTG,172.55,T,,M,0.38,N,0.71,K,D*31
$GPGGA,220150.500,4739.0586,N,12215.7798,W,2,09,0.85,1.2,M,-17.3,M,0000,0000*55
$GPVTG,172.03,T,,M,0.38,N,0.71,K,D*32
$GPGGA,220150.750,4739.0586,N,12215.7798,W,2,09,0.85,1.2,M,-17.3,M,0000,0000*52
$GPVTG,171.12,T,,M,0.36,N,0.67,K,D*38
$GPGGA,220151.000,4739.0585,N,12215.7798,W,2,09,0.85,1.1,M,-17.3,M,0000,0000*51
$GPVTG,170.26,T,,M,0.34,N,0.63,K,D*38
$GPGGA,220151.250,4739.0585,N,12215.7798,W,2,09,0.85,1.0,M,-17.3,M,0000,0000*57
$GPRMC,220151.250,A,4739.0585,N,12215.7798,W,0.36,169.90,230822,,,D*75
$GPVTG,169.90,T,,M,0.36,N,0.67,K,D*3B
$GPGGA,220151.500,4739.0585,N,12215.7798,W,2,09,0.85,1.0,M,-17.3,M,0000,0000*55
$GPVTG,169.84,T,,M,0.38,N,0.70,K,D*36
$GPGGA,220151.750,4739.0584,N,12215.7798,W,2,09,0.85,1.0,M,-17.3,M,0000,0000*53
$GPVTG,170.13,T,,M,0.41,N,0.77,K,D*39
$GPGGA,220152.000,4739.0584,N,12215.7798,W,2,09,0.85,1.0,M,-17.3,M,0000,0000*52
$GPVTG,170.33,T,,M,0.42,N,0.78,K,D*37
$GPGGA,220152.250,4739.0584,N,12215.7798,W,2,09,0.85,1.1,M,-17.3,M,0000,0000*54
$GPRMC,220152.250,A,4739.0584,N,12215.7798,W,0.37,170.29,230822,,,D*7C
$GPVTG,170.29,T,,M,0.37,N,0.68,K,D*3F
$GPGGA,220152.500,4739.0584,N,12215.7798,W,2,09,0.85,1.1,M,-17.3,M,0000,0000*56
$GPVTG,169.97,T,,M,0.49,N,0.92,K,D*3E
$GPGGA,220152.750,4739.0583,N,12215.7798,W,2,09,0.85,1.1,M,-17.3,M,0000,0000*56
$GPVTG,169.16,T,,M,0.53,N,0.99,K,D*37
$GPGGA,220153.000,4739.0583,N,12215.7797,W,2,09,0.85,1.1,M,-17.3,M,0000,0000*5A
$GPVTG,169.14,T,,M,0.23,N,0.42,K,D*34
$GPGGA,220153.250,4739.0583,N,12215.7797,W,2,09,0.85,1.0,M,-17.3,M,0000,0000*5C
$GPRMC,220153.250,A,4739.0583,N,12215.7797,W,0.37,168.33,230822,,,D*77
$GPVTG,168.33,T,,M,0.37,N,0.69,K,D*3C
$GPGGA,220153.500,4739.0582,N,12215.7797,W,2,09,0.85,1.0,M,-17.3,M,0000,0000*5F
$GPVTG,168.28,T,,M,0.36,N,0.66,K,D*38
$GPGGA,220153.750,4739.0582,N,12215.7797,W,2,09,0.85,1.0,M,-17.3,M,0000,0000*58
$GPVTG,168.90,T,,M,0.30,N,0.56,K,D*3E
$GPGGA,220154.000,4739.0582,N,12215.7797,W,2,09,0.85,1.0,M,-17.3,M,0000,0000*5D
$GPVTG,169.08,T,,M,0.49,N,0.90,K,D*3A
$GPGGA,220154.250,4739.0582,N,12215.7797,W,2,09,0.85,1.1,M,-17.3,M,0000,0000*5B
$GPRMC,220154.250,A,4739.0582,N,12215.7797,W,0.46,169.76,230822,,,D*77
$GPVTG,169.76,T,,M,0.46,N,0.85,K,D*38
$GPGGA,220154.500,4739.0581,N,12215.7797,W,2,09,0.85,1.1,M,-17.3,M,0000,0000*5A
$GPVTG,169.39,T,,M,0.56,N,1.04,K,D*3A
$GPGGA,220154.750,4739.0581,N,12215.7797,W,2,09,0.85,1.1,M,-17.3,M,0000,0000*5D
$GPVTG,169.25,T,,M,0.44,N,0.81,K,D*38
$GPGGA,220155.000,4739.0581,N,12215.7797,W,2,09,0.85,1.1,M,-17.3,M,0000,0000*5E
$GPVTG,169.00,T,,M,0.33,N,0.62,K,D*32
$GPGGA,220155.250,4739.0580,N,12215.7797,W,2,09,0.85,1.1,M,-17.3,M,0000,0000*58
$GPRMC,220155.250,A,4739.0580,N,12215.7797,W,0.40,168.09,230822,,,D*7B
$GPVTG,168.09,T,,M,0.40,N,0.74,K,D*39
$GPGGA,220155.500,4739.0580,N,12215.7797,W,2,09,0.85,1.0,M,-17.3,M,0000,0000*5B
$GPVTG,168.90,T,,M,0.37,N,0.68,K,D*34
$GPGGA,220155.750,4739.0580,N,12215.7797,W,2,09,0.85,1.0,M,-17.3,M,0000,0000*5C
$GPVTG,170.17,T,,M,0.56,N,1.03,K,D*39
$GPGGA,220156.000,4739.0580,N,12215.7797,W,2,09,0.85,1.0,M,-17.3,M,0000,0000*5D
$GPVTG,171.34,T,,M,0.39,N,0.72,K,D*37
$GPGGA,220156.250,4739.0579,N,12215.7797,W,2,09,0.85,1.1,M,-17.3,M,0000,0000*5D
$GPRMC,220156.250,A,4739.0579,N,12215.7797,W,0.36,171.00,230822,,,D*7E
$GPVTG,171.00,T,,M,0.36,N,0.66,K,D*3A
$GPGGA,220156.500,4739.0579,N,12215.7797,W,2,09,0.85,1.1,M,-17.3,M,0000,0000*5F
$GPVTG,169.96,T,,M,0.48,N,0.88,K,D*35
$GPGGA,220156.750,4739.0579,N,12215.7796,W,2,09,0.85,1.1,M,-17.3,M,0000,0000*59
$GPVTG,168.93,T,,M,0.60,N,1.11,K,D*3A
$GPGGA,220157.000,4739.0578,N,12215.7796,W,2,09,0.85,1.0,M,-17.3,M,0000,0000*5A
$GPVTG,168.33,T,,M,0.58,N,1.07,K,D*3C
$GPGGA,220157.250,4739.0578,N,12215.7796,W,2,09,0.85,1.0,M,-17.3,M,0000,0000*5D
$GPRMC,220157.250,A,4739.0578,N,12215.7796,W,0.52,168.59,230822,,,D*79
$GPVTG,168.59,T,,M,0.52,N,0.96,K,D*33
$GPGGA,220157.500,4739.0578,N,12215.7796,W,2,09,0.85,1.0,M,-17.3,M,0000,0000*5F
$GPVTG,169.03,T,,M,0.49,N,0.91,K,D*30
$GPGGA,220157.750,4739.0577,N,12215.7797,W,2,09,0.85,1.0,M,-17.3,M,0000,0000*56
$GPVTG,169.44,T,,M,0.43,N,0.79,K,D*3F
$GPGGA,220158.000,4739.0577,N,12215.7797,W,2,09,0.85,1.0,M,-17.3,M,0000,0000*5B
$GPVTG,170.14,T,,M,0.41,N,0.76,K,D*3F
$GPGGA,220158.250,4739.0577,N,12215.7797,W,2,09,0.85,1.0,M,-17.3,M,0000,0000*5C
$GPRMC,220158.250,A,4739.0577,N,12215.7797,W,0.41,169.66,230822,,,D*77
$GPVTG,169.66,T,,M,0.41,N,0.76,K,D*32
$GPGGA,220158.500,4739.0576,N,12215.7796,W,2,09,0.85,1.0,M,-17.3,M,0000,0000*5E
$GPVTG,169.98,T,,M,0.40,N,0.74,K,D*30
$GPGGA,220158.750,4739.0576,N,12215.7796,W,2,09,0.85,1.0,M,-17.3,M,0000,0000*59
$GPVTG,169.74,T,,M,0.38,N,0.71,K,D*38
$GPGGA,220159.000,4739.0575,N,12215.7796,W,2,09,0.85,1.0,M,-17.3,M,0000,0000*59
$GPVTG,169.06,T,,M,0.40,N,0.73,K,D*30
$GPGGA,220159.250,4739.0575,N,12215.7796,W,2,09,0.85,1.0,M,-17.3,M,0000,0000*5E
$GPRMC,220159.250,A,4739.0575,N,12215.7796,W,0.40,168.46,230822,,,D*77
$GPVTG,168.46,T,,M,0.40,N,0.74,K,D*32
$GPGGA,220159.500,4739.0575,N,12215.7795,W,2,09,0.85,1.0,M,-17.3,M,0000,0000*5F
$GPVTG,168.46,T,,M,0.41,N,0.75,K,D*32
$GPGGA,220159.750,4739.0574,N,12215.7795,W,2,09,0.85,1.0,M,-17.3,M,0000,0000*59
$GPVTG,167.29,T,,M,0.43,N,0.79,K,D*3A
$GPGGA,220200.000,4739.0574,N,12215.7795,W,2,09,0.85,1.0,M,-17.3,M,0000,0000*54
$GPVTG,168.10,T,,M,0.22,N,0.41,K,D*33
$GPGGA,220200.250,4739.0574,N,12215.7795,W,2,09,0.85,1.1,M,-17.3,M,0000,0000*52
$GPRMC,220200.250,A,4739.0574,N,12215.7795,W,0.25,168.08,230822,,,D*73
$GPVTG,168.08,T,,M,0.25,N,0.47,K,D*3B
$GPGGA,220200.500,4739.0574,N,12215.7794,W,2,09,0.85,1.1,M,-17.3,M,0000,0000*51
$GPVTG,169.04,T,,M,0.45,N,0.84,K,D*3F
$GPGGA,220200.750,4739.0573,N,12215.7795,W,2,09,0.85,1.1,M,-17.3,M,0000,0000*50
$GPVTG,168.57,T,,M,0.53,N,0.99,K,D*33
$GPGGA,220201.000,4739.0573,N,12215.7794,W,2,09,0.85,1.1,M,-17.3,M,0000,0000*52
$GPVTG,169.22,T,,M,0.52,N,0.96,K,D*3E
$GPGGA,220201.250,4739.0573,N,12215.7794,W,2,09,0.85,1.1,M,-17.3,M,0000,0000*55
$GPRMC,220201.250,A,4739.0573,N,12215.7794,W,0.50,168.98,230822,,,D*7F
$GPVTG,168.98,T,,M,0.50,N,0.93,K,D*39
$GPGGA,220201.500,4739.0572,N,12215.7794,W,2,09,0.85,1.1,M,-17.3,M,0000,0000*56
$GPVTG,168.72,T,,M,0.39,N,0.73,K,D*3C
$GPGGA,220201.750,4739.0572,N,12215.7794,W,2,09,0.85,1.1,M,-17.3,M,0000,0000*51
$GPVTG,168.43,T,,M,0.35,N,0.65,K,D*35
$GPGGA,220202.000,4739.0572,N,12215.7794,W,2,09,0.85,1.1,M,-17.3,M,0000,0000*50
$GPVTG,168.58,T,,M,0.42,N,0.78,K,D*33
$GPGGA,220202.250,4739.0571,N,12215.7794,W,2,09,0.85,1.0,M,-17.3,M,0000,0000*55
$GPRMC,220202.250,A,4739.0571,N,12215.7794,W,0.42,168.83,230822,,,D*77
$GPVTG,168.83,T,,M,0.42,N,0.77,K,D*3A
$GPGGA,220202.500,4739.0571,N,12215.7794,W,2,09,0.85,1.1,M,-17.3,M,0000,0000*56
$GPVTG,169.22,T,,M,0.36,N,0.66,K,D*33
$GPGGA,220202.750,4739.0571,N,12215.7794,W,2,09,0.85,1.1,M,-17.3,M,0000,0000*51
