$GPGGA,210007.500,4739.3136,N,12219.2982,W,1,08,1.11,30.2,M,-17.3,M,,*69
$GPRMC,210007.500,A,4739.3136,N,12219.2982,W,0.01,127.14,150822,,,A*77
$GPVTG,127.14,T,,M,0.01,N,0.01,K,A*3C
$GPGGA,210007.750,4739.3136,N,12219.2982,W,1,08,1.11,30.2,M,-17.3,M,,*6E
$GPVTG,155.69,T,,M,0.01,N,0.01,K,A*33
$GPGGA,210008.000,4739.3136,N,12219.2982,W,1,08,1.11,30.2,M,-17.3,M,,*63
$GPVTG,154.56,T,,M,0.01,N,0.02,K,A*3D
$GPGGA,210008.250,4739.3136,N,12219.2982,W,1,08,1.11,30.2,M,-17.3,M,,*64
$GPVTG,152.96,T,,M,0.01,N,0.02,K,A*37
$GPGGA,210008.500,4739.3136,N,12219.2982,W,1,08,1.11,30.2,M,-17.3,M,,*66
$GPRMC,210008.500,A,4739.3136,N,12219.2982,W,0.01,154.46,150822,,,A*7B
$GPVTG,154.46,T,,M,0.01,N,0.02,K,A*3C
$GPGGA,210008.750,4739.3136,N,12219.2982,W,1,08,1.11,30.2,M,-17.3,M,,*61
$GPVTG,161.83,T,,M,0.01,N,0.02,K,A*33
$GPGGA,210009.000,4739.3136,N,12219.2982,W,1,08,1.11,30.2,M,-17.3,M,,*62
$GPVTG,164.86,T,,M,0.01,N,0.01,K,A*30
$GPGGA,210009.250,4739.3136,N,12219.2982,W,1,08,1.11,30.2,M,-17.3,M,,*65
$GPVTG,154.28,T,,M,0.01,N,0.01,K,A*37
$GPGGA,210009.500,4739.3136,N,12219.2982,W,1,08,1.11,30.2,M,-17.3,M,,*67
$GPRMC,210009.500,A,4739.3136,N,12219.2982,W,0.01,140.00,150822,,,A*7D
$GPVTG,140.00,T,,M,0.01,N,0.02,K,A*3B
$GPGGA,210009.750,4739.3136,N,12219.2982,W,1,08,1.11,30.2,M,-17.3,M,,*60
$GPVTG,126.27,T,,M,0.01,N,0.02,K,A*3E
$GPGGA,210010.000,4739.3136,N,12219.2982,W,1,08,1.11,30.2,M,-17.3,M,,*6A
$GPVTG,127.68,T,,M,0.01,N,0.02,K,A*34
$GPGGA,210010.250,4739.3136,N,12219.2982,W,1,08,1.11,30.2,M,-17.3,M,,*6D
$GPVTG,132.74,T,,M,0.01,N,0.02,K,A*3D
$GPGGA,210010.500,4739.3136,N,12219.2982,W,1,08,1.11,30.2,M,-17.3,M,,*6F
$GPRMC,210010.500,A,4739.3136,N,12219.2982,W,0.01,153.69,150822,,,A*78
$GPVTG,153.69,T,,M,0.01,N,0.02,K,A*36
$GPGGA,210010.750,4739.3136,N,12219.2982,W,1,08,1.11,30.2,M,-17.3,M,,*68
$GPVTG,172.21,T,,M,0.01,N,0.02,K,A*39
$GPGGA,210011.000,4739.3136,N,12219.2982,W,1,08,1.11,30.2,M,-17.3,M,,*6B
$GPVTG,162.06,T,,M,0.01,N,0.02,K,A*3D
$GPGGA,210011.250,4739.3136,N,12219.2982,W,1,08,1.11,30.2,M,-17.3,M,,*6C
$GPVTG,157.64,T,,M,0.01,N,0.02,K,A*3F
$GPGGA,210011.500,4739.3136,N,12219.2982,W,1,08,1.11,30.2,M,-17.3,M,,*6E
$GPRMC,210011.500,A,4739.3136,N,12219.2982,W,0.01,161.72,150822,,,A*72
$GPVTG,161.72,T,,M,0.01,N,0.02,K,A*3D
$GPGGA,210011.750,4739.3136,N,12219.2982,W,1,08,1.11,30.2,M,-17.3,M,,*69
$GPVTG,155.63,T,,M,0.00,N,0.01,K,A*38
$GPGGA,210012.000,4739.3136,N,12219.2982,W,1,08,1.11,30.2,M,-17.3,M,,*68
$GPVTG,75.35,T,,M,0.00,N,0.00,K,A*09
$GPGGA,210012.250,4739.3136,N,12219.2982,W,1,08,1.11,30.2,M,-17.3,M,,*6F
$GPVTG,0.00,T,,M,0.00,N,0.00,K,A*3D
$GPGGA,210012.500,4739.3136,N,12219.2982,W,1,08,1.11,30.2,M,-17.3,M,,*6D
$GPRMC,210012.500,A,4739.3136,N,12219.2982,W,0.00,0.00,150822,,,A*73
$GPVTG,0.00,T,,M,0.00,N,0.00,K,A*3D
$GPGGA,210012.750,4739.3136,N,12219.2982,W,1,08,1.11,30.2,M,-17.3,M,,*6A
$GPVTG,210.94,T,,M,0.00,N,0.01,K,A*32
$GPGGA,210013.000,4739.3136,N,12219.2982,W,1,08,1.11,30.2,M,-17.3,M,,*69
$GPVTG,223.72,T,,M,0.00,N,0.00,K,A*3B
$GPGGA,210013.250,4739.3136,N,12219.2982,W,1,08,1.11,30.2,M,-17.3,M,,*6E
$GPVTG,255.86,T,,M,0.00,N,0.00,K,A*31
$GPGGA,210013.500,4739.3136,N,12219.2982,W,1,08,1.11,30.2,M,-17.3,M,,*6C
$GPRMC,210013.500,A,4739.3136,N,12219.2982,W,0.00,0.00,150822,,,A*72
$GPVTG,0.00,T,,M,0.00,N,0.00,K,A*3D
$GPGGA,210013.750,4739.3136,N,12219.2982,W,1,08,1.11,30.2,M,-17.3,M,,*6B
$GPVTG,0.00,T,,M,0.00,N,0.00,K,A*3D
$GPGGA,210014.000,4739.3136,N,12219.2982,W,1,08,1.11,30.2,M,-17.3,M,,*6E
$GPVTG,5.79,T,,M,0.00,N,0.01,K,A*37
$GPGGA,210014.250,4739.3136,N,12219.2982,W,1,08,1.11,30.2,M,-17.3,M,,*69
$GPVTG,31.49,T,,M,0.00,N,0.01,K,A*03
$GPGGA,210014.500,4739.3136,N,12219.2982,W,1,08,1.11,30.2,M,-17.3,M,,*6B
$GPRMC,210014.500,A,4739.3136,N,12219.2982,W,0.01,70.49,150822,,,A*4E
$GPVTG,70.49,T,,M,0.01,N,0.01,K,A*07
$GPGGA,210014.750,4739.3136,N,12219.2982,W,1,08,1.11,30.2,M,-17.3,M,,*6C
$GPVTG,77.28,T,,M,0.01,N,0.02,K,A*04
$GPGGA,210015.000,4739.3136,N,12219.2982,W,1,08,1.11,30.2,M,-17.3,M,,*6F
$GPVTG,91.33,T,,M,0.01,N,0.01,K,A*05
$GPGGA,210015.250,4739.3136,N,12219.2982,W,1,08,1.11,30.2,M,-17.3,M,,*68
$GPVTG,205.59,T,,M,0.00,N,0.01,K,A*37
$GPGGA,210015.500,4739.3136,N,12219.2982,W,1,08,1.11,30.2,M,-17.3,M,,*6A
$GPRMC,210015.500,A,4739.3136,N,12219.2982,W,0.00,279.94,150822,,,A*75
$GPVTG,279.94,T,,M,0.00,N,0.01,K,A*3D
$GPGGA,210015.750,4739.3136,N,12219.2982,W,1,08,1.11,30.2,M,-17.3,M,,*6D
$GPVTG,346.02,T,,M,0.01,N,0.01,K,A*3E
$GPGGA,210016.000,4739.3136,N,12219.2982,W,1,08,1.11,30.2,M,-17.3,M,,*6C
$GPVTG,19.33,T,,M,0.01,N,0.02,K,A*06
$GPGGA,210016.250,4739.3136,N,12219.2982,W,1,08,1.11,30.2,M,-17.3,M,,*6B
$GPVTG,52.46,T,,M,0.00,N,0.01,K,A*09
$GPGGA,210016.500,4739.3136,N,12219.2982,W,1,08,1.11,30.2,M,-17.3,M,,*69
$GPRMC,210016.500,A,4739.3136,N,12219.2982,W,0.01,98.61,150822,,,A*40
$GPVTG,98.61,T,,M,0.01,N,0.01,K,A*0B
$GPGGA,210016.750,4739.3136,N,12219.2982,W,1,08,1.11,30.2,M,-17.3,M,,*6E
$GPVTG,114.94,T,,M,0.01,N,0.01,K,A*34
$GPGGA,210017.000,4739.3136,N,12219.2982,W,1,08,1.11,30.2,M,-17.3,M,,*6D
$GPVTG,20.76,T,,M,0.00,N,0.01,K,A*0F
$GPGGA,210017.250,4739.3136,N,12219.2982,W,1,08,1.11,30.2,M,-17.3,M,,*6A
$GPVTG,38.47,T,,M,0.00,N,0.01,K,A*04
$GPGGA,210017.500,4739.3136,N,12219.2982,W,1,08,1.11,30.2,M,-17.3,M,,*68
$GPRMC,210017.500,A,4739.3136,N,12219.2982,W,0.00,214.14,150822,,,A*74
$GPVTG,214.14,T,,M,0.00,N,0.01,K,A*3E
$GPGGA,210017.750,4739.3136,N,12219.2982,W,1,08,1.11,30.2,M,-17.3,M,,*6F
$GPVTG,82.99,T,,M,0.00,N,0.01,K,A*06
$GPGGA,210018.000,4739.3136,N,12219.2982,W,1,08,1.11,30.2,M,-17.3,M,,*62
$GPVTG,12.49,T,,M,0.00,N,0.01,K,A*02
$GPGGA,210018.250,4739.3136,N,12219.2982,W,1,08,1.11,30.2,M,-17.3,M,,*65
$GPVTG,8.91,T,,M,0.00,N,0.01,K,A*3C
$GPGGA,210018.500,4739.3136,N,12219.2982,W,1,08,1.11,30.2,M,-17.3,M,,*67
$GPRMC,210018.500,A,4739.3136,N,12219.2982,W,0.01,88.48,150822,,,A*44
$GPVTG,88.48,T,,M,0.01,N,0.01,K,A*01
$GPGGA,210018.750,4739.3136,N,12219.2982,W,1,08,1.11,30.2,M,-17.3,M,,*60
$GPVTG,121.30,T,,M,0.01,N,0.01,K,A*3C
$GPGGA,210019.000,4739.3136,N,12219.2982,W,1,08,1.11,30.2,M,-17.3,M,,*63
$GPVTG,111.46,T,,M,0.01,N,0.01,K,A*3E
$GPGGA,210019.250,4739.3136,N,12219.2982,W,1,08,1.11,30.2,M,-17.3,M,,*64
$GPVTG,261.25,T,,M,0.00,N,0.00,K,A*3F
$GPGGA,210019.500,4739.3136,N,12219.2982,W,1,08,1.11,30.2,M,-17.3,M,,*66
$GPRMC,210019.500,A,4739.3136,N,12219.2982,W,0.00,281.55,150822,,,A*73
$GPVTG,281.55,T,,M,0.00,N,0.01,K,A*37
$GPGGA,210019.750,4739.3136,N,12219.2982,W,1,08,1.11,30.2,M,-17.3,M,,*61
$GPVTG,287.10,T,,M,0.01,N,0.01,K,A*31
$GPGGA,210020.000,4739.3136,N,12219.2982,W,1,08,1.11,30.2,M,-17.3,M,,*69
$GPVTG,314.24,T,,M,0.01,N,0.01,K,A*3D
$GPGGA,210020.250,4739.3136,N,12219.2982,W,1,08,1.11,30.2,M,-17.3,M,,*6E
$GPVTG,295.90,T,,M,0.00,N,0.01,K,A*3B
$GPGGA,210020.500,4739.3136,N,12219.2982,W,1,08,1.11,30.2,M,-17.3,M,,*6C
$GPRMC,210020.500,A,4739.3136,N,12219.2982,W,0.00,258.63,150822,,,A*78
$GPVTG,258.63,T,,M,0.00,N,0.00,K,A*37
$GPGGA,210020.750,4739.3136,N,12219.2982,W,1,08,1.11,30.2,M,-17.3,M,,*6B
$GPVTG,282.83,T,,M,0.00,N,0.01,K,A*3F
$GPGGA,210021.000,4739.3136,N,12219.2982,W,1,08,1.11,30.2,M,-17.3,M,,*68
$GPVTG,292.09,T,,M,0.01,N,0.01,K,A*3D
$GPGGA,210021.250,4739.3136,N,12219.2982,W,1,08,1.11,30.2,M,-17.3,M,,*6F
$GPVTG,349.72,T,,M,0.01,N,0.01,K,A*36
$GPGGA,210021.500,4739.3136,N,12219.2982,W,1,08,1.11,30.2,M,-17.3,M,,*6D
$GPRMC,210021.500,A,4739.3136,N,12219.2982,W,0.00,168.95,150822,,,A*70
$GPVTG,168.95,T,,M,0.00,N,0.00,K,A*3E
$GPGGA,210021.750,4739.3136,N,12219.2982,W,1,08,1.11,30.2,M,-17.3,M,,*6A
$GPVTG,159.62,T,,M,0.01,N,0.01,K,A*34
$GPGGA,210022.000,4739.3136,N,12219.2982,W,1,08,1.11,30.2,M,-17.3,M,,*6B
$GPVTG,0.00,T,,M,0.00,N,0.00,K,A*3D
$GPGGA,210022.250,4739.3136,N,12219.2982,W,1,08,1.11,30.2,M,-17.3,M,,*6C
$GPVTG,344.97,T,,M,0.00,N,0.01,K,A*31
$GPGGA,210022.500,4739.3136,N,12219.2982,W,1,08,1.11,30.2,M,-17.3,M,,*6E
$GPRMC,210022.500,A,4739.3136,N,12219.2982,W,0.00,0.04,150822,,,A*74
$GPVTG,0.04,T,,M,0.00,N,0.01,K,A*38
$GPGGA,210022.750,4739.3136,N,12219.2982,W,1,08,1.11,30.2,M,-17.3,M,,*69
$GPVTG,0.00,T,,M,0.00,N,0.00,K,A*3D
$GPGGA,210023.000,4739.3136,N,12219.2982,W,1,08,1.11,30.2,M,-17.3,M,,*6A
$GPVTG,150.48,T,,M,0.01,N,0.02,K,A*36
$GPGGA,210023.250,4739.3136,N,12219.2982,W,1,08,1.11,30.3,M,-17.3,M,,*6C
$GPVTG,146.58,T,,M,0.01,N,0.01,K,A*33
$GPGGA,210023.500,4739.3136,N,12219.2982,W,1,08,1.11,30.3,M,-17.3,M,,*6E
$GPRMC,210023.500,A,4739.3136,N,12219.2982,W,0.00,209.27,150822,,,A*7F
$GPVTG,209.27,T,,M,0.00,N,0.00,K,A*33
$GPGGA,210023.750,4739.3136,N,12219.2982,W,1,08,1.11,30.3,M,-17.3,M,,*69
$GPVTG,359.62,T,,M,0.00,N,0.00,K,A*36
$GPGGA,210024.000,4739.3136,N,12219.2982,W,1,08,1.11,30.3,M,-17.3,M,,*6C
$GPVTG,290.55,T,,M,0.00,N,0.00,K,A*36
$GPGGA,210024.250,4739.3136,N,12219.2982,W,1,08,1.11,30.3,M,-17.3,M,,*6B
$GPVTG,0.00,T,,M,0.00,N,0.00,K,A*3D
$GPGGA,210024.500,4739.3136,N,12219.2982,W,1,08,1.11,30.3,M,-17.3,M,,*69
$GPRMC,210024.500,A,4739.3136,N,12219.2982,W,0.00,0.00,150822,,,A*76
$GPVTG,0.00,T,,M,0.00,N,0.00,K,A*3D
$GPGGA,210024.750,4739.3136,N,12219.2982,W,1,08,1.11,30.3,M,-17.3,M,,*6E
$GPVTG,98.41,T,,M,0.00,N,0.00,K,A*09
$GPGGA,210025.000,4739.3136,N,12219.2982,W,1,08,1.11,30.3,M,-17.3,M,,*6D
$GPVTG,53.31,T,,M,0.00,N,0.00,K,A*09
$GPGGA,210025.250,4739.3136,N,12219.2982,W,1,08,1.11,30.3,M,-17.3,M,,*6A
$GPVTG,71.25,T,,M,0.00,N,0.00,K,A*0C
$GPGGA,210025.500,4739.3136,N,12219.2982,W,1,08,1.11,30.3,M,-17.3,M,,*68
$GPRMC,210025.500,A,4739.3136,N,12219.2982,W,0.00,307.61,150822,,,A*74
$GPVTG,307.61,T,,M,0.00,N,0.01,K,A*3F
$GPGGA,210025.750,4739.3136,N,12219.2982,W,1,08,1.11,30.3,M,-17.3,M,,*6F
$GPVTG,306.00,T,,M,0.00,N,0.00,K,A*38
$GPGGA,210026.000,4739.3136,N,12219.2982,W,1,08,1.11,30.3,M,-17.3,M,,*6E
$GPVTG,165.90,T,,M,0.02,N,0.03,K,A*37
$GPGGA,210026.250,4739.3136,N,12219.2982,W,1,08,1.11,30.3,M,-17.3,M,,*69
$GPVTG,246.36,T,,M,0.01,N,0.02,K,A*3B
$GPGGA,210026.500,4739.3136,N,12219.2982,W,1,08,1.11,30.3,M,-17.3,M,,*6B
$GPRMC,210026.500,A,4739.3136,N,12219.2982,W,0.01,107.60,150822,,,A*75
$GPVTG,107.60,T,,M,0.01,N,0.01,K,A*3D
$GPGGA,210026.750,4739.3136,N,12219.2982,W,1,08,1.11,30.3,M,-17.3,M,,*6C
$GPVTG,339.05,T,,M,0.01,N,0.02,K,A*32
$GPGGA,210027.000,4739.3136,N,12219.2982,W,1,08,1.11,30.3,M,-17.3,M,,*6F
$GPVTG,327.14,T,,M,0.01,N,0.01,K,A*3E
$GPGGA,210027.250,4739.3136,N,12219.2982,W,1,08,1.11,30.3,M,-17.3,M,,*68
$GPVTG,176.32,T,,M,0.01,N,0.02,K,A*3F
$GPGGA,210027.500,4739.3136,N,12219.2982,W,1,08,1.11,30.3,M,-17.3,M,,*6A
$GPRMC,210027.500,A,4739.3136,N,12219.2982,W,0.01,1.16,150822,,,A*72
$GPVTG,1.16,T,,M,0.01,N,0.01,K,A*3B
$GPGGA,210027.750,4739.3136,N,12219.2982,W,1,08,1.11,30.3,M,-17.3,M,,*6D
$GPVTG,243.26,T,,M,0.00,N,0.01,K,A*3D
$GPGGA,210028.000,4739.3136,N,12219.2982,W,1,08,1.11,30.3,M,-17.3,M,,*60
$GPVTG,92.06,T,,M,0.01,N,0.02,K,A*03
$GPGGA,210028.250,4739.3136,N,12219.2982,W,1,08,1.11,30.3,M,-17.3,M,,*67
$GPVTG,301.08,T,,M,0.01,N,0.02,K,A*34
$GPGGA,210028.500,4739.3136,N,12219.2982,W,1,08,1.11,30.3,M,-17.3,M,,*65
$GPRMC,210028.500,A,4739.3136,N,12219.2982,W,0.01,291.04,150822,,,A*75
$GPVTG,291.04,T,,M,0.01,N,0.02,K,A*30
$GPGGA,210028.750,4739.3136,N,12219.2982,W,1,08,1.11,30.3,M,-17.3,M,,*62
$GPVTG,327.07,T,,M,0.00,N,0.01,K,A*3D
$GPGGA,210029.000,4739.3136,N,12219.2982,W,1,08,1.11,30.3,M,-17.3,M,,*61
$GPVTG,0.00,T,,M,0.00,N,0.00,K,A*3D
$GPGGA,210029.250,4739.3136,N,12219.2982,W,1,08,1.11,30.3,M,-17.3,M,,*66
$GPVTG,0.00,T,,M,0.00,N,0.00,K,A*3D
$GPGGA,210029.500,4739.3136,N,12219.2982,W,1,08,1.11,30.3,M,-17.3,M,,*64
$GPRMC,210029.500,A,4739.3136,N,12219.2982,W,0.00,0.00,150822,,,A*7B
$GPVTG,0.00,T,,M,0.00,N,0.00,K,A*3D
$GPGGA,210029.750,4739.3136,N,12219.2982,W,1,08,1.11,30.3,M,-17.3,M,,*63
$GPVTG,0.00,T,,M,0.00,N,0.00,K,A*3D
$GPGGA,210030.000,4739.3136,N,12219.2982,W,1,08,1.11,30.3,M,-17.3,M,,*69
$GPVTG,255.85,T,,M,0.00,N,0.00,K,A*32
$GPGGA,210030.250,4739.3136,N,12219.2982,W,1,08,1.11,30.3,M,-17.3,M,,*6E
$GPVTG,177.12,T,,M,0.00,N,0.00,K,A*3F
$GPGGA,210030.500,4739.3136,N,12219.2982,W,1,08,1.11,30.3,M,-17.3,M,,*6C
$GPRMC,210030.500,A,4739.3136,N,12219.2982,W,0.00,108.99,150822,,,A*7A
$GPVTG,108.99,T,,M,0.00,N,0.01,K,A*35
$GPGGA,210030.750,4739.3136,N,12219.2982,W,1,08,1.11,30.3,M,-17.3,M,,*6B
$GPVTG,87.23,T,,M,0.00,N,0.00,K,A*03
$GPGGA,210031.000,4739.3136,N,12219.2982,W,1,08,1.11,30.3,M,-17.3,M,,*68
$GPVTG,0.00,T,,M,0.00,N,0.00,K,A*3D
$GPGGA,210031.250,4739.3136,N,12219.2982,W,1,08,1.11,30.3,M,-17.3,M,,*6F
$GPVTG,282.06,T,,M,0.00,N,0.01,K,A*32
$GPGGA,210031.500,4739.3136,N,12219.2982,W,1,08,1.11,30.3,M,-17.3,M,,*6D
$GPRMC,210031.500,A,4739.3136,N,12219.2982,W,0.00,267.34,150822,,,A*76
$GPVTG,267.34,T,,M,0.00,N,0.01,K,A*38
$GPGGA,210031.750,4739.3136,N,12219.2982,W,1,08,1.11,30.3,M,-17.3,M,,*6A
$GPVTG,228.26,T,,M,0.00,N,0.01,K,A*30
$GPGGA,210032.000,4739.3136,N,12219.2982,W,1,08,1.11,30.3,M,-17.3,M,,*6B
$GPVTG,188.30,T,,M,0.00,N,0.00,K,A*3F
$GPGGA,210032.250,4739.3136,N,12219.2982,W,1,08,1.11,30.3,M,-17.3,M,,*6C
$GPVTG,0.00,T,,M,0.00,N,0.00,K,A*3D
$GPGGA,210032.500,4739.3136,N,12219.2982,W,1,08,1.11,30.3,M,-17.3,M,,*6E
$GPRMC,210032.500,A,4739.3136,N,12219.2982,W,0.00,58.64,150822,,,A*4E
$GPVTG,58.64,T,,M,0.00,N,0.00,K,A*02
$GPGGA,210032.750,4739.3136,N,12219.2982,W,1,08,1.11,30.3,M,-17.3,M,,*69
$GPVTG,0.00,T,,M,0.00,N,0.00,K,A*3D
$GPGGA,210033.000,4739.3136,N,12219.2982,W,1,08,1.11,30.3,M,-17.3,M,,*6A
$GPVTG,188.28,T,,M,0.00,N,0.01,K,A*37
$GPGGA,210033.250,4739.3136,N,12219.2982,W,1,08,1.11,30.3,M,-17.3,M,,*6D
$GPVTG,106.58,T,,M,0.00,N,0.00,K,A*37
$GPGGA,210033.500,4739.3136,N,12219.2982,W,2,08,1.03,30.4,M,-17.3,M,0000,0000*68
$GPRMC,210033.500,A,4739.3136,N,12219.2982,W,0.00,5.48,150822,,,D*7C
$GPVTG,5.48,T,,M,0.00,N,0.01,K,D*30
$GPGGA,210033.750,4739.3136,N,12219.2982,W,2,08,1.03,30.5,M,-17.3,M,0000,0000*6E
$GPVTG,359.19,T,,M,0.01,N,0.01,K,D*3F
$GPGGA,210034.000,4739.3136,N,12219.2982,W,2,08,1.03,30.6,M,-17.3,M,0000,0000*68
$GPVTG,354.64,T,,M,0.01,N,0.02,K,D*3B
$GPGGA,210034.250,4739.3136,N,12219.2982,W,2,08,1.03,30.7,M,-17.3,M,0000,0000*6E
$GPVTG,2.06,T,,M,0.01,N,0.03,K,D*3E
$GPGGA,210034.500,4739.3136,N,12219.2981,W,2,08,1.03,30.8,M,-17.3,M,0000,0000*60
$GPRMC,210034.500,A,4739.3136,N,12219.2981,W,0.02,5.22,150822,,,D*76
$GPVTG,5.22,T,,M,0.02,N,0.03,K,D*3C
$GPGGA,210034.750,4739.3136,N,12219.2981,W,2,08,1.03,30.8,M,-17.3,M,0000,0000*67
$GPVTG,352.78,T,,M,0.02,N,0.03,K,D*32
$GPGGA,210035.000,4739.3136,N,12219.2981,W,2,08,1.03,30.9,M,-17.3,M,0000,0000*65
$GPVTG,348.38,T,,M,0.02,N,0.04,K,D*3A
$GPGGA,210035.250,4739.3136,N,12219.2981,W,2,08,1.03,31.0,M,-17.3,M,0000,0000*6A
$GPVTG,351.65,T,,M,0.02,N,0.04,K,D*3A
$GPGGA,210035.500,4739.3136,N,12219.2981,W,2,08,1.03,31.0,M,-17.3,M,0000,0000*68
$GPRMC,210035.500,A,4739.3136,N,12219.2981,W,0.02,343.87,150822,,,D*79
$GPVTG,343.87,T,,M,0.02,N,0.03,K,D*32
$GPGGA,210035.750,4739.3136,N,12219.2981,W,2,08,1.03,31.1,M,-17.3,M,0000,0000*6E
$GPVTG,343.11,T,,M,0.02,N,0.04,K,D*3A
$GPGGA,210036.000,4739.3136,N,12219.2980,W,2,08,1.03,31.2,M,-17.3,M,0000,0000*6D
$GPVTG,336.59,T,,M,0.02,N,0.04,K,D*34
$GPGGA,210036.250,4739.3136,N,12219.2980,W,2,08,1.03,31.3,M,-17.3,M,0000,0000*6B
$GPVTG,333.91,T,,M,0.02,N,0.04,K,D*35
$GPGGA,210036.500,4739.3136,N,12219.2980,W,2,08,1.03,31.3,M,-17.3,M,0000,0000*69
$GPRMC,210036.500,A,4739.3136,N,12219.2980,W,0.02,344.28,150822,,,D*79
$GPVTG,344.28,T,,M,0.02,N,0.04,K,D*37
$GPGGA,210036.750,4739.3136,N,12219.2980,W,2,08,1.03,31.4,M,-17.3,M,0000,0000*69
$GPVTG,349.42,T,,M,0.02,N,0.04,K,D*36
$GPGGA,210037.000,4739.3136,N,12219.2980,W,2,08,1.03,31.5,M,-17.3,M,0000,0000*6B
$GPVTG,351.99,T,,M,0.02,N,0.04,K,D*39
$GPGGA,210037.250,4739.3136,N,12219.2980,W,2,08,1.03,31.6,M,-17.3,M,0000,0000*6F
$GPVTG,351.14,T,,M,0.03,N,0.05,K,D*3C
$GPGGA,210037.500,4739.3136,N,12219.2980,W,2,08,1.03,31.6,M,-17.3,M,0000,0000*6D
$GPRMC,210037.500,A,4739.3136,N,12219.2980,W,0.03,350.38,150822,,,D*7D
$GPVTG,350.38,T,,M,0.03,N,0.05,K,D*33
$GPGGA,210037.750,4739.3136,N,12219.2979,W,2,08,1.03,31.7,M,-17.3,M,0000,0000*6D
$GPVTG,359.30,T,,M,0.02,N,0.05,K,D*33
$GPGGA,210038.000,4739.3136,N,12219.2979,W,2,08,1.03,31.8,M,-17.3,M,0000,0000*6F
$GPVTG,10.88,T,,M,0.02,N,0.04,K,D*0F
$GPGGA,210038.250,4739.3136,N,12219.2979,W,2,08,1.03,31.8,M,-17.3,M,0000,0000*68
$GPVTG,18.31,T,,M,0.02,N,0.04,K,D*05
$GPGGA,210038.500,4739.3135,N,12219.2978,W,2,08,1.03,31.9,M,-17.3,M,0000,0000*69
$GPRMC,210038.500,A,4739.3135,N,12219.2978,W,0.02,20.56,150822,,,D*4B
$GPVTG,20.56,T,,M,0.02,N,0.04,K,D*0F
$GPGGA,210038.750,4739.3135,N,12219.2978,W,2,08,1.03,31.9,M,-17.3,M,0000,0000*6E
$GPVTG,12.80,T,,M,0.02,N,0.04,K,D*05
$GPGGA,210039.000,4739.3135,N,12219.2978,W,2,08,1.03,32.0,M,-17.3,M,0000,0000*67
$GPVTG,4.70,T,,M,0.02,N,0.03,K,D*3A
$GPGGA,210039.250,4739.3135,N,12219.2978,W,2,08,1.03,32.1,M,-17.3,M,0000,0000*61
$GPVTG,1.28,T,,M,0.02,N,0.03,K,D*32
$GPGGA,210039.500,4739.3135,N,12219.2978,W,2,08,1.03,32.2,M,-17.3,M,0000,0000*60
$GPRMC,210039.500,A,4739.3135,N,12219.2978,W,0.02,7.76,150822,,,D*7D
$GPVTG,7.76,T,,M,0.02,N,0.03,K,D*3F
$GPGGA,210039.750,4739.3135,N,12219.2978,W,2,08,1.03,32.2,M,-17.3,M,0000,0000*67
$GPVTG,6.36,T,,M,0.02,N,0.03,K,D*3A
$GPGGA,210040.000,4739.3135,N,12219.2978,W,2,08,1.03,32.3,M,-17.3,M,0000,0000*6A
$GPVTG,8.16,T,,M,0.02,N,0.04,K,D*31
$GPGGA,210040.250,4739.3135,N,12219.2978,W,2,08,1.03,32.3,M,-17.3,M,0000,0000*6D
$GPVTG,5.92,T,,M,0.02,N,0.04,K,D*30
$GPGGA,210040.500,4739.3135,N,12219.2978,W,2,08,1.03,32.4,M,-17.3,M,0000,0000*68
$GPRMC,210040.500,A,4739.3135,N,12219.2978,W,0.02,8.20,150822,,,D*7F
$GPVTG,8.20,T,,M,0.02,N,0.03,K,D*33
$GPGGA,210040.750,4739.3135,N,12219.2977,W,2,08,1.03,32.5,M,-17.3,M,0000,0000*61
$GPVTG,11.26,T,,M,0.01,N,0.02,K,D*0F
$GPGGA,210041.000,4739.3134,N,12219.2977,W,2,08,1.03,32.5,M,-17.3,M,0000,0000*63
$GPVTG,56.55,T,,M,0.00,N,0.01,K,D*0A
$GPGGA,210041.250,4739.3134,N,12219.2977,W,2,08,1.03,32.6,M,-17.3,M,0000,0000*67
$GPVTG,41.48,T,,M,0.00,N,0.01,K,D*00
$GPGGA,210041.500,4739.3134,N,12219.2977,W,2,08,1.03,32.6,M,-17.3,M,0000,0000*65
$GPRMC,210041.500,A,4739.3134,N,12219.2977,W,0.00,0.00,150822,,,D*78
$GPVTG,0.00,T,,M,0.00,N,0.00,K,D*38
$GPGGA,210041.750,4739.3134,N,12219.2977,W,2,08,1.03,32.7,M,-17.3,M,0000,0000*63
$GPVTG,0.00,T,,M,0.00,N,0.00,K,D*38
$GPGGA,210042.000,4739.3134,N,12219.2977,W,2,08,1.03,32.7,M,-17.3,M,0000,0000*62
$GPVTG,40.94,T,,M,0.00,N,0.01,K,D*00
$GPGGA,210042.250,4739.3134,N,12219.2977,W,2,08,1.03,32.8,M,-17.3,M,0000,0000*6A
$GPVTG,57.08,T,,M,0.01,N,0.01,K,D*02
$GPGGA,210042.500,4739.3134,N,12219.2977,W,2,08,1.03,32.8,M,-17.3,M,0000,0000*68
$GPRMC,210042.500,A,4739.3134,N,12219.2977,W,0.00,0.00,150822,,,D*7B
$GPVTG,0.00,T,,M,0.00,N,0.00,K,D*38
$GPGGA,210042.750,4739.3134,N,12219.2977,W,2,08,1.03,32.9,M,-17.3,M,0000,0000*6E
$GPVTG,220.36,T,,M,0.01,N,0.01,K,D*3D
$GPGGA,210043.000,4739.3134,N,12219.2977,W,2,08,1.03,32.9,M,-17.3,M,0000,0000*6D
$GPVTG,210.28,T,,M,0.01,N,0.02,K,D*32
$GPGGA,210043.250,4739.3134,N,12219.2977,W,2,08,1.03,33.0,M,-17.3,M,0000,0000*62
$GPVTG,188.53,T,,M,0.01,N,0.02,K,D*3C
$GPGGA,210043.500,4739.3134,N,12219.2977,W,2,08,1.03,33.0,M,-17.3,M,0000,0000*60
$GPRMC,210043.500,A,4739.3134,N,12219.2977,W,0.01,155.22,150822,,,D*7A
$GPVTG,155.22,T,,M,0.01,N,0.02,K,D*3A
$GPGGA,210043.750,4739.3133,N,12219.2977,W,2,08,1.03,33.0,M,-17.3,M,0000,0000*60
$GPVTG,147.15,T,,M,0.01,N,0.01,K,D*3E
$GPGGA,210044.000,4739.3133,N,12219.2977,W,2,08,1.03,33.1,M,-17.3,M,0000,0000*64
$GPVTG,211.60,T,,M,0.00,N,0.01,K,D*3D
$GPGGA,210044.250,4739.3133,N,12219.2977,W,2,08,1.03,33.1,M,-17.3,M,0000,0000*63
$GPVTG,309.56,T,,M,0.00,N,0.01,K,D*30
$GPGGA,210044.500,4739.3133,N,12219.2976,W,2,08,1.03,33.2,M,-17.3,M,0000,0000*63
$GPRMC,210044.500,A,4739.3133,N,12219.2976,W,0.01,349.94,150822,,,D*79
$GPVTG,349.94,T,,M,0.01,N,0.02,K,D*38
$GPGGA,210044.750,4739.3133,N,12219.2976,W,2,08,1.03,33.2,M,-17.3,M,0000,0000*64
$GPVTG,9.65,T,,M,0.00,N,0.01,K,D*33
$GPGGA,210045.000,4739.3134,N,12219.2976,W,2,08,1.03,33.3,M,-17.3,M,0000,0000*61
$GPVTG,319.39,T,,M,0.01,N,0.01,K,D*39
$GPGGA,210045.250,4739.3134,N,12219.2976,W,2,08,1.03,33.3,M,-17.3,M,0000,0000*66
$GPVTG,321.22,T,,M,0.01,N,0.02,K,D*3B
$GPGGA,210045.500,4739.3134,N,12219.2976,W,2,08,1.03,33.4,M,-17.3,M,0000,0000*63
$GPRMC,210045.500,A,4739.3134,N,12219.2976,W,0.00,351.82,150822,,,D*70
$GPVTG,351.82,T,,M,0.00,N,0.01,K,D*34
$GPGGA,210045.750,4739.3134,N,12219.2976,W,2,08,1.03,33.4,M,-17.3,M,0000,0000*64
$GPVTG,21.06,T,,M,0.01,N,0.01,K,D*0D
$GPGGA,210046.000,4739.3134,N,12219.2976,W,2,08,1.03,33.4,M,-17.3,M,0000,0000*65
$GPVTG,26.96,T,,M,0.01,N,0.01,K,D*03
$GPGGA,210046.250,4739.3134,N,12219.2976,W,2,08,1.03,33.5,M,-17.3,M,0000,0000*63
$GPVTG,115.08,T,,M,0.00,N,0.01,K,D*34
$GPGGA,210046.500,4739.3134,N,12219.2976,W,2,08,1.03,33.5,M,-17.3,M,0000,0000*61
$GPRMC,210046.500,A,4739.3134,N,12219.2976,W,0.00,177.43,150822,,,D*78
$GPVTG,177.43,T,,M,0.00,N,0.01,K,D*3F
$GPGGA,210046.750,4739.3134,N,12219.2976,W,2,08,1.03,33.6,M,-17.3,M,0000,0000*65
$GPVTG,293.99,T,,M,0.01,N,0.01,K,D*30
$GPGGA,210047.000,4739.3134,N,12219.2976,W,2,08,1.03,33.6,M,-17.3,M,0000,0000*66
$GPVTG,332.99,T,,M,0.01,N,0.01,K,D*3A
$GPGGA,210047.250,4739.3134,N,12219.2976,W,2,08,1.03,33.6,M,-17.3,M,0000,0000*61
$GPVTG,332.50,T,,M,0.01,N,0.01,K,D*3F
$GPGGA,210047.500,4739.3134,N,12219.2976,W,2,08,1.03,33.7,M,-17.3,M,0000,0000*62
$GPRMC,210047.500,A,4739.3134,N,12219.2976,W,0.00,266.64,150822,,,D*7F
$GPVTG,266.64,T,,M,0.00,N,0.00,K,D*38
$GPGGA,210047.750,4739.3134,N,12219.2976,W,2,08,1.03,33.7,M,-17.3,M,0000,0000*65
$GPVTG,225.53,T,,M,0.00,N,0.01,K,D*3A
$GPGGA,210048.000,4739.3134,N,12219.2976,W,2,08,1.03,33.7,M,-17.3,M,0000,0000*68
$GPVTG,232.83,T,,M,0.00,N,0.01,K,D*31
$GPGGA,210048.250,4739.3134,N,12219.2976,W,2,08,1.03,33.8,M,-17.3,M,0000,0000*60
$GPVTG,218.08,T,,M,0.00,N,0.01,K,D*3A
$GPGGA,210048.500,4739.3134,N,12219.2976,W,2,08,1.03,33.8,M,-17.3,M,0000,0000*62
$GPRMC,210048.500,A,4739.3134,N,12219.2976,W,0.00,153.42,150822,,,D*71
$GPVTG,153.42,T,,M,0.00,N,0.01,K,D*38
$GPGGA,210048.750,4739.3134,N,12219.2975,W,2,08,1.03,33.8,M,-17.3,M,0000,0000*66
$GPVTG,175.93,T,,M,0.00,N,0.00,K,D*31
$GPGGA,210049.000,4739.3134,N,12219.2975,W,2,08,1.03,33.8,M,-17.3,M,0000,0000*65
$GPVTG,89.74,T,,M,0.00,N,0.01,K,D*0B
$GPGGA,210049.250,4739.3134,N,12219.2975,W,2,08,1.03,33.8,M,-17.3,M,0000,0000*62
$GPVTG,49.76,T,,M,0.01,N,0.01,K,D*04
$GPGGA,210049.500,4739.3134,N,12219.2974,W,2,08,1.03,33.8,M,-17.3,M,0000,0000*61
$GPRMC,210049.500,A,4739.3134,N,12219.2974,W,0.03,134.20,150822,,,D*74
$GPVTG,134.20,T,,M,0.03,N,0.05,K,D*3A
$GPGGA,210049.750,4739.3133,N,12219.2974,W,2,08,1.03,33.8,M,-17.3,M,0000,0000*61
$GPVTG,113.96,T,,M,0.01,N,0.03,K,D*36
$GPGGA,210050.000,4739.3133,N,12219.2973,W,2,08,1.03,33.9,M,-17.3,M,0000,0000*6D
$GPVTG,146.41,T,,M,0.02,N,0.04,K,D*38
$GPGGA,210050.250,4739.3133,N,12219.2972,W,2,08,1.03,33.9,M,-17.3,M,0000,0000*6B
$GPVTG,86.65,T,,M,0.03,N,0.05,K,D*03
$GPGGA,210050.500,4739.3133,N,12219.2972,W,2,08,1.03,33.9,M,-17.3,M,0000,0000*69
$GPRMC,210050.500,A,4739.3133,N,12219.2972,W,0.00,34.25,150822,,,D*4A
$GPVTG,34.25,T,,M,0.00,N,0.01,K,D*09
$GPGGA,210050.750,4739.3133,N,12219.2972,W,2,08,1.03,33.9,M,-17.3,M,0000,0000*6E
$GPVTG,282.61,T,,M,0.00,N,0.01,K,D*36
$GPGGA,210051.000,4739.3133,N,12219.2972,W,2,08,1.03,33.9,M,-17.3,M,0000,0000*6D
$GPVTG,75.41,T,,M,0.01,N,0.01,K,D*0F
$GPGGA,210051.250,4739.3133,N,12219.2972,W,2,08,1.03,33.9,M,-17.3,M,0000,0000*6A
$GPVTG,149.46,T,,M,0.01,N,0.01,K,D*36
$GPGGA,210051.500,4739.3133,N,12219.2971,W,2,08,1.03,33.9,M,-17.3,M,0000,0000*6B
$GPRMC,210051.500,A,4739.3133,N,12219.2971,W,0.01,84.95,150822,,,D*49
$GPVTG,84.95,T,,M,0.01,N,0.02,K,D*0B
$GPGGA,210051.750,4739.3133,N,12219.2971,W,2,08,1.03,33.9,M,-17.3,M,0000,0000*6C
$GPVTG,181.76,T,,M,0.00,N,0.01,K,D*30
$GPGGA,210052.000,4739.3133,N,12219.2971,W,2,08,1.03,33.9,M,-17.3,M,0000,0000*6D
$GPVTG,266.87,T,,M,0.00,N,0.00,K,D*35
$GPGGA,210052.250,4739.3133,N,12219.2971,W,2,08,1.03,33.9,M,-17.3,M,0000,0000*6A
$GPVTG,95.53,T,,M,0.00,N,0.01,K,D*03
$GPGGA,210052.500,4739.3133,N,12219.2971,W,2,08,1.03,33.9,M,-17.3,M,0000,0000*68
$GPRMC,210052.500,A,4739.3133,N,12219.2971,W,0.01,40.82,150822,,,D*44
$GPVTG,40.82,T,,M,0.01,N,0.02,K,D*05
$GPGGA,210052.750,4739.3133,N,12219.2971,W,2,08,1.03,34.0,M,-17.3,M,0000,0000*61
$GPVTG,78.71,T,,M,0.00,N,0.00,K,D*01
$GPGGA,210053.000,4739.3133,N,12219.2970,W,2,08,1.03,34.0,M,-17.3,M,0000,0000*63
$GPVTG,96.65,T,,M,0.01,N,0.01,K,D*04
$GPGGA,210053.250,4739.3133,N,12219.2970,W,2,08,1.03,34.0,M,-17.3,M,0000,0000*64
$GPVTG,63.96,T,,M,0.01,N,0.01,K,D*02
$GPGGA,210053.500,4739.3133,N,12219.2970,W,2,08,1.03,34.0,M,-17.3,M,0000,0000*66
$GPRMC,210053.500,A,4739.3133,N,12219.2970,W,0.01,108.37,150822,,,D*77
$GPVTG,108.37,T,,M,0.01,N,0.01,K,D*35
$GPGGA,210053.750,4739.3133,N,12219.2969,W,2,08,1.03,34.0,M,-17.3,M,0000,0000*69
$GPVTG,230.72,T,,M,0.00,N,0.00,K,D*3C
$GPGGA,210054.000,4739.3133,N,12219.2969,W,2,08,1.03,34.0,M,-17.3,M,0000,0000*6C
$GPVTG,337.65,T,,M,0.00,N,0.01,K,D*3D
$GPGGA,210054.250,4739.3133,N,12219.2969,W,2,08,1.03,34.0,M,-17.3,M,0000,0000*6B
$GPVTG,107.36,T,,M,0.01,N,0.01,K,D*3B
$GPGGA,210054.500,4739.3133,N,12219.2969,W,2,08,1.03,34.0,M,-17.3,M,0000,0000*69
$GPRMC,210054.500,A,4739.3133,N,12219.2969,W,0.00,86.01,150822,,,D*4B
$GPVTG,86.01,T,,M,0.00,N,0.01,K,D*06
$GPGGA,210054.750,4739.3133,N,12219.2969,W,2,08,1.03,34.0,M,-17.3,M,0000,0000*6E
$GPVTG,36.98,T,,M,0.01,N,0.01,K,D*0C
$GPGGA,210055.000,4739.3133,N,12219.2969,W,2,08,1.03,34.1,M,-17.3,M,0000,0000*6C
$GPVTG,312.48,T,,M,0.01,N,0.01,K,D*34
$GPGGA,210055.250,4739.3133,N,12219.2969,W,2,08,1.03,34.1,M,-17.3,M,0000,0000*6B
$GPVTG,50.05,T,,M,0.00,N,0.01,K,D*09
$GPGGA,210055.500,4739.3133,N,12219.2968,W,2,08,1.03,34.1,M,-17.3,M,0000,0000*68
$GPRMC,210055.500,A,4739.3133,N,12219.2968,W,0.01,351.12,150822,,,D*71
$GPVTG,351.12,T,,M,0.01,N,0.01,K,D*3C
$GPGGA,210055.750,4739.3133,N,12219.2968,W,2,08,1.03,34.1,M,-17.3,M,0000,0000*6F
$GPVTG,316.52,T,,M,0.00,N,0.01,K,D*3A
$GPGGA,210056.000,4739.3133,N,12219.2968,W,2,08,1.03,34.1,M,-17.3,M,0000,0000*6E
$GPVTG,342.31,T,,M,0.01,N,0.01,K,D*3F
$GPGGA,210056.250,4739.3133,N,12219.2968,W,2,08,1.03,34.1,M,-17.3,M,0000,0000*69
$GPVTG,309.37,T,,M,0.01,N,0.02,K,D*35
$GPGGA,210056.500,4739.3133,N,12219.2968,W,2,08,1.03,34.2,M,-17.3,M,0000,0000*68
$GPRMC,210056.500,A,4739.3133,N,12219.2968,W,0.00,118.77,150822,,,D*7F
$GPVTG,118.77,T,,M,0.00,N,0.01,K,D*31
$GPGGA,210056.750,4739.3133,N,12219.2968,W,2,08,1.03,34.2,M,-17.3,M,0000,0000*6F
$GPVTG,240.17,T,,M,0.00,N,0.01,K,D*39
$GPGGA,210057.000,4739.3133,N,12219.2968,W,2,08,1.03,34.2,M,-17.3,M,0000,0000*6C
$GPVTG,300.33,T,,M,0.00,N,0.01,K,D*3A
$GPGGA,210057.250,4739.3133,N,12219.2968,W,2,08,1.03,34.2,M,-17.3,M,0000,0000*6B
$GPVTG,51.43,T,,M,0.01,N,0.01,K,D*0B
$GPGGA,210057.500,4739.3133,N,12219.2968,W,2,08,1.03,34.2,M,-17.3,M,0000,0000*69
$GPRMC,210057.500,A,4739.3133,N,12219.2968,W,0.01,242.23,150822,,,D*72
$GPVTG,242.23,T,,M,0.01,N,0.01,K,D*3D
$GPGGA,210057.750,4739.3133,N,12219.2968,W,2,08,1.03,34.2,M,-17.3,M,0000,0000*6E
$GPVTG,61.49,T,,M,0.01,N,0.01,K,D*02
$GPGGA,210058.000,4739.3133,N,12219.2968,W,2,08,1.03,34.3,M,-17.3,M,0000,0000*62
$GPVTG,252.70,T,,M,0.01,N,0.01,K,D*3A
$GPGGA,210058.250,4739.3133,N,12219.2968,W,2,08,1.03,34.3,M,-17.3,M,0000,0000*65
$GPVTG,1.34,T,,M,0.01,N,0.02,K,D*3D
$GPGGA,210058.500,4739.3133,N,12219.2968,W,2,08,1.03,34.3,M,-17.3,M,0000,0000*67
$GPRMC,210058.500,A,4739.3133,N,12219.2968,W,0.00,92.18,150822,,,D*4B
$GPVTG,92.18,T,,M,0.00,N,0.01,K,D*0B
$GPGGA,210058.750,4739.3133,N,12219.2968,W,2,08,1.03,34.3,M,-17.3,M,0000,0000*60
$GPVTG,23.17,T,,M,0.00,N,0.01,K,D*0E
$GPGGA,210059.000,4739.3133,N,12219.2968,W,2,08,1.03,34.4,M,-17.3,M,0000,0000*64
$GPVTG,141.18,T,,M,0.00,N,0.00,K,D*35
$GPGGA,210059.250,4739.3133,N,12219.2968,W,2,08,1.03,34.4,M,-17.3,M,0000,0000*63
$GPVTG,338.27,T,,M,0.01,N,0.01,K,D*35
$GPGGA,210059.500,4739.3133,N,12219.2968,W,2,08,1.03,34.4,M,-17.3,M,0000,0000*61
$GPRMC,210059.500,A,4739.3133,N,12219.2968,W,0.00,317.32,150822,,,D*7C
$GPVTG,317.32,T,,M,0.00,N,0.01,K,D*3D
$GPGGA,210059.750,4739.3133,N,12219.2968,W,2,08,1.03,34.4,M,-17.3,M,0000,0000*66
$GPVTG,260.75,T,,M,0.00,N,0.00,K,D*3E
$GPGGA,210100.000,4739.3133,N,12219.2969,W,2,08,1.03,34.5,M,-17.3,M,0000,0000*69
$GPVTG,244.24,T,,M,0.00,N,0.01,K,D*3D
$GPGGA,210100.250,4739.3133,N,12219.2968,W,2,08,1.03,34.5,M,-17.3,M,0000,0000*6F
$GPVTG,0.00,T,,M,0.00,N,0.00,K,D*38
$GPGGA,210100.500,4739.3133,N,12219.2969,W,2,08,1.03,34.5,M,-17.3,M,0000,0000*6C
$GPRMC,210100.500,A,4739.3133,N,12219.2969,W,0.00,0.00,150822,,,D*74
$GPVTG,0.00,T,,M,0.00,N,0.00,K,D*38
$GPGGA,210100.750,4739.3133,N,12219.2969,W,2,08,1.03,34.5,M,-17.3,M,0000,0000*6B
$GPVTG,162.24,T,,M,0.01,N,0.01,K,D*3B
$GPGGA,210101.000,4739.3133,N,12219.2969,W,2,08,1.03,34.6,M,-17.3,M,0000,0000*6B
$GPVTG,91.47,T,,M,0.01,N,0.01,K,D*03
$GPGGA,210101.250,4739.3133,N,12219.2968,W,2,08,1.03,34.6,M,-17.3,M,0000,0000*6D
$GPVTG,150.04,T,,M,0.01,N,0.02,K,D*3B
$GPGGA,210101.500,4739.3133,N,12219.2969,W,2,08,1.03,34.6,M,-17.3,M,0000,0000*6E
$GPRMC,210101.500,A,4739.3133,N,12219.2969,W,0.00,220.05,150822,,,D*70
$GPVTG,220.05,T,,M,0.00,N,0.01,K,D*3C
$GPGGA,210101.750,4739.3132,N,12219.2968,W,2,08,1.03,34.6,M,-17.3,M,0000,0000*69
$GPVTG,128.84,T,,M,0.01,N,0.02,K,D*3C
$GPGGA,210102.000,4739.3132,N,12219.2968,W,2,08,1.03,34.7,M,-17.3,M,0000,0000*69
$GPVTG,151.19,T,,M,0.01,N,0.01,K,D*35
$GPGGA,210102.250,4739.3132,N,12219.2968,W,2,08,1.03,34.7,M,-17.3,M,0000,0000*6E
$GPVTG,203.20,T,,M,0.01,N,0.01,K,D*3B
$GPGGA,210102.500,4739.3132,N,12219.2969,W,2,08,1.03,34.7,M,-17.3,M,0000,0000*6D
$GPRMC,210102.500,A,4739.3132,N,12219.2969,W,0.01,223.04,150822,,,D*71
$GPVTG,223.04,T,,M,0.01,N,0.01,K,D*3F
$GPGGA,210102.750,4739.3132,N,12219.2969,W,2,08,1.03,34.7,M,-17.3,M,0000,0000*6A
$GPVTG,187.03,T,,M,0.01,N,0.01,K,D*35
$GPGGA,210103.000,4739.3132,N,12219.2969,W,2,08,1.03,34.8,M,-17.3,M,0000,0000*66
$GPVTG,239.13,T,,M,0.01,N,0.02,K,D*31
$GPGGA,210103.250,4739.3132,N,12219.2968,W,2,08,1.03,34.8,M,-17.3,M,0000,0000*60
$GPVTG,150.03,T,,M,0.01,N,0.01,K,D*3F
$GPGGA,210103.500,4739.3132,N,12219.2968,W,2,08,1.03,34.8,M,-17.3,M,0000,0000*62
$GPRMC,210103.500,A,4739.3132,N,12219.2968,W,0.01,208.51,150822,,,D*78
$GPVTG,208.51,T,,M,0.01,N,0.02,K,D*35
$GPGGA,210103.750,4739.3132,N,12219.2968,W,2,08,1.03,34.8,M,-17.3,M,0000,0000*65
$GPVTG,217.50,T,,M,0.01,N,0.01,K,D*39
$GPGGA,210104.000,4739.3132,N,12219.2968,W,2,08,1.03,34.8,M,-17.3,M,0000,0000*60
$GPVTG,256.40,T,,M,0.01,N,0.02,K,D*3E
$GPGGA,210104.250,4739.3132,N,12219.2968,W,2,08,1.03,34.8,M,-17.3,M,0000,0000*67
$GPVTG,0.00,T,,M,0.00,N,0.00,K,D*38
$GPGGA,210104.500,4739.3132,N,12219.2968,W,2,08,1.03,34.8,M,-17.3,M,0000,0000*65
$GPRMC,210104.500,A,4739.3132,N,12219.2968,W,0.01,175.64,150822,,,D*70
$GPVTG,175.64,T,,M,0.01,N,0.01,K,D*39
$GPGGA,210104.750,4739.3132,N,12219.2968,W,2,08,1.03,34.9,M,-17.3,M,0000,0000*63
$GPVTG,267.05,T,,M,0.01,N,0.01,K,D*3E
$GPGGA,210105.000,4739.3132,N,12219.2968,W,2,08,1.03,34.9,M,-17.3,M,0000,0000*60
$GPVTG,193.49,T,,M,0.00,N,0.00,K,D*3E
$GPGGA,210105.250,4739.3132,N,12219.2968,W,2,08,1.03,34.9,M,-17.3,M,0000,0000*67
$GPVTG,190.25,T,,M,0.00,N,0.00,K,D*37
$GPGGA,210105.500,4739.3132,N,12219.2968,W,2,08,1.03,34.9,M,-17.3,M,0000,0000*65
$GPRMC,210105.500,A,4739.3132,N,12219.2968,W,0.00,260.76,150822,,,D*74
$GPVTG,260.76,T,,M,0.00,N,0.01,K,D*3C
$GPGGA,210105.750,4739.3132,N,12219.2968,W,2,08,1.03,35.0,M,-17.3,M,0000,0000*6A
$GPVTG,185.61,T,,M,0.01,N,0.01,K,D*33
$GPGGA,210106.000,4739.3132,N,12219.2968,W,2,08,1.03,35.0,M,-17.3,M,0000,0000*6B
$GPVTG,310.30,T,,M,0.00,N,0.01,K,D*38
$GPGGA,210106.250,4739.3132,N,12219.2968,W,2,08,1.03,35.0,M,-17.3,M,0000,0000*6C
$GPVTG,212.46,T,,M,0.00,N,0.01,K,D*3A
$GPGGA,210106.500,4739.3132,N,12219.2968,W,2,08,1.03,35.0,M,-17.3,M,0000,0000*6E
$GPRMC,210106.500,A,4739.3132,N,12219.2968,W,0.00,255.19,150822,,,D*78
$GPVTG,255.19,T,,M,0.00,N,0.01,K,D*33
$GPGGA,210106.750,4739.3133,N,12219.2968,W,2,08,1.03,35.0,M,-17.3,M,0000,0000*68
$GPVTG,282.81,T,,M,0.01,N,0.02,K,D*3A
$GPGGA,210107.000,4739.3133,N,12219.2968,W,2,08,1.03,35.0,M,-17.3,M,0000,0000*6B
$GPVTG,292.62,T,,M,0.01,N,0.02,K,D*36
$GPGGA,210107.250,4739.3133,N,12219.2968,W,2,08,1.03,35.1,M,-17.3,M,0000,0000*6D
$GPVTG,310.08,T,,M,0.01,N,0.01,K,D*32
$GPGGA,210107.500,4739.3133,N,12219.2968,W,2,08,1.03,35.1,M,-17.3,M,0000,0000*6F
$GPRMC,210107.500,A,4739.3133,N,12219.2968,W,0.01,19.47,150822,,,D*48
$GPVTG,19.47,T,,M,0.01,N,0.01,K,D*03
$GPGGA,210107.750,4739.3133,N,12219.2968,W,2,08,1.03,35.1,M,-17.3,M,0000,0000*68
$GPVTG,346.62,T,,M,0.01,N,0.02,K,D*3E
$GPGGA,210108.000,4739.3133,N,12219.2968,W,2,08,1.03,35.1,M,-17.3,M,0000,0000*65
$GPVTG,356.52,T,,M,0.01,N,0.02,K,D*3C
$GPGGA,210108.250,4739.3133,N,12219.2968,W,2,08,1.03,35.1,M,-17.3,M,0000,0000*62
$GPVTG,330.13,T,,M,0.00,N,0.01,K,D*3B
$GPGGA,210108.500,4739.3133,N,12219.2968,W,2,08,1.03,35.1,M,-17.3,M,0000,0000*60
$GPRMC,210108.500,A,4739.3133,N,12219.2968,W,0.00,22.02,150822,,,D*4F
$GPVTG,22.02,T,,M,0.00,N,0.01,K,D*0B
$GPGGA,210108.750,4739.3134,N,12219.2968,W,2,08,1.03,35.2,M,-17.3,M,0000,0000*63
$GPVTG,334.96,T,,M,0.01,N,0.01,K,D*33
$GPGGA,210109.000,4739.3134,N,12219.2968,W,2,08,1.03,35.2,M,-17.3,M,0000,0000*60
$GPVTG,0.00,T,,M,0.00,N,0.00,K,D*38
$GPGGA,210109.250,4739.3134,N,12219.2968,W,2,08,1.03,35.2,M,-17.3,M,0000,0000*67
$GPVTG,330.70,T,,M,0.01,N,0.01,K,D*3F
$GPGGA,210109.500,4739.3134,N,12219.2968,W,2,08,1.03,35.2,M,-17.3,M,0000,0000*65
$GPRMC,210109.500,A,4739.3134,N,12219.2968,W,0.00,56.64,150822,,,D*4A
$GPVTG,56.64,T,,M,0.00,N,0.01,K,D*08
$GPGGA,210109.750,4739.3134,N,12219.2968,W,2,08,1.03,35.3,M,-17.3,M,0000,0000*63
$GPVTG,352.04,T,,M,0.01,N,0.02,K,D*3B
$GPGGA,210110.000,4739.3134,N,12219.2968,W,2,08,1.03,35.3,M,-17.3,M,0000,0000*69
$GPVTG,13.67,T,,M,0.00,N,0.00,K,D*0B
$GPGGA,210110.250,4739.3134,N,12219.2968,W,2,08,1.03,35.3,M,-17.3,M,0000,0000*6E
$GPVTG,45.46,T,,M,0.00,N,0.01,K,D*0A
$GPGGA,210110.500,4739.3134,N,12219.2968,W,2,08,1.03,35.3,M,-17.3,M,0000,0000*6C
$GPRMC,210110.500,A,4739.3134,N,12219.2968,W,0.01,26.41,150822,,,D*43
$GPVTG,26.41,T,,M,0.01,N,0.01,K,D*09
$GPGGA,210110.750,4739.3134,N,12219.2968,W,2,08,1.03,35.4,M,-17.3,M,0000,0000*6C
$GPVTG,9.86,T,,M,0.00,N,0.01,K,D*3E
$GPGGA,210111.000,4739.3134,N,12219.2968,W,2,08,1.03,35.4,M,-17.3,M,0000,0000*6F
$GPVTG,5.10,T,,M,0.01,N,0.01,K,D*3C
$GPGGA,210111.250,4739.3134,N,12219.2967,W,2,08,1.03,35.4,M,-17.3,M,0000,0000*67
$GPVTG,46.35,T,,M,0.01,N,0.01,K,D*0C
$GPGGA,210111.500,4739.3134,N,12219.2967,W,2,08,1.03,35.4,M,-17.3,M,0000,0000*65
$GPRMC,210111.500,A,4739.3134,N,12219.2967,W,0.00,291.81,150822,,,D*7E
$GPVTG,291.81,T,,M,0.00,N,0.00,K,D*3B
$GPGGA,210111.750,4739.3134,N,12219.2967,W,2,08,1.03,35.5,M,-17.3,M,0000,0000*63
$GPVTG,357.10,T,,M,0.01,N,0.01,K,D*38
$GPGGA,210112.000,4739.3134,N,12219.2967,W,2,08,1.03,35.5,M,-17.3,M,0000,0000*62
$GPVTG,40.36,T,,M,0.01,N,0.01,K,D*09
$GPGGA,210112.250,4739.3134,N,12219.2967,W,2,08,1.03,35.5,M,-17.3,M,0000,0000*65
$GPVTG,28.23,T,,M,0.01,N,0.01,K,D*03
$GPGGA,210112.500,4739.3134,N,12219.2967,W,2,08,1.03,35.5,M,-17.3,M,0000,0000*67
$GPRMC,210112.500,A,4739.3134,N,12219.2967,W,0.00,89.51,150822,,,D*4B
$GPVTG,89.51,T,,M,0.00,N,0.01,K,D*0C
$GPGGA,210112.750,4739.3134,N,12219.2967,W,2,08,1.03,35.6,M,-17.3,M,0000,0000*63
$GPVTG,124.85,T,,M,0.00,N,0.00,K,D*32
$GPGGA,210113.000,4739.3134,N,12219.2967,W,2,08,1.03,35.6,M,-17.3,M,0000,0000*60
$GPVTG,92.81,T,,M,0.00,N,0.00,K,D*0A
$GPGGA,210113.250,4739.3134,N,12219.2967,W,2,08,1.03,35.6,M,-17.3,M,0000,0000*67
$GPVTG,62.10,T,,M,0.00,N,0.00,K,D*0D
$GPGGA,210113.500,4739.3135,N,12219.2967,W,2,08,1.03,35.6,M,-17.3,M,0000,0000*64
$GPRMC,210113.500,A,4739.3135,N,12219.2967,W,0.00,50.11,150822,,,D*4B
$GPVTG,50.11,T,,M,0.00,N,0.00,K,D*0D
$GPGGA,210113.750,4739.3134,N,12219.2966,W,2,08,1.03,35.6,M,-17.3,M,0000,0000*63
$GPVTG,186.31,T,,M,0.00,N,0.00,K,D*35
$GPGGA,210114.000,4739.3134,N,12219.2967,W,2,08,1.03,35.6,M,-17.3,M,0000,0000*67
$GPVTG,232.05,T,,M,0.00,N,0.01,K,D*3F
$GPGGA,210114.250,4739.3135,N,12219.2967,W,2,08,1.03,35.6,M,-17.3,M,0000,0000*61
$GPVTG,243.14,T,,M,0.00,N,0.00,K,D*38
$GPGGA,210114.500,4739.3135,N,12219.2966,W,2,08,1.03,35.6,M,-17.3,M,0000,0000*62
$GPRMC,210114.500,A,4739.3135,N,12219.2966,W,0.00,211.48,150822,,,D*76
$GPVTG,211.48,T,,M,0.00,N,0.00,K,D*36
$GPGGA,210114.750,4739.3135,N,12219.2966,W,2,08,1.03,35.7,M,-17.3,M,0000,0000*64
$GPVTG,0.00,T,,M,0.00,N,0.00,K,D*38
$GPGGA,210115.000,4739.3135,N,12219.2966,W,2,08,1.03,35.7,M,-17.3,M,0000,0000*67
$GPVTG,244.31,T,,M,0.00,N,0.00,K,D*38
$GPGGA,210115.250,4739.3135,N,12219.2966,W,2,08,1.03,35.7,M,-17.3,M,0000,0000*60
$GPVTG,0.00,T,,M,0.00,N,0.00,K,D*38
$GPGGA,210115.500,4739.3135,N,12219.2966,W,2,08,1.03,35.7,M,-17.3,M,0000,0000*62
$GPRMC,210115.500,A,4739.3135,N,12219.2966,W,0.00,19.56,150822,,,D*42
$GPVTG,19.56,T,,M,0.00,N,0.01,K,D*02
$GPGGA,210115.750,4739.3135,N,12219.2966,W,2,08,1.03,35.7,M,-17.3,M,0000,0000*65
$GPVTG,35.30,T,,M,0.00,N,0.01,K,D*0C
$GPGGA,210116.000,4739.3135,N,12219.2966,W,2,08,1.03,35.7,M,-17.3,M,0000,0000*64
$GPVTG,273.25,T,,M,0.00,N,0.00,K,D*39
$GPGGA,210116.250,4739.3135,N,12219.2966,W,2,08,1.03,35.7,M,-17.3,M,0000,0000*63
$GPVTG,272.08,T,,M,0.01,N,0.01,K,D*37
$GPGGA,210116.500,4739.3135,N,12219.2966,W,2,08,1.03,35.7,M,-17.3,M,0000,0000*61
$GPRMC,210116.500,A,4739.3135,N,12219.2966,W,0.00,266.34,150822,,,D*7F
$GPVTG,266.34,T,,M,0.00,N,0.01,K,D*3C
$GPGGA,210116.750,4739.3135,N,12219.2966,W,2,08,1.03,35.7,M,-17.3,M,0000,0000*66
$GPVTG,340.43,T,,M,0.00,N,0.01,K,D*39
$GPGGA,210117.000,4739.3135,N,12219.2966,W,2,08,1.03,35.7,M,-17.3,M,0000,0000*65
$GPVTG,11.38,T,,M,0.01,N,0.01,K,D*03
$GPGGA,210117.250,4739.3135,N,12219.2966,W,2,08,1.03,35.7,M,-17.3,M,0000,0000*62
$GPVTG,343.20,T,,M,0.01,N,0.01,K,D*3E
$GPGGA,210117.500,4739.3135,N,12219.2966,W,2,08,1.03,35.7,M,-17.3,M,0000,0000*60
$GPRMC,210117.500,A,4739.3135,N,12219.2966,W,0.00,285.83,150822,,,D*7F
$GPVTG,285.83,T,,M,0.00,N,0.01,K,D*3D
$GPGGA,210117.750,4739.3135,N,12219.2966,W,2,08,1.03,35.7,M,-17.3,M,0000,0000*67
$GPVTG,269.10,T,,M,0.00,N,0.01,K,D*35
$GPGGA,210118.000,4739.3135,N,12219.2966,W,2,08,1.03,35.7,M,-17.3,M,0000,0000*6A
$GPVTG,268.21,T,,M,0.01,N,0.02,K,D*34
$GPGGA,210118.250,4739.3135,N,12219.2966,W,2,08,1.03,35.7,M,-17.3,M,0000,0000*6D
$GPVTG,273.02,T,,M,0.01,N,0.01,K,D*3C
$GPGGA,210118.500,4739.3135,N,12219.2966,W,2,08,1.03,35.7,M,-17.3,M,0000,0000*6F
$GPRMC,210118.500,A,4739.3135,N,12219.2966,W,0.00,0.00,150822,,,D*74
$GPVTG,0.00,T,,M,0.00,N,0.00,K,D*38
$GPGGA,210118.750,4739.3135,N,12219.2966,W,2,08,1.03,35.7,M,-17.3,M,0000,0000*68
$GPVTG,38.90,T,,M,0.00,N,0.00,K,D*0A
$GPGGA,210119.000,4739.3135,N,12219.2966,W,2,08,1.03,35.7,M,-17.3,M,0000,0000*6B
$GPVTG,0.00,T,,M,0.00,N,0.00,K,D*38
$GPGGA,210119.250,4739.3135,N,12219.2966,W,2,08,1.03,35.7,M,-17.3,M,0000,0000*6C
$GPVTG,302.18,T,,M,0.00,N,0.00,K,D*30
$GPGGA,210119.500,4739.3135,N,12219.2966,W,2,08,1.03,35.7,M,-17.3,M,0000,0000*6E
$GPRMC,210119.500,A,4739.3135,N,12219.2966,W,0.00,295.51,150822,,,D*7F
$GPVTG,295.51,T,,M,0.00,N,0.00,K,D*32
$GPGGA,210119.750,4739.3135,N,12219.2966,W,2,08,1.03,35.7,M,-17.3,M,0000,0000*69
$GPVTG,59.74,T,,M,0.00,N,0.00,K,D*07
$GPGGA,210120.000,4739.3135,N,12219.2966,W,2,08,1.03,35.7,M,-17.3,M,0000,0000*61
$GPVTG,78.83,T,,M,0.00,N,0.01,K,D*0D
$GPGGA,210120.250,4739.3135,N,12219.2966,W,2,08,1.03,35.7,M,-17.3,M,0000,0000*66
$GPVTG,178.99,T,,M,0.00,N,0.01,K,D*37
$GPGGA,210120.500,4739.3135,N,12219.2966,W,2,08,1.03,35.7,M,-17.3,M,0000,0000*64
$GPRMC,210120.500,A,4739.3135,N,12219.2966,W,0.01,91.33,150822,,,D*46
$GPVTG,91.33,T,,M,0.01,N,0.03,K,D*02
$GPGGA,210120.750,4739.3135,N,12219.2966,W,2,08,1.03,35.7,M,-17.3,M,0000,0000*63
$GPVTG,338.06,T,,M,0.01,N,0.02,K,D*35
$GPGGA,210121.000,4739.3135,N,12219.2966,W,2,08,1.03,35.7,M,-17.3,M,0000,0000*60
$GPVTG,307.87,T,,M,0.00,N,0.01,K,D*32
$GPGGA,210121.250,4739.3135,N,12219.2966,W,2,08,1.03,35.7,M,-17.3,M,0000,0000*67
$GPVTG,299.86,T,,M,0.01,N,0.02,K,D*37
$GPGGA,210121.500,4739.3135,N,12219.2966,W,2,08,1.03,35.7,M,-17.3,M,0000,0000*65
$GPRMC,210121.500,A,4739.3135,N,12219.2966,W,0.01,302.35,150822,,,D*78
$GPVTG,302.35,T,,M,0.01,N,0.01,K,D*3F
$GPGGA,210121.750,4739.3135,N,12219.2966,W,2,08,1.03,35.7,M,-17.3,M,0000,0000*62
$GPVTG,307.90,T,,M,0.01,N,0.01,K,D*35
$GPGGA,210122.000,4739.3135,N,12219.2966,W,2,08,1.03,35.7,M,-17.3,M,0000,0000*63
$GPVTG,347.10,T,,M,0.00,N,0.00,K,D*39
$GPGGA,210122.250,4739.3135,N,12219.2966,W,2,08,1.03,35.7,M,-17.3,M,0000,0000*64
$GPVTG,278.08,T,,M,0.01,N,0.02,K,D*3E
$GPGGA,210122.500,4739.3135,N,12219.2966,W,2,08,1.03,35.7,M,-17.3,M,0000,0000*66
$GPRMC,210122.500,A,4739.3135,N,12219.2966,W,0.02,356.74,150822,,,D*7C
$GPVTG,356.74,T,,M,0.02,N,0.04,K,D*3D
$GPGGA,210122.750,4739.3135,N,12219.2966,W,2,08,1.03,35.7,M,-17.3,M,0000,0000*61
$GPVTG,0.00,T,,M,0.00,N,0.00,K,D*38
$GPGGA,210123.000,4739.3135,N,12219.2966,W,2,08,1.03,35.7,M,-17.3,M,0000,0000*62
$GPVTG,297.67,T,,M,0.01,N,0.01,K,D*35
$GPGGA,210123.250,4739.3135,N,12219.2967,W,2,08,1.03,35.7,M,-17.3,M,0000,0000*64
$GPVTG,302.13,T,,M,0.01,N,0.01,K,D*3B
$GPGGA,210123.500,4739.3135,N,12219.2967,W,2,08,1.03,35.7,M,-17.3,M,0000,0000*66
$GPRMC,210123.500,A,4739.3135,N,12219.2967,W,0.00,297.09,150822,,,D*78
$GPVTG,297.09,T,,M,0.00,N,0.01,K,D*3C
$GPGGA,210123.750,4739.3135,N,12219.2967,W,2,08,1.03,35.7,M,-17.3,M,0000,0000*61
$GPVTG,326.20,T,,M,0.01,N,0.01,K,D*3D
$GPGGA,210124.000,4739.3135,N,12219.2967,W,2,08,1.03,35.7,M,-17.3,M,0000,0000*64
$GPVTG,242.18,T,,M,0.01,N,0.01,K,D*35
$GPGGA,210124.250,4739.3135,N,12219.2967,W,2,08,1.03,35.7,M,-17.3,M,0000,0000*63
$GPVTG,8.80,T,,M,0.01,N,0.02,K,D*3B
$GPGGA,210124.500,4739.3135,N,12219.2967,W,2,08,1.03,35.7,M,-17.3,M,0000,0000*61
$GPRMC,210124.500,A,4739.3135,N,12219.2967,W,0.01,160.47,150822,,,D*7F
$GPVTG,160.47,T,,M,0.01,N,0.01,K,D*3C
$GPGGA,210124.750,4739.3135,N,12219.2967,W,2,08,1.03,35.7,M,-17.3,M,0000,0000*66
$GPVTG,296.70,T,,M,0.00,N,0.01,K,D*33
$GPGGA,210125.000,4739.3135,N,12219.2967,W,2,08,1.03,35.7,M,-17.3,M,0000,0000*65
$GPVTG,264.35,T,,M,0.00,N,0.01,K,D*3F
$GPGGA,210125.250,4739.3135,N,12219.2967,W,2,08,1.03,35.7,M,-17.3,M,0000,0000*62
$GPVTG,295.91,T,,M,0.01,N,0.01,K,D*3E
$GPGGA,210125.500,4739.3135,N,12219.2967,W,2,08,1.03,35.7,M,-17.3,M,0000,0000*60
$GPRMC,210125.500,A,4739.3135,N,12219.2967,W,0.01,150.44,150822,,,D*7E
$GPVTG,150.44,T,,M,0.01,N,0.02,K,D*3F
$GPGGA,210125.750,4739.3135,N,12219.2967,W,2,08,1.03,35.7,M,-17.3,M,0000,0000*67
$GPVTG,210.35,T,,M,0.00,N,0.01,K,D*3C
$GPGGA,210126.000,4739.3135,N,12219.2967,W,2,08,1.03,35.7,M,-17.3,M,0000,0000*66
$GPVTG,95.89,T,,M,0.01,N,0.01,K,D*05
$GPGGA,210126.250,4739.3135,N,12219.2967,W,2,08,1.03,35.7,M,-17.3,M,0000,0000*61
$GPVTG,174.46,T,,M,0.00,N,0.01,K,D*39
$GPGGA,210126.500,4739.3135,N,12219.2967,W,2,08,1.03,35.7,M,-17.3,M,0000,0000*63
$GPRMC,210126.500,A,4739.3135,N,12219.2967,W,0.00,167.75,150822,,,D*7A
$GPVTG,167.75,T,,M,0.00,N,0.01,K,D*3B
$GPGGA,210126.750,4739.3135,N,12219.2967,W,2,08,1.03,35.7,M,-17.3,M,0000,0000*64
$GPVTG,208.89,T,,M,0.00,N,0.00,K,D*33
$GPGGA,210127.000,4739.3135,N,12219.2967,W,2,08,1.03,35.7,M,-17.3,M,0000,0000*67
$GPVTG,235.80,T,,M,0.01,N,0.02,K,D*37
$GPGGA,210127.250,4739.3135,N,12219.2967,W,2,08,1.03,35.7,M,-17.3,M,0000,0000*60
$GPVTG,303.16,T,,M,0.00,N,0.01,K,D*3E
$GPGGA,210127.500,4739.3135,N,12219.2967,W,2,08,1.03,35.7,M,-17.3,M,0000,0000*62
$GPRMC,210127.500,A,4739.3135,N,12219.2967,W,0.01,179.72,150822,,,D*72
$GPVTG,179.72,T,,M,0.01,N,0.02,K,D*31
$GPGGA,210127.750,4739.3135,N,12219.2967,W,2,08,1.03,35.7,M,-17.3,M,0000,0000*65
$GPVTG,127.32,T,,M,0.00,N,0.01,K,D*3C
$GPGGA,210128.000,4739.3135,N,12219.2967,W,2,08,1.03,35.7,M,-17.3,M,0000,0000*68
$GPVTG,146.02,T,,M,0.00,N,0.00,K,D*39
$GPGGA,210128.250,4739.3135,N,12219.2967,W,2,08,1.03,35.7,M,-17.3,M,0000,0000*6F
$GPVTG,199.14,T,,M,0.00,N,0.01,K,D*3D
$GPGGA,210128.500,4739.3135,N,12219.2967,W,2,08,1.03,35.7,M,-17.3,M,0000,0000*6D
$GPRMC,210128.500,A,4739.3135,N,12219.2967,W,0.00,254.78,150822,,,D*7A
$GPVTG,254.78,T,,M,0.00,N,0.01,K,D*35
$GPGGA,210128.750,4739.3135,N,12219.2967,W,2,08,1.03,35.7,M,-17.3,M,0000,0000*6A
$GPVTG,213.81,T,,M,0.01,N,0.01,K,D*31
$GPGGA,210129.000,4739.3135,N,12219.2967,W,2,08,1.03,35.7,M,-17.3,M,0000,0000*69
$GPVTG,115.19,T,,M,0.01,N,0.01,K,D*35
$GPGGA,210129.250,4739.3135,N,12219.2967,W,2,08,1.03,35.7,M,-17.3,M,0000,0000*6E
$GPVTG,295.98,T,,M,0.00,N,0.01,K,D*36
$GPGGA,210129.500,4739.3135,N,12219.2967,W,2,08,1.03,35.7,M,-17.3,M,0000,0000*6C
$GPRMC,210129.500,A,4739.3135,N,12219.2967,W,0.00,0.00,150822,,,D*77
$GPVTG,0.00,T,,M,0.00,N,0.00,K,D*38
$GPGGA,210129.750,4739.3135,N,12219.2967,W,2,08,1.03,35.7,M,-17.3,M,0000,0000*6B
$GPVTG,130.17,T,,M,0.00,N,0.00,K,D*3C
$GPGGA,210130.000,4739.3135,N,12219.2967,W,2,08,1.03,35.7,M,-17.3,M,0000,0000*61
$GPVTG,215.50,T,,M,0.00,N,0.01,K,D*3A
$GPGGA,210130.250,4739.3135,N,12219.2967,W,2,08,1.03,35.7,M,-17.3,M,0000,0000*66
$GPVTG,176.21,T,,M,0.00,N,0.01,K,D*3A
$GPGGA,210130.500,4739.3135,N,12219.2967,W,2,08,1.03,35.7,M,-17.3,M,0000,0000*64
$GPRMC,210130.500,A,4739.3135,N,12219.2967,W,0.01,141.36,150822,,,D*7F
$GPVTG,141.36,T,,M,0.01,N,0.01,K,D*39
$GPGGA,210130.750,4739.3135,N,12219.2967,W,2,08,1.03,35.7,M,-17.3,M,0000,0000*63
$GPVTG,96.39,T,,M,0.01,N,0.02,K,D*0E
$GPGGA,210131.000,4739.3135,N,12219.2967,W,2,08,1.03,35.7,M,-17.3,M,0000,0000*60
$GPVTG,288.58,T,,M,0.00,N,0.01,K,D*36
$GPGGA,210131.250,4739.3135,N,12219.2967,W,2,08,1.03,35.7,M,-17.3,M,0000,0000*67
$GPVTG,79.32,T,,M,0.00,N,0.00,K,D*07
$GPGGA,210131.500,4739.3135,N,12219.2967,W,2,08,1.03,35.7,M,-17.3,M,0000,0000*65
$GPRMC,210131.500,A,4739.3135,N,12219.2967,W,0.00,132.97,150822,,,D*70
$GPVTG,132.97,T,,M,0.00,N,0.01,K,D*37
$GPGGA,210131.750,4739.3135,N,12219.2967,W,2,08,1.03,35.7,M,-17.3,M,0000,0000*62
$GPVTG,75.42,T,,M,0.00,N,0.01,K,D*0D
$GPGGA,210132.000,4739.3135,N,12219.2967,W,2,08,1.03,35.7,M,-17.3,M,0000,0000*63
$GPVTG,134.27,T,,M,0.00,N,0.01,K,D*3A
$GPGGA,210132.250,4739.3135,N,12219.2967,W,2,08,1.03,35.7,M,-17.3,M,0000,0000*64
$GPVTG,92.94,T,,M,0.00,N,0.01,K,D*0F
$GPGGA,210132.500,4739.3135,N,12219.2967,W,2,08,1.03,35.7,M,-17.3,M,0000,0000*66
$GPRMC,210132.500,A,4739.3135,N,12219.2967,W,0.01,105.25,150822,,,D*7F
$GPVTG,105.25,T,,M,0.01,N,0.01,K,D*3B
$GPGGA,210132.750,4739.3135,N,12219.2967,W,2,08,1.03,35.7,M,-17.3,M,0000,0000*61
$GPVTG,359.28,T,,M,0.00,N,0.00,K,D*3D
$GPGGA,210133.000,4739.3135,N,12219.2966,W,2,08,1.03,35.7,M,-17.3,M,0000,0000*63
$GPVTG,88.28,T,,M,0.01,N,0.02,K,D*01
$GPGGA,210133.250,4739.3135,N,12219.2966,W,2,08,1.03,35.7,M,-17.3,M,0000,0000*64
$GPVTG,287.50,T,,M,0.00,N,0.01,K,D*31
$GPGGA,210133.500,4739.3135,N,12219.2966,W,2,08,1.03,35.7,M,-17.3,M,0000,0000*66
$GPRMC,210133.500,A,4739.3135,N,12219.2966,W,0.01,125.28,150822,,,D*70
$GPVTG,125.28,T,,M,0.01,N,0.01,K,D*34
$GPGGA,210133.750,4739.3135,N,12219.2966,W,2,08,1.03,35.7,M,-17.3,M,0000,0000*61
$GPVTG,0.09,T,,M,0.01,N,0.01,K,D*31
$GPGGA,210134.000,4739.3135,N,12219.2966,W,2,08,1.03,35.7,M,-17.3,M,0000,0000*64
$GPVTG,122.96,T,,M,0.01,N,0.02,K,D*35
$GPGGA,210134.250,4739.3135,N,12219.2966,W,2,08,1.03,35.7,M,-17.3,M,0000,0000*63
$GPVTG,328.30,T,,M,0.01,N,0.01,K,D*32
$GPGGA,210134.500,4739.3135,N,12219.2966,W,2,08,1.03,35.7,M,-17.3,M,0000,0000*61
$GPRMC,210134.500,A,4739.3135,N,12219.2966,W,0.01,54.63,150822,,,D*4F
$GPVTG,54.63,T,,M,0.01,N,0.01,K,D*0C
$GPGGA,210134.750,4739.3135,N,12219.2966,W,2,08,1.03,35.7,M,-17.3,M,0000,0000*66
$GPVTG,35.93,T,,M,0.00,N,0.00,K,D*04
$GPGGA,210135.000,4739.3135,N,12219.2966,W,2,08,1.03,35.7,M,-17.3,M,0000,0000*65
$GPVTG,82.03,T,,M,0.00,N,0.01,K,D*00
$GPGGA,210135.250,4739.3135,N,12219.2966,W,2,08,1.03,35.7,M,-17.3,M,0000,0000*62
$GPVTG,70.88,T,,M,0.01,N,0.02,K,D*0C
$GPGGA,210135.500,4739.3135,N,12219.2966,W,2,08,1.03,35.7,M,-17.3,M,0000,0000*60
$GPRMC,210135.500,A,4739.3135,N,12219.2966,W,0.01,142.76,150822,,,D*7C
$GPVTG,142.76,T,,M,0.01,N,0.01,K,D*3E
$GPGGA,210135.750,4739.3135,N,12219.2966,W,2,08,1.03,35.7,M,-17.3,M,0000,0000*67
$GPVTG,329.21,T,,M,0.01,N,0.02,K,D*30
$GPGGA,210136.000,4739.3135,N,12219.2966,W,2,08,1.03,35.7,M,-17.3,M,0000,0000*66
$GPVTG,109.28,T,,M,0.01,N,0.02,K,D*39
$GPGGA,210136.250,4739.3135,N,12219.2966,W,2,08,1.03,35.7,M,-17.3,M,0000,0000*61
$GPVTG,46.40,T,,M,0.01,N,0.02,K,D*0D
$GPGGA,210136.500,4739.3135,N,12219.2966,W,2,08,1.03,35.7,M,-17.3,M,0000,0000*63
$GPRMC,210136.500,A,4739.3135,N,12219.2966,W,0.00,5.89,150822,,,D*7C
$GPVTG,5.89,T,,M,0.00,N,0.01,K,D*3D
$GPGGA,210136.750,4739.3135,N,12219.2966,W,2,08,1.03,35.7,M,-17.3,M,0000,0000*64
$GPVTG,31.16,T,,M,0.00,N,0.00,K,D*0D
$GPGGA,210137.000,4739.3135,N,12219.2966,W,2,08,1.03,35.7,M,-17.3,M,0000,0000*67
$GPVTG,39.69,T,,M,0.01,N,0.01,K,D*0D
$GPGGA,210137.250,4739.3135,N,12219.2966,W,2,08,1.03,35.7,M,-17.3,M,0000,0000*60
$GPVTG,304.96,T,,M,0.00,N,0.01,K,D*31
$GPGGA,210137.500,4739.3135,N,12219.2966,W,2,08,1.03,35.7,M,-17.3,M,0000,0000*62
$GPRMC,210137.500,A,4739.3135,N,12219.2966,W,0.00,121.19,150822,,,D*73
$GPVTG,121.19,T,,M,0.00,N,0.00,K,D*32
$GPGGA,210137.750,4739.3135,N,12219.2966,W,2,08,1.03,35.7,M,-17.3,M,0000,0000*65
$GPVTG,0.00,T,,M,0.00,N,0.00,K,D*38
$GPGGA,210138.000,4739.3135,N,12219.2966,W,2,08,1.03,35.7,M,-17.3,M,0000,0000*68
$GPVTG,195.36,T,,M,0.00,N,0.00,K,D*30
$GPGGA,210138.250,4739.3135,N,12219.2966,W,2,08,1.03,35.7,M,-17.3,M,0000,0000*6F
$GPVTG,166.21,T,,M,0.00,N,0.01,K,D*3B
$GPGGA,210138.500,4739.3135,N,12219.2966,W,2,08,1.03,35.7,M,-17.3,M,0000,0000*6D
$GPRMC,210138.500,A,4739.3135,N,12219.2966,W,0.01,260.32,150822,,,D*72
$GPVTG,260.32,T,,M,0.01,N,0.01,K,D*3D
$GPGGA,210138.750,4739.3135,N,12219.2966,W,2,08,1.03,35.7,M,-17.3,M,0000,0000*6A
$GPVTG,283.36,T,,M,0.01,N,0.01,K,D*34
$GPGGA,210139.000,4739.3135,N,12219.2966,W,2,08,1.03,35.7,M,-17.3,M,0000,0000*69
$GPVTG,207.16,T,,M,0.01,N,0.01,K,D*3A
$GPGGA,210139.250,4739.3135,N,12219.2966,W,2,08,1.03,35.7,M,-17.3,M,0000,0000*6E
$GPVTG,274.09,T,,M,0.01,N,0.01,K,D*30
$GPGGA,210139.500,4739.3135,N,12219.2966,W,2,08,1.03,35.7,M,-17.3,M,0000,0000*6C
$GPRMC,210139.500,A,4739.3135,N,12219.2966,W,0.01,152.62,150822,,,D*74
$GPVTG,152.62,T,,M,0.01,N,0.01,K,D*3A
$GPGGA,210139.750,4739.3135,N,12219.2966,W,2,08,1.03,35.7,M,-17.3,M,0000,0000*6B
$GPVTG,225.51,T,,M,0.01,N,0.02,K,D*3A
$GPGGA,210140.000,4739.3135,N,12219.2966,W,2,08,1.03,35.7,M,-17.3,M,0000,0000*67
$GPVTG,294.76,T,,M,0.01,N,0.01,K,D*36
$GPGGA,210140.250,4739.3135,N,12219.2966,W,2,08,1.03,35.7,M,-17.3,M,0000,0000*60
$GPVTG,210.39,T,,M,0.01,N,0.01,K,D*31
$GPGGA,210140.500,4739.3135,N,12219.2966,W,2,08,1.03,35.7,M,-17.3,M,0000,0000*62
$GPRMC,210140.500,A,4739.3135,N,12219.2966,W,0.01,341.06,150822,,,D*78
$GPVTG,341.06,T,,M,0.01,N,0.01,K,D*38
$GPGGA,210140.750,4739.3135,N,12219.2966,W,2,08,1.03,35.7,M,-17.3,M,0000,0000*65
$GPVTG,246.05,T,,M,0.01,N,0.02,K,D*3E
$GPGGA,210141.000,4739.3135,N,12219.2966,W,2,08,1.03,35.7,M,-17.3,M,0000,0000*66
$GPVTG,207.87,T,,M,0.00,N,0.01,K,D*33
$GPGGA,210141.250,4739.3135,N,12219.2966,W,2,08,1.03,35.7,M,-17.3,M,0000,0000*61
$GPVTG,278.16,T,,M,0.01,N,0.01,K,D*32
$GPGGA,210141.500,4739.3135,N,12219.2966,W,2,08,1.03,35.7,M,-17.3,M,0000,0000*63
$GPRMC,210141.500,A,4739.3135,N,12219.2966,W,0.00,110.85,150822,,,D*75
$GPVTG,110.85,T,,M,0.00,N,0.01,K,D*34
$GPGGA,210141.750,4739.3135,N,12219.2966,W,2,08,1.03,35.7,M,-17.3,M,0000,0000*64
$GPVTG,341.53,T,,M,0.00,N,0.01,K,D*39
$GPGGA,210142.000,4739.3135,N,12219.2966,W,2,08,1.03,35.7,M,-17.3,M,0000,0000*65
$GPVTG,211.87,T,,M,0.01,N,0.01,K,D*35
$GPGGA,210142.250,4739.3135,N,12219.2966,W,2,08,1.03,35.7,M,-17.3,M,0000,0000*62
$GPVTG,274.87,T,,M,0.00,N,0.01,K,D*37
$GPGGA,210142.500,4739.3135,N,12219.2966,W,2,08,1.03,35.7,M,-17.3,M,0000,0000*60
$GPRMC,210142.500,A,4739.3135,N,12219.2966,W,0.00,203.80,150822,,,D*72
$GPVTG,203.80,T,,M,0.00,N,0.01,K,D*30
$GPGGA,210142.750,4739.3135,N,12219.2966,W,2,08,1.03,35.7,M,-17.3,M,0000,0000*67
$GPVTG,69.77,T,,M,0.00,N,0.01,K,D*06
$GPGGA,210143.000,4739.3135,N,12219.2966,W,2,08,1.03,35.7,M,-17.3,M,0000,0000*64
$GPVTG,129.14,T,,M,0.00,N,0.01,K,D*36
$GPGGA,210143.250,4739.3135,N,12219.2966,W,2,08,1.03,35.7,M,-17.3,M,0000,0000*63
$GPVTG,157.90,T,,M,0.00,N,0.00,K,D*32
$GPGGA,210143.500,4739.3135,N,12219.2966,W,2,08,1.03,35.7,M,-17.3,M,0000,0000*61
$GPRMC,210143.500,A,4739.3135,N,12219.2966,W,0.00,123.94,150822,,,D*77
$GPVTG,123.94,T,,M,0.00,N,0.01,K,D*34
$GPGGA,210143.750,4739.3135,N,12219.2966,W,2,08,1.03,35.7,M,-17.3,M,0000,0000*66
$GPVTG,41.63,T,,M,0.01,N,0.01,K,D*08
$GPGGA,210144.000,4739.3135,N,12219.2966,W,2,08,1.03,35.7,M,-17.3,M,0000,0000*63
$GPVTG,26.38,T,,M,0.00,N,0.01,K,D*06
$GPGGA,210144.250,4739.3135,N,12219.2966,W,2,08,1.03,35.7,M,-17.3,M,0000,0000*64
$GPVTG,18.59,T,,M,0.01,N,0.01,K,D*0D
$GPGGA,210144.500,4739.3135,N,12219.2966,W,2,08,1.03,35.7,M,-17.3,M,0000,0000*66
$GPRMC,210144.500,A,4739.3135,N,12219.2966,W,0.00,322.63,150822,,,D*7B
$GPVTG,322.63,T,,M,0.00,N,0.01,K,D*3F
$GPGGA,210144.750,4739.3135,N,12219.2966,W,2,08,1.03,35.7,M,-17.3,M,0000,0000*61
$GPVTG,353.69,T,,M,0.00,N,0.01,K,D*33
$GPGGA,210145.000,4739.3135,N,12219.2966,W,2,08,1.03,35.7,M,-17.3,M,0000,0000*62
$GPVTG,7.09,T,,M,0.00,N,0.01,K,D*37
$GPGGA,210145.250,4739.3135,N,12219.2966,W,2,08,1.03,35.7,M,-17.3,M,0000,0000*65
$GPVTG,353.14,T,,M,0.01,N,0.01,K,D*38
$GPGGA,210145.500,4739.3135,N,12219.2966,W,2,08,1.03,35.7,M,-17.3,M,0000,0000*67
$GPRMC,210145.500,A,4739.3135,N,12219.2966,W,0.01,26.51,150822,,,D*4D
$GPVTG,26.51,T,,M,0.01,N,0.01,K,D*08
$GPGGA,210145.750,4739.3135,N,12219.2966,W,2,08,1.03,35.7,M,-17.3,M,0000,0000*60
$GPVTG,17.24,T,,M,0.00,N,0.01,K,D*09
$GPGGA,210146.000,4739.3135,N,12219.2966,W,2,08,1.03,35.7,M,-17.3,M,0000,0000*61
$GPVTG,36.82,T,,M,0.01,N,0.01,K,D*07
$GPGGA,210146.250,4739.3135,N,12219.2966,W,2,08,1.03,35.7,M,-17.3,M,0000,0000*66
$GPVTG,355.38,T,,M,0.01,N,0.01,K,D*30
$GPGGA,210146.500,4739.3135,N,12219.2966,W,2,08,1.03,35.7,M,-17.3,M,0000,0000*64
$GPRMC,210146.500,A,4739.3135,N,12219.2966,W,0.01,68.98,150822,,,D*41
$GPVTG,68.98,T,,M,0.01,N,0.01,K,D*07
$GPGGA,210146.750,4739.3135,N,12219.2966,W,2,08,1.03,35.7,M,-17.3,M,0000,0000*63
$GPVTG,22.70,T,,M,0.01,N,0.01,K,D*0F
$GPGGA,210147.000,4739.3135,N,12219.2966,W,2,08,1.03,35.7,M,-17.3,M,0000,0000*60
$GPVTG,64.92,T,,M,0.00,N,0.00,K,D*01
$GPGGA,210147.250,4739.3135,N,12219.2966,W,2,08,1.03,35.7,M,-17.3,M,0000,0000*67
$GPVTG,333.08,T,,M,0.01,N,0.01,K,D*33
$GPGGA,210147.500,4739.3135,N,12219.2966,W,2,08,1.03,35.7,M,-17.3,M,0000,0000*65
$GPRMC,210147.500,A,4739.3135,N,12219.2966,W,0.01,66.74,150822,,,D*4C
$GPVTG,66.74,T,,M,0.01,N,0.02,K,D*08
$GPGGA,210147.750,4739.3135,N,12219.2966,W,2,08,1.03,35.7,M,-17.3,M,0000,0000*62
$GPVTG,52.02,T,,M,0.01,N,0.01,K,D*0D
$GPGGA,210148.000,4739.3135,N,12219.2966,W,2,08,1.03,35.7,M,-17.3,M,0000,0000*6F
$GPVTG,352.79,T,,M,0.00,N,0.00,K,D*32
$GPGGA,210148.250,4739.3135,N,12219.2966,W,2,08,1.03,35.7,M,-17.3,M,0000,0000*68
$GPVTG,69.00,T,,M,0.01,N,0.01,K,D*07
$GPGGA,210148.500,4739.3135,N,12219.2966,W,2,08,1.03,35.7,M,-17.3,M,0000,0000*6A
$GPRMC,210148.500,A,4739.3135,N,12219.2966,W,0.01,325.03,150822,,,D*77
$GPVTG,325.03,T,,M,0.01,N,0.02,K,D*3C
$GPGGA,210148.750,4739.3135,N,12219.2966,W,2,08,1.03,35.7,M,-17.3,M,0000,0000*6D
$GPVTG,264.26,T,,M,0.01,N,0.02,K,D*3F
$GPGGA,210149.000,4739.3135,N,12219.2966,W,2,08,1.03,35.7,M,-17.3,M,0000,0000*6E
$GPVTG,40.35,T,,M,0.01,N,0.02,K,D*09
$GPGGA,210149.250,4739.3135,N,12219.2966,W,2,08,1.03,35.7,M,-17.3,M,0000,0000*69
$GPVTG,359.71,T,,M,0.01,N,0.03,K,D*33
$GPGGA,210149.500,4739.3135,N,12219.2966,W,2,08,1.03,35.7,M,-17.3,M,0000,0000*6B
$GPRMC,210149.500,A,4739.3135,N,12219.2966,W,0.00,301.39,150822,,,D*78
$GPVTG,301.39,T,,M,0.00,N,0.01,K,D*31
$GPGGA,210149.750,4739.3135,N,12219.2966,W,2,08,1.03,35.7,M,-17.3,M,0000,0000*6C
$GPVTG,50.04,T,,M,0.00,N,0.00,K,D*09
$GPGGA,210150.000,4739.3135,N,12219.2966,W,2,08,1.03,35.7,M,-17.3,M,0000,0000*66
$GPVTG,51.03,T,,M,0.00,N,0.01,K,D*0E
$GPGGA,210150.250,4739.3135,N,12219.2966,W,2,08,1.03,35.7,M,-17.3,M,0000,0000*61
$GPVTG,334.48,T,,M,0.01,N,0.01,K,D*30
$GPGGA,210150.500,4739.3135,N,12219.2966,W,2,08,1.03,35.7,M,-17.3,M,0000,0000*63
$GPRMC,210150.500,A,4739.3135,N,12219.2966,W,0.00,0.00,150822,,,D*78
$GPVTG,0.00,T,,M,0.00,N,0.00,K,D*38
$GPGGA,210150.750,4739.3135,N,12219.2966,W,2,08,1.03,35.7,M,-17.3,M,0000,0000*64
$GPVTG,0.00,T,,M,0.00,N,0.00,K,D*38
$GPGGA,210151.000,4739.3135,N,12219.2966,W,2,08,1.03,35.7,M,-17.3,M,0000,0000*67
$GPVTG,298.61,T,,M,0.00,N,0.00,K,D*3C
$GPGGA,210151.250,4739.3135,N,12219.2966,W,2,08,1.03,35.7,M,-17.3,M,0000,0000*60
$GPVTG,250.15,T,,M,0.00,N,0.00,K,D*3B
$GPGGA,210151.500,4739.3135,N,12219.2966,W,2,08,1.03,35.7,M,-17.3,M,0000,0000*62
$GPRMC,210151.500,A,4739.3135,N,12219.2966,W,0.00,254.41,150822,,,D*7F
$GPVTG,254.41,T,,M,0.00,N,0.01,K,D*3F
$GPGGA,210151.750,4739.3135,N,12219.2966,W,2,08,1.03,35.7,M,-17.3,M,0000,0000*65
$GPVTG,282.40,T,,M,0.00,N,0.00,K,D*34
$GPGGA,210152.000,4739.3135,N,12219.2966,W,2,08,1.03,35.7,M,-17.3,M,0000,0000*64
$GPVTG,282.55,T,,M,0.00,N,0.00,K,D*30
$GPGGA,210152.250,4739.3135,N,12219.2966,W,2,08,1.03,35.7,M,-17.3,M,0000,0000*63
$GPVTG,0.00,T,,M,0.00,N,0.00,K,D*38
$GPGGA,210152.500,4739.3135,N,12219.2966,W,2,08,1.03,35.7,M,-17.3,M,0000,0000*61
$GPRMC,210152.500,A,4739.3135,N,12219.2966,W,0.00,254.43,150822,,,D*7E
$GPVTG,254.43,T,,M,0.00,N,0.00,K,D*3C
$GPGGA,210152.750,4739.3135,N,12219.2966,W,2,08,1.03,35.7,M,-17.3,M,0000,0000*66
$GPVTG,301.87,T,,M,0.00,N,0.00,K,D*35
$GPGGA,210153.000,4739.3135,N,12219.2966,W,2,08,1.03,35.7,M,-17.3,M,0000,0000*65
$GPVTG,322.84,T,,M,0.00,N,0.01,K,D*36
$GPGGA,210153.250,4739.3135,N,12219.2966,W,2,08,1.03,35.7,M,-17.3,M,0000,0000*62
$GPVTG,0.00,T,,M,0.00,N,0.00,K,D*38
$GPGGA,210153.500,4739.3135,N,12219.2966,W,2,08,1.03,35.7,M,-17.3,M,0000,0000*60
$GPRMC,210153.500,A,4739.3135,N,12219.2966,W,0.00,200.93,150822,,,D*73
$GPVTG,200.93,T,,M,0.00,N,0.00,K,D*30
$GPGGA,210153.750,4739.3135,N,12219.2966,W,2,08,1.03,35.7,M,-17.3,M,0000,0000*67
$GPVTG,0.00,T,,M,0.00,N,0.00,K,D*38
$GPGGA,210154.000,4739.3135,N,12219.2966,W,2,08,1.03,35.7,M,-17.3,M,0000,0000*62
$GPVTG,144.26,T,,M,0.00,N,0.01,K,D*3C
$GPGGA,210154.250,4739.3135,N,12219.2966,W,2,08,1.03,35.7,M,-17.3,M,0000,0000*65
$GPVTG,191.93,T,,M,0.00,N,0.00,K,D*3B
$GPGGA,210154.500,4739.3135,N,12219.2966,W,2,08,1.03,35.7,M,-17.3,M,0000,0000*67
$GPRMC,210154.500,A,4739.3135,N,12219.2966,W,0.00,357.46,150822,,,D*7F
$GPVTG,357.46,T,,M,0.00,N,0.00,K,D*3B
$GPGGA,210154.750,4739.3135,N,12219.2966,W,2,08,1.03,35.7,M,-17.3,M,0000,0000*60
$GPVTG,33.55,T,,M,0.00,N,0.01,K,D*09
$GPGGA,210155.000,4739.3135,N,12219.2966,W,2,08,1.03,35.7,M,-17.3,M,0000,0000*63
$GPVTG,229.02,T,,M,0.00,N,0.00,K,D*33
$GPGGA,210155.250,4739.3135,N,12219.2966,W,2,08,1.03,35.7,M,-17.3,M,0000,0000*64
$GPVTG,237.34,T,,M,0.00,N,0.00,K,D*39
$GPGGA,210155.500,4739.3135,N,12219.2966,W,2,08,1.03,35.7,M,-17.3,M,0000,0000*66
$GPRMC,210155.500,A,4739.3135,N,12219.2966,W,0.00,232.62,150822,,,D*7A
$GPVTG,232.62,T,,M,0.00,N,0.00,K,D*3F
$GPGGA,210155.750,4739.3135,N,12219.2966,W,2,08,1.03,35.7,M,-17.3,M,0000,0000*61
$GPVTG,251.95,T,,M,0.00,N,0.00,K,D*32
$GPGGA,210156.000,4739.3135,N,12219.2966,W,2,08,1.03,35.7,M,-17.3,M,0000,0000*60
$GPVTG,0.00,T,,M,0.00,N,0.00,K,D*38
$GPGGA,210156.250,4739.3135,N,12219.2966,W,2,08,1.03,35.7,M,-17.3,M,0000,0000*67
$GPVTG,0.00,T,,M,0.00,N,0.00,K,D*38
$GPGGA,210156.500,4739.3135,N,12219.2966,W,2,08,1.03,35.7,M,-17.3,M,0000,0000*65
$GPRMC,210156.500,A,4739.3135,N,12219.2966,W,0.00,0.00,150822,,,D*7E
$GPVTG,0.00,T,,M,0.00,N,0.00,K,D*38
$GPGGA,210156.750,4739.3135,N,12219.2967,W,2,08,1.03,35.7,M,-17.3,M,0000,0000*63
$GPVTG,174.27,T,,M,0.00,N,0.01,K,D*3E
$GPGGA,210157.000,4739.3135,N,12219.2967,W,2,08,1.03,35.7,M,-17.3,M,0000,0000*60
$GPVTG,347.51,T,,M,0.01,N,0.02,K,D*3F
