$GPGGA,202001.500,4651.3296,N,12414.5231,W,2,11,0.75,-5.3,M,-19.2,M,0000,0000*78
$GPVTG,126.93,T,,M,0.64,N,1.19,K,D*3C
$GPGGA,202001.750,4651.3295,N,12414.5230,W,2,11,0.75,-5.3,M,-19.2,M,0000,0000*7D
$GPVTG,126.91,T,,M,0.75,N,1.40,K,D*32
$GPGGA,202002.000,4651.3295,N,12414.5229,W,2,11,0.75,-5.3,M,-19.2,M,0000,0000*74
$GPRMC,202002.000,A,4651.3295,N,12414.5229,W,0.88,125.87,120721,,,D*70
$GPVTG,125.87,T,,M,0.88,N,1.63,K,D*35
$GPGGA,202002.250,4651.3294,N,12414.5228,W,2,11,0.75,-5.3,M,-19.2,M,0000,0000*73
$GPVTG,125.54,T,,M,0.93,N,1.72,K,D*31
$GPGGA,202002.500,4651.3294,N,12414.5227,W,2,11,0.75,-5.3,M,-19.2,M,0000,0000*7E
$GPVTG,124.76,T,,M,0.94,N,1.75,K,D*30
$GPGGA,202002.750,4651.3293,N,12414.5226,W,2,11,0.75,-5.3,M,-19.2,M,0000,0000*7F
$GPVTG,126.74,T,,M,0.93,N,1.72,K,D*30
$GPGGA,202003.000,4651.3293,N,12414.5226,W,2,11,0.75,-5.3,M,-19.2,M,0000,0000*7C
$GPRMC,202003.000,A,4651.3293,N,12414.5226,W,0.90,126.03,120721,,,D*7E
$GPVTG,126.03,T,,M,0.90,N,1.67,K,D*37
$GPGGA,202003.250,4651.3293,N,12414.5225,W,2,11,0.75,-5.4,M,-19.2,M,0000,0000*7F
$GPVTG,125.18,T,,M,0.83,N,1.54,K,D*3C
$GPGGA,202003.500,4651.3293,N,12414.5225,W,2,11,0.75,-5.4,M,-19.2,M,0000,0000*7D
$GPVTG,124.79,T,,M,0.78,N,1.44,K,D*3F
$GPGGA,202003.750,4651.3293,N,12414.5224,W,2,11,0.75,-5.4,M,-19.2,M,0000,0000*7B
$GPVTG,125.90,T,,M,0.72,N,1.34,K,D*34
$GPGGA,202004.000,4651.3292,N,12414.5224,W,2,11,0.75,-5.4,M,-19.2,M,0000,0000*7F
$GPRMC,202004.000,A,4651.3292,N,12414.5224,W,0.65,129.91,120721,,,D*74
$GPVTG,129.91,T,,M,0.65,N,1.20,K,D*3A
$GPGGA,202004.250,4651.3292,N,12414.5224,W,2,11,0.75,-5.4,M,-19.2,M,0000,0000*78
$GPVTG,133.33,T,,M,0.58,N,1.07,K,D*32
$GPGGA,202004.500,4651.3292,N,12414.5224,W,2,11,0.75,-5.4,M,-19.2,M,0000,0000*7A
$GPVTG,131.38,T,,M,0.56,N,1.04,K,D*36
$GPGGA,202004.750,4651.3292,N,12414.5223,W,2,11,0.75,-5.4,M,-19.2,M,0000,0000*7A
$GPVTG,125.85,T,,M,0.59,N,1.10,K,D*3F
$GPGGA,202005.000,4651.3292,N,12414.5222,W,2,11,0.75,-5.4,M,-19.2,M,0000,0000*78
$GPRMC,202005.000,A,4651.3292,N,12414.5222,W,0.70,123.41,120721,,,D*70
$GPVTG,123.41,T,,M,0.70,N,1.29,K,D*30
$GPGGA,202005.250,4651.3291,N,12414.5221,W,2,11,0.75,-5.4,M,-19.2,M,0000,0000*7F
$GPVTG,123.47,T,,M,0.81,N,1.50,K,D*36
$GPGGA,202005.500,4651.3291,N,12414.5220,W,2,11,0.75,-5.5,M,-19.2,M,0000,0000*7D
$GPVTG,125.47,T,,M,0.87,N,1.61,K,D*34
$GPGGA,202005.750,4651.3290,N,12414.5219,W,2,11,0.75,-5.5,M,-19.2,M,0000,0000*71
$GPVTG,124.90,T,,M,0.97,N,1.80,K,D*31
$GPGGA,202006.000,4651.3289,N,12414.5217,W,2,11,0.75,-5.5,M,-19.2,M,0000,0000*76
$GPRMC,202006.000,A,4651.3289,N,12414.5217,W,1.12,123.67,120721,,,D*7E
$GPVTG,123.67,T,,M,1.12,N,2.07,K,D*3E
$GPGGA,202006.250,4651.3289,N,12414.5215,W,2,11,0.75,-5.5,M,-19.2,M,0000,0000*73
$GPVTG,121.25,T,,M,1.27,N,2.35,K,D*3D
$GPGGA,202006.500,4651.3289,N,12414.5214,W,2,11,0.75,-5.5,M,-19.2,M,0000,0000*70
$GPVTG,119.33,T,,M,1.36,N,2.53,K,D*31
$GPGGA,202006.750,4651.3288,N,12414.5213,W,2,11,0.75,-5.5,M,-19.2,M,0000,0000*71
$GPVTG,119.04,T,,M,1.35,N,2.50,K,D*35
$GPGGA,202007.000,4651.3288,N,12414.5212,W,2,11,0.75,-5.6,M,-19.2,M,0000,0000*70
$GPRMC,202007.000,A,4651.3288,N,12414.5212,W,1.20,119.32,120721,,,D*73
$GPVTG,119.32,T,,M,1.20,N,2.22,K,D*31
$GPGGA,202007.250,4651.3288,N,12414.5212,W,2,11,0.75,-5.6,M,-19.2,M,0000,0000*77
$GPVTG,119.34,T,,M,1.03,N,1.90,K,D*3C
$GPGGA,202007.500,4651.3288,N,12414.5213,W,2,11,0.75,-5.6,M,-19.2,M,0000,0000*74
$GPVTG,119.80,T,,M,0.80,N,1.48,K,D*3C
$GPGGA,202007.750,4651.3288,N,12414.5212,W,2,11,0.75,-5.6,M,-19.2,M,0000,0000*72
$GPVTG,120.39,T,,M,0.70,N,1.29,K,D*3C
$GPGGA,202008.000,4651.3288,N,12414.5212,W,2,11,0.75,-5.6,M,-19.2,M,0000,0000*7F
$GPRMC,202008.000,A,4651.3288,N,12414.5212,W,0.61,120.03,120721,,,D*70
$GPVTG,120.03,T,,M,0.61,N,1.12,K,D*3D
$GPGGA,202008.250,4651.3288,N,12414.5212,W,2,11,0.75,-5.6,M,-19.2,M,0000,0000*78
$GPVTG,127.86,T,,M,0.60,N,1.11,K,D*35
$GPGGA,202008.500,4651.3287,N,12414.5212,W,2,11,0.75,-5.6,M,-19.2,M,0000,0000*75
$GPVTG,136.58,T,,M,0.67,N,1.25,K,D*36
$GPGGA,202008.750,4651.3286,N,12414.5211,W,2,11,0.75,-5.6,M,-19.2,M,0000,0000*70
$GPVTG,140.58,T,,M,0.69,N,1.27,K,D*3B
$GPGGA,202009.000,4651.3286,N,12414.5211,W,2,11,0.75,-5.6,M,-19.2,M,0000,0000*73
$GPRMC,202009.000,A,4651.3286,N,12414.5211,W,0.70,146.25,120721,,,D*78
$GPVTG,146.25,T,,M,0.70,N,1.30,K,D*39
$GPGGA,202009.250,4651.3285,N,12414.5211,W,2,11,0.75,-5.7,M,-19.2,M,0000,0000*76
$GPVTG,147.24,T,,M,0.68,N,1.26,K,D*37
$GPGGA,202009.500,4651.3285,N,12414.5210,W,2,11,0.75,-5.7,M,-19.2,M,0000,0000*75
$GPVTG,143.60,T,,M,0.68,N,1.26,K,D*33
$GPGGA,202009.750,4651.3285,N,12414.5209,W,2,11,0.75,-5.7,M,-19.2,M,0000,0000*7A
$GPVTG,138.62,T,,M,0.70,N,1.30,K,D*33
$GPGGA,202010.000,4651.3285,N,12414.5208,W,2,11,0.75,-5.7,M,-19.2,M,0000,0000*71
$GPRMC,202010.000,A,4651.3285,N,12414.5208,W,0.69,134.81,120721,,,D*78
$GPVTG,134.81,T,,M,0.69,N,1.27,K,D*3C
$GPGGA,202010.250,4651.3285,N,12414.5208,W,2,11,0.75,-5.7,M,-19.2,M,0000,0000*76
$GPVTG,134.89,T,,M,0.64,N,1.19,K,D*34
$GPGGA,202010.500,4651.3285,N,12414.5208,W,2,11,0.75,-5.7,M,-19.2,M,0000,0000*74
$GPVTG,138.32,T,,M,0.55,N,1.03,K,D*31
$GPGGA,202010.750,4651.3284,N,12414.5208,W,2,11,0.75,-5.7,M,-19.2,M,0000,0000*72
$GPVTG,140.15,T,,M,0.51,N,0.94,K,D*30
$GPGGA,202011.000,4651.3284,N,12414.5208,W,2,11,0.75,-5.7,M,-19.2,M,0000,0000*71
$GPRMC,202011.000,A,4651.3284,N,12414.5208,W,0.49,140.61,120721,,,D*77
$GPVTG,140.61,T,,M,0.49,N,0.90,K,D*3E
$GPGGA,202011.250,4651.3284,N,12414.5207,W,2,11,0.75,-5.7,M,-19.2,M,0000,0000*79
$GPVTG,138.39,T,,M,0.49,N,0.91,K,D*3D
$GPGGA,202011.500,4651.3284,N,12414.5207,W,2,11,0.75,-5.7,M,-19.2,M,0000,0000*7B
$GPVTG,131.31,T,,M,0.53,N,0.98,K,D*3E
$GPGGA,202011.750,4651.3284,N,12414.5205,W,2,11,0.75,-5.7,M,-19.2,M,0000,0000*7E
$GPVTG,125.54,T,,M,0.60,N,1.10,K,D*39
$GPGGA,202012.000,4651.3283,N,12414.5204,W,2,11,0.75,-5.7,M,-19.2,M,0000,0000*79
$GPRMC,202012.000,A,4651.3283,N,12414.5204,W,0.70,121.93,120721,,,D*7F
$GPVTG,121.93,T,,M,0.70,N,1.30,K,D*35
$GPGGA,202012.250,4651.3283,N,12414.5202,W,2,11,0.75,-5.7,M,-19.2,M,0000,0000*78
$GPVTG,117.78,T,,M,0.91,N,1.68,K,D*37
$GPGGA,202012.500,4651.3283,N,12414.5201,W,2,11,0.75,-5.8,M,-19.2,M,0000,0000*76
$GPVTG,116.42,T,,M,0.96,N,1.78,K,D*39
$GPGGA,202012.750,4651.3282,N,12414.5200,W,2,11,0.75,-5.8,M,-19.2,M,0000,0000*71
$GPVTG,116.43,T,,M,0.95,N,1.75,K,D*36
$GPGGA,202013.000,4651.3282,N,12414.5200,W,2,11,0.75,-5.8,M,-19.2,M,0000,0000*72
$GPRMC,202013.000,A,4651.3282,N,12414.5200,W,0.89,115.02,120721,,,D*72
$GPVTG,115.02,T,,M,0.89,N,1.64,K,D*3D
$GPGGA,202013.250,4651.3282,N,12414.5200,W,2,11,0.75,-5.8,M,-19.2,M,0000,0000*75
$GPVTG,113.02,T,,M,0.72,N,1.33,K,D*3D
$GPGGA,202013.500,4651.3283,N,12414.5200,W,2,11,0.75,-5.8,M,-19.2,M,0000,0000*76
$GPVTG,102.56,T,,M,0.49,N,0.91,K,D*3D
$GPGGA,202013.750,4651.3283,N,12414.5200,W,2,11,0.75,-5.8,M,-19.2,M,0000,0000*71
$GPVTG,88.00,T,,M,0.43,N,0.79,K,D*01
$GPGGA,202014.000,4651.3284,N,12414.5199,W,2,11,0.75,-5.8,M,-19.2,M,0000,0000*70
$GPRMC,202014.000,A,4651.3284,N,12414.5199,W,0.44,82.13,120721,,,D*4E
$GPVTG,82.13,T,,M,0.44,N,0.81,K,D*09
$GPGGA,202014.250,4651.3283,N,12414.5198,W,2,11,0.75,-5.8,M,-19.2,M,0000,0000*71
$GPVTG,88.62,T,,M,0.54,N,0.99,K,D*0D
$GPGGA,202014.500,4651.3283,N,12414.5197,W,2,11,0.75,-5.8,M,-19.2,M,0000,0000*7C
$GPVTG,101.23,T,,M,0.73,N,1.36,K,D*39
$GPGGA,202014.750,4651.3282,N,12414.5196,W,2,11,0.75,-5.8,M,-19.2,M,0000,0000*7B
$GPVTG,106.50,T,,M,0.78,N,1.45,K,D*35
$GPGGA,202015.000,4651.3281,N,12414.5195,W,2,11,0.75,-5.8,M,-19.2,M,0000,0000*78
$GPRMC,202015.000,A,4651.3281,N,12414.5195,W,0.77,116.41,120721,,,D*7D
$GPVTG,116.41,T,,M,0.77,N,1.43,K,D*3D
$GPGGA,202015.250,4651.3280,N,12414.5196,W,2,11,0.75,-5.8,M,-19.2,M,0000,0000*7D
$GPVTG,128.45,T,,M,0.74,N,1.36,K,D*35
$GPGGA,202015.500,4651.3279,N,12414.5196,W,2,11,0.75,-5.8,M,-19.2,M,0000,0000*79
$GPVTG,138.77,T,,M,0.78,N,1.44,K,D*3C
$GPGGA,202015.750,4651.3278,N,12414.5195,W,2,11,0.75,-5.8,M,-19.2,M,0000,0000*7C
$GPVTG,142.77,T,,M,0.82,N,1.52,K,D*33
$GPGGA,202016.000,4651.3278,N,12414.5195,W,2,11,0.75,-5.8,M,-19.2,M,0000,0000*7D
$GPRMC,202016.000,A,4651.3278,N,12414.5195,W,0.88,144.77,120721,,,D*7A
$GPVTG,144.77,T,,M,0.88,N,1.63,K,D*3D
$GPGGA,202016.250,4651.3277,N,12414.5194,W,2,11,0.75,-5.8,M,-19.2,M,0000,0000*74
$GPVTG,144.82,T,,M,0.91,N,1.68,K,D*34
$GPGGA,202016.500,4651.3276,N,12414.5193,W,2,11,0.75,-5.8,M,-19.2,M,0000,0000*70
$GPVTG,141.82,T,,M,0.93,N,1.73,K,D*39
$GPGGA,202016.750,4651.3276,N,12414.5192,W,2,11,0.75,-5.8,M,-19.2,M,0000,0000*76
$GPVTG,138.08,T,,M,0.98,N,1.82,K,D*30
$GPGGA,202017.000,4651.3276,N,12414.5191,W,2,11,0.75,-5.7,M,-19.2,M,0000,0000*79
$GPRMC,202017.000,A,4651.3276,N,12414.5191,W,1.00,130.13,120721,,,D*71
$GPVTG,130.13,T,,M,1.00,N,1.85,K,D*35
$GPGGA,202017.250,4651.3276,N,12414.5189,W,2,11,0.75,-5.7,M,-19.2,M,0000,0000*77
$GPVTG,124.32,T,,M,0.98,N,1.81,K,D*37
$GPGGA,202017.500,4651.3276,N,12414.5188,W,2,11,0.75,-5.7,M,-19.2,M,0000,0000*74
$GPVTG,118.20,T,,M,0.99,N,1.84,K,D*3F
$GPGGA,202017.750,4651.3276,N,12414.5187,W,2,11,0.75,-5.7,M,-19.2,M,0000,0000*7C
$GPVTG,115.94,T,,M,1.03,N,1.92,K,D*38
$GPGGA,202018.000,4651.3276,N,12414.5185,W,2,11,0.75,-5.7,M,-19.2,M,0000,0000*73
$GPRMC,202018.000,A,4651.3276,N,12414.5185,W,1.15,111.02,120721,,,D*7C
$GPVTG,111.02,T,,M,1.15,N,2.12,K,D*3F
$GPGGA,202018.250,4651.3276,N,12414.5183,W,2,11,0.75,-5.7,M,-19.2,M,0000,0000*72
$GPVTG,108.40,T,,M,1.23,N,2.29,K,D*3C
$GPGGA,202018.500,4651.3276,N,12414.5181,W,2,11,0.75,-5.7,M,-19.2,M,0000,0000*72
$GPVTG,106.14,T,,M,1.29,N,2.39,K,D*38
$GPGGA,202018.750,4651.3276,N,12414.5180,W,2,11,0.75,-5.7,M,-19.2,M,0000,0000*74
$GPVTG,104.95,T,,M,1.28,N,2.37,K,D*3C
$GPGGA,202019.000,4651.3276,N,12414.5179,W,2,11,0.75,-5.7,M,-19.2,M,0000,0000*71
$GPRMC,202019.000,A,4651.3276,N,12414.5179,W,1.19,102.34,120721,,,D*75
$GPVTG,102.34,T,,M,1.19,N,2.21,K,D*34
$GPGGA,202019.250,4651.3276,N,12414.5179,W,2,11,0.75,-5.7,M,-19.2,M,0000,0000*76
$GPVTG,100.84,T,,M,0.98,N,1.82,K,D*3F
$GPGGA,202019.500,4651.3276,N,12414.5180,W,2,11,0.75,-5.8,M,-19.2,M,0000,0000*7D
$GPVTG,100.49,T,,M,0.69,N,1.27,K,D*3F
$GPGGA,202019.750,4651.3276,N,12414.5180,W,2,11,0.75,-5.8,M,-19.2,M,0000,0000*7A
$GPVTG,105.93,T,,M,0.57,N,1.06,K,D*33
$GPGGA,202020.000,4651.3275,N,12414.5181,W,2,11,0.75,-5.8,M,-19.2,M,0000,0000*70
$GPRMC,202020.000,A,4651.3275,N,12414.5181,W,0.52,116.75,120721,,,D*75
$GPVTG,116.75,T,,M,0.52,N,0.97,K,D*35
$GPGGA,202020.250,4651.3275,N,12414.5180,W,2,11,0.75,-5.8,M,-19.2,M,0000,0000*76
$GPVTG,120.04,T,,M,0.55,N,1.02,K,D*3C
$GPGGA,202020.500,4651.3275,N,12414.5180,W,2,11,0.75,-5.8,M,-19.2,M,0000,0000*74
$GPVTG,125.49,T,,M,0.53,N,0.98,K,D*34
$GPGGA,202020.750,4651.3274,N,12414.5180,W,2,11,0.75,-5.8,M,-19.2,M,0000,0000*72
$GPVTG,129.40,T,,M,0.48,N,0.89,K,D*3B
$GPGGA,202021.000,4651.3274,N,12414.5180,W,2,11,0.75,-5.8,M,-19.2,M,0000,0000*71
$GPRMC,202021.000,A,4651.3274,N,12414.5180,W,0.43,137.73,120721,,,D*71
$GPVTG,137.73,T,,M,0.43,N,0.80,K,D*36
$GPGGA,202021.250,4651.3274,N,12414.5181,W,2,11,0.75,-5.8,M,-19.2,M,0000,0000*77
$GPVTG,143.23,T,,M,0.39,N,0.72,K,D*30
$GPGGA,202021.500,4651.3274,N,12414.5180,W,2,11,0.75,-5.7,M,-19.2,M,0000,0000*7B
$GPVTG,143.61,T,,M,0.38,N,0.70,K,D*35
$GPGGA,202021.750,4651.3273,N,12414.5180,W,2,11,0.75,-5.7,M,-19.2,M,0000,0000*7B
$GPVTG,145.11,T,,M,0.37,N,0.69,K,D*33
$GPGGA,202022.000,4651.3273,N,12414.5180,W,2,11,0.75,-5.7,M,-19.2,M,0000,0000*7A
$GPRMC,202022.000,A,4651.3273,N,12414.5180,W,0.41,143.90,120721,,,D*79
$GPVTG,143.90,T,,M,0.41,N,0.75,K,D*30
$GPGGA,202022.250,4651.3273,N,12414.5179,W,2,11,0.75,-5.7,M,-19.2,M,0000,0000*7B
$GPVTG,145.43,T,,M,0.42,N,0.78,K,D*36
$GPGGA,202022.500,4651.3273,N,12414.5179,W,2,11,0.75,-5.7,M,-19.2,M,0000,0000*79
$GPVTG,146.66,T,,M,0.47,N,0.87,K,D*37
$GPGGA,202022.750,4651.3272,N,12414.5178,W,2,11,0.75,-5.7,M,-19.2,M,0000,0000*7E
$GPVTG,142.02,T,,M,0.65,N,1.20,K,D*3D
$GPGGA,202023.000,4651.3271,N,12414.5177,W,2,11,0.75,-5.7,M,-19.2,M,0000,0000*71
$GPRMC,202023.000,A,4651.3271,N,12414.5177,W,0.80,138.13,120721,,,D*78
$GPVTG,138.13,T,,M,0.80,N,1.48,K,D*35
$GPGGA,202023.250,4651.3271,N,12414.5176,W,2,11,0.75,-5.7,M,-19.2,M,0000,0000*77
$GPVTG,136.96,T,,M,0.89,N,1.65,K,D*30
$GPGGA,202023.500,4651.3270,N,12414.5175,W,2,11,0.75,-5.7,M,-19.2,M,0000,0000*77
$GPVTG,135.26,T,,M,0.96,N,1.78,K,D*3A
$GPGGA,202023.750,4651.3270,N,12414.5175,W,2,11,0.75,-5.7,M,-19.2,M,0000,0000*70
$GPVTG,134.34,T,,M,1.00,N,1.85,K,D*34
$GPGGA,202024.000,4651.3269,N,12414.5173,W,2,11,0.75,-5.7,M,-19.2,M,0000,0000*7B
$GPRMC,202024.000,A,4651.3269,N,12414.5173,W,1.08,133.62,120721,,,D*7E
$GPVTG,133.62,T,,M,1.08,N,2.00,K,D*36
$GPGGA,202024.250,4651.3268,N,12414.5173,W,2,11,0.75,-5.7,M,-19.2,M,0000,0000*7D
$GPVTG,133.71,T,,M,1.11,N,2.07,K,D*3B
$GPGGA,202024.500,4651.3268,N,12414.5172,W,2,11,0.75,-5.7,M,-19.2,M,0000,0000*7E
$GPVTG,133.40,T,,M,1.13,N,2.09,K,D*35
$GPGGA,202024.750,4651.3267,N,12414.5171,W,2,11,0.75,-5.7,M,-19.2,M,0000,0000*75
$GPVTG,134.24,T,,M,1.14,N,2.11,K,D*3E
$GPGGA,202025.000,4651.3267,N,12414.5170,W,2,11,0.75,-5.7,M,-19.2,M,0000,0000*77
$GPRMC,202025.000,A,4651.3267,N,12414.5170,W,1.13,131.09,120721,,,D*77
$GPVTG,131.09,T,,M,1.13,N,2.09,K,D*3A
$GPGGA,202025.250,4651.3267,N,12414.5169,W,2,11,0.75,-5.7,M,-19.2,M,0000,0000*78
$GPVTG,125.58,T,,M,1.05,N,1.94,K,D*3B
$GPGGA,202025.500,4651.3268,N,12414.5169,W,2,11,0.75,-5.7,M,-19.2,M,0000,0000*75
$GPVTG,122.05,T,,M,0.95,N,1.76,K,D*30
$GPGGA,202025.750,4651.3267,N,12414.5168,W,2,11,0.75,-5.7,M,-19.2,M,0000,0000*7C
$GPVTG,119.74,T,,M,0.92,N,1.70,K,D*3F
$GPGGA,202026.000,4651.3267,N,12414.5167,W,2,11,0.75,-5.7,M,-19.2,M,0000,0000*72
$GPRMC,202026.000,A,4651.3267,N,12414.5167,W,0.91,116.56,120721,,,D*76
$GPVTG,116.56,T,,M,0.91,N,1.69,K,D*3B
$GPGGA,202026.250,4651.3267,N,12414.5166,W,2,11,0.75,-5.7,M,-19.2,M,0000,0000*74
$GPVTG,112.42,T,,M,0.92,N,1.71,K,D*30
$GPGGA,202026.500,4651.3267,N,12414.5165,W,2,11,0.75,-5.7,M,-19.2,M,0000,0000*75
$GPVTG,109.60,T,,M,0.90,N,1.67,K,D*3F
$GPGGA,202026.750,4651.3267,N,12414.5164,W,2,11,0.75,-5.7,M,-19.2,M,0000,0000*73
$GPVTG,108.98,T,,M,0.88,N,1.62,K,D*35
$GPGGA,202027.000,4651.3267,N,12414.5164,W,2,11,0.75,-5.7,M,-19.2,M,0000,0000*70
$GPRMC,202027.000,A,4651.3267,N,12414.5164,W,0.77,109.21,120721,,,D*72
$GPVTG,109.21,T,,M,0.77,N,1.43,K,D*35
$GPGGA,202027.250,4651.3267,N,12414.5165,W,2,11,0.75,-5.7,M,-19.2,M,0000,0000*76
$GPVTG,111.62,T,,M,0.66,N,1.22,K,D*3C
$GPGGA,202027.500,4651.3267,N,12414.5165,W,2,11,0.75,-5.7,M,-19.2,M,0000,0000*74
$GPVTG,109.05,T,,M,0.56,N,1.04,K,D*33
$GPGGA,202027.750,4651.3267,N,12414.5164,W,2,11,0.75,-5.7,M,-19.2,M,0000,0000*72
$GPVTG,107.17,T,,M,0.50,N,0.93,K,D*37
$GPGGA,202028.000,4651.3267,N,12414.5164,W,2,11,0.75,-5.7,M,-19.2,M,0000,0000*7F
$GPRMC,202028.000,A,4651.3267,N,12414.5164,W,0.43,106.81,120721,,,D*7F
$GPVTG,106.81,T,,M,0.43,N,0.80,K,D*39
$GPGGA,202028.250,4651.3267,N,12414.5164,W,2,11,0.75,-5.7,M,-19.2,M,0000,0000*78
$GPVTG,114.06,T,,M,0.38,N,0.71,K,D*37
$GPGGA,202028.500,4651.3267,N,12414.5165,W,2,11,0.75,-5.7,M,-19.2,M,0000,0000*7B
$GPVTG,124.86,T,,M,0.36,N,0.66,K,D*34
$GPGGA,202028.750,4651.3267,N,12414.5165,W,2,11,0.75,-5.7,M,-19.2,M,0000,0000*7C
$GPVTG,132.31,T,,M,0.35,N,0.65,K,D*3F
$GPGGA,202029.000,4651.3267,N,12414.5165,W,2,11,0.75,-5.7,M,-19.2,M,0000,0000*7F
$GPRMC,202029.000,A,4651.3267,N,12414.5165,W,0.33,138.13,120721,,,D*7E
$GPVTG,138.13,T,,M,0.33,N,0.61,K,D*37
$GPGGA,202029.250,4651.3266,N,12414.5165,W,2,11,0.75,-5.7,M,-19.2,M,0000,0000*79
$GPVTG,137.34,T,,M,0.34,N,0.62,K,D*39
$GPGGA,202029.500,4651.3266,N,12414.5164,W,2,11,0.75,-5.7,M,-19.2,M,0000,0000*7A
$GPVTG,137.42,T,,M,0.37,N,0.69,K,D*30
$GPGGA,202029.750,4651.3266,N,12414.5164,W,2,11,0.75,-5.7,M,-19.2,M,0000,0000*7D
$GPVTG,139.77,T,,M,0.44,N,0.81,K,D*3A
$GPGGA,202030.000,4651.3265,N,12414.5163,W,2,11,0.75,-5.7,M,-19.2,M,0000,0000*73
$GPRMC,202030.000,A,4651.3265,N,12414.5163,W,0.58,138.31,120721,,,D*7F
$GPVTG,138.31,T,,M,0.58,N,1.07,K,D*3B
$GPGGA,202030.250,4651.3264,N,12414.5162,W,2,11,0.75,-5.7,M,-19.2,M,0000,0000*74
$GPVTG,136.61,T,,M,0.67,N,1.25,K,D*3C
$GPGGA,202030.500,4651.3264,N,12414.5161,W,2,11,0.75,-5.7,M,-19.2,M,0000,0000*75
$GPVTG,132.06,T,,M,0.74,N,1.36,K,D*39
$GPGGA,202030.750,4651.3264,N,12414.5160,W,2,11,0.75,-5.6,M,-19.2,M,0000,0000*72
$GPVTG,128.72,T,,M,0.76,N,1.41,K,D*33
$GPGGA,202031.000,4651.3264,N,12414.5160,W,2,11,0.75,-5.6,M,-19.2,M,0000,0000*71
$GPRMC,202031.000,A,4651.3264,N,12414.5160,W,0.77,129.35,120721,,,D*75
$GPVTG,129.35,T,,M,0.77,N,1.42,K,D*33
$GPGGA,202031.250,4651.3264,N,12414.5160,W,2,11,0.75,-5.6,M,-19.2,M,0000,0000*76
$GPVTG,132.37,T,,M,0.72,N,1.34,K,D*3F
$GPGGA,202031.500,4651.3263,N,12414.5159,W,2,11,0.75,-5.6,M,-19.2,M,0000,0000*79
$GPVTG,134.24,T,,M,0.66,N,1.21,K,D*3A
$GPGGA,202031.750,4651.3263,N,12414.5159,W,2,11,0.75,-5.6,M,-19.2,M,0000,0000*7E
$GPVTG,134.65,T,,M,0.69,N,1.29,K,D*38
$GPGGA,202032.000,4651.3263,N,12414.5158,W,2,11,0.75,-5.6,M,-19.2,M,0000,0000*7E
$GPRMC,202032.000,A,4651.3263,N,12414.5158,W,0.72,136.34,120721,,,D*70
$GPVTG,136.34,T,,M,0.72,N,1.34,K,D*38
$GPGGA,202032.250,4651.3263,N,12414.5158,W,2,11,0.75,-5.6,M,-19.2,M,0000,0000*79
$GPVTG,133.74,T,,M,0.75,N,1.39,K,D*33
$GPGGA,202032.500,4651.3262,N,12414.5156,W,2,11,0.75,-5.6,M,-19.2,M,0000,0000*74
$GPVTG,131.43,T,,M,0.83,N,1.54,K,D*37
$GPGGA,202032.750,4651.3262,N,12414.5156,W,2,11,0.75,-5.6,M,-19.2,M,0000,0000*73
$GPVTG,130.49,T,,M,0.89,N,1.64,K,D*35
$GPGGA,202033.000,4651.3261,N,12414.5155,W,2,11,0.75,-5.6,M,-19.2,M,0000,0000*70
$GPRMC,202033.000,A,4651.3261,N,12414.5155,W,0.96,129.76,120721,,,D*7C
$GPVTG,129.76,T,,M,0.96,N,1.78,K,D*32
$GPGGA,202033.250,4651.3260,N,12414.5154,W,2,11,0.75,-5.6,M,-19.2,M,0000,0000*77
$GPVTG,130.80,T,,M,1.06,N,1.97,K,D*3A
$GPGGA,202033.500,4651.3260,N,12414.5153,W,2,11,0.75,-5.6,M,-19.2,M,0000,0000*72
$GPVTG,129.92,T,,M,1.12,N,2.07,K,D*3E
$GPGGA,202033.750,4651.3259,N,12414.5151,W,2,11,0.75,-5.6,M,-19.2,M,0000,0000*7D
$GPVTG,128.99,T,,M,1.11,N,2.06,K,D*36
$GPGGA,202034.000,4651.3259,N,12414.5150,W,2,11,0.75,-5.6,M,-19.2,M,0000,0000*79
$GPRMC,202034.000,A,4651.3259,N,12414.5150,W,1.10,126.64,120721,,,D*76
$GPVTG,126.64,T,,M,1.10,N,2.03,K,D*3E
$GPGGA,202034.250,4651.3259,N,12414.5149,W,2,11,0.75,-5.6,M,-19.2,M,0000,0000*76
$GPVTG,121.94,T,,M,1.18,N,2.18,K,D*34
$GPGGA,202034.500,4651.3259,N,12414.5147,W,2,11,0.75,-5.6,M,-19.2,M,0000,0000*7A
$GPVTG,118.91,T,,M,1.24,N,2.31,K,D*3F
$GPGGA,202034.750,4651.3259,N,12414.5146,W,2,11,0.75,-5.6,M,-19.2,M,0000,0000*7C
$GPVTG,117.24,T,,M,1.26,N,2.33,K,D*3E
$GPGGA,202035.000,4651.3259,N,12414.5145,W,2,11,0.75,-5.6,M,-19.2,M,0000,0000*7C
$GPRMC,202035.000,A,4651.3259,N,12414.5145,W,1.20,114.46,120721,,,D*71
$GPVTG,114.46,T,,M,1.20,N,2.22,K,D*3F
$GPGGA,202035.250,4651.3259,N,12414.5144,W,2,11,0.75,-5.6,M,-19.2,M,0000,0000*7A
$GPVTG,113.67,T,,M,1.02,N,1.89,K,D*39
$GPGGA,202035.500,4651.3259,N,12414.5145,W,2,11,0.75,-5.6,M,-19.2,M,0000,0000*79
$GPVTG,118.93,T,,M,0.81,N,1.50,K,D*37
$GPGGA,202035.750,4651.3259,N,12414.5145,W,2,11,0.75,-5.6,M,-19.2,M,0000,0000*7E
$GPVTG,127.20,T,,M,0.68,N,1.25,K,D*36
$GPGGA,202036.000,4651.3258,N,12414.5146,W,2,11,0.75,-5.6,M,-19.2,M,0000,0000*7D
$GPRMC,202036.000,A,4651.3258,N,12414.5146,W,0.56,139.65,120721,,,D*7E
$GPVTG,139.65,T,,M,0.56,N,1.04,K,D*36
$GPGGA,202036.250,4651.3258,N,12414.5146,W,2,11,0.75,-5.5,M,-19.2,M,0000,0000*79
$GPVTG,149.91,T,,M,0.50,N,0.93,K,D*33
$GPGGA,202036.500,4651.3257,N,12414.5147,W,2,11,0.75,-5.5,M,-19.2,M,0000,0000*75
$GPVTG,160.47,T,,M,0.56,N,1.03,K,D*3D
$GPGGA,202036.750,4651.3256,N,12414.5147,W,2,11,0.75,-5.5,M,-19.2,M,0000,0000*73
$GPVTG,163.85,T,,M,0.60,N,1.12,K,D*35
$GPGGA,202037.000,4651.3256,N,12414.5147,W,2,11,0.75,-5.5,M,-19.2,M,0000,0000*70
$GPRMC,202037.000,A,4651.3256,N,12414.5147,W,0.64,164.84,120721,,,D*76
$GPVTG,164.84,T,,M,0.64,N,1.18,K,D*3D
$GPGGA,202037.250,4651.3255,N,12414.5147,W,2,11,0.75,-5.5,M,-19.2,M,0000,0000*74
$GPVTG,167.78,T,,M,0.62,N,1.14,K,D*37
$GPGGA,202037.500,4651.3255,N,12414.5148,W,2,11,0.75,-5.5,M,-19.2,M,0000,0000*79
$GPVTG,175.11,T,,M,0.59,N,1.10,K,D*37
$GPGGA,202037.750,4651.3254,N,12414.5148,W,2,11,0.75,-5.5,M,-19.2,M,0000,0000*7F
$GPVTG,186.79,T,,M,0.55,N,1.02,K,D*3A
$GPGGA,202038.000,4651.3254,N,12414.5149,W,2,11,0.75,-5.5,M,-19.2,M,0000,0000*73
$GPRMC,202038.000,A,4651.3254,N,12414.5149,W,0.55,207.67,120721,,,D*7C
$GPVTG,207.67,T,,M,0.55,N,1.02,K,D*3F
$GPGGA,202038.250,4651.3254,N,12414.5151,W,2,11,0.75,-5.5,M,-19.2,M,0000,0000*7D
$GPVTG,222.14,T,,M,0.57,N,1.05,K,D*39
$GPGGA,202038.500,4651.3254,N,12414.5151,W,2,11,0.75,-5.4,M,-19.2,M,0000,0000*7E
$GPVTG,228.26,T,,M,0.49,N,0.90,K,D*30
$GPGGA,202038.750,4651.3254,N,12414.5151,W,2,11,0.75,-5.4,M,-19.2,M,0000,0000*79
$GPVTG,226.76,T,,M,0.39,N,0.72,K,D*30
$GPGGA,202039.000,4651.3254,N,12414.5150,W,2,11,0.75,-5.4,M,-19.2,M,0000,0000*7B
$GPRMC,202039.000,A,4651.3254,N,12414.5150,W,0.35,209.13,120721,,,D*7E
$GPVTG,209.13,T,,M,0.35,N,0.65,K,D*34
$GPGGA,202039.250,4651.3253,N,12414.5150,W,2,11,0.75,-5.4,M,-19.2,M,0000,0000*7B
$GPVTG,182.80,T,,M,0.38,N,0.71,K,D*36
$GPGGA,202039.500,4651.3252,N,12414.5149,W,2,11,0.75,-5.4,M,-19.2,M,0000,0000*70
$GPVTG,160.90,T,,M,0.49,N,0.91,K,D*33
$GPGGA,202039.750,4651.3252,N,12414.5148,W,2,11,0.75,-5.4,M,-19.2,M,0000,0000*76
$GPVTG,151.93,T,,M,0.59,N,1.09,K,D*33
$GPGGA,202040.000,4651.3251,N,12414.5147,W,2,11,0.75,-5.4,M,-19.2,M,0000,0000*76
$GPRMC,202040.000,A,4651.3251,N,12414.5147,W,0.72,141.23,120721,,,D*7C
$GPVTG,141.23,T,,M,0.72,N,1.34,K,D*3E
$GPGGA,202040.250,4651.3251,N,12414.5145,W,2,11,0.75,-5.4,M,-19.2,M,0000,0000*73
$GPVTG,132.89,T,,M,0.85,N,1.57,K,D*37
$GPGGA,202040.500,4651.3250,N,12414.5144,W,2,11,0.75,-5.4,M,-19.2,M,0000,0000*71
$GPVTG,129.41,T,,M,0.95,N,1.76,K,D*3B
$GPGGA,202040.750,4651.3249,N,12414.5142,W,2,11,0.75,-5.3,M,-19.2,M,0000,0000*7F
$GPVTG,127.70,T,,M,1.06,N,1.96,K,D*32
$GPGGA,202041.000,4651.3249,N,12414.5140,W,2,11,0.75,-5.3,M,-19.2,M,0000,0000*7E
$GPRMC,202041.000,A,4651.3249,N,12414.5140,W,1.24,123.85,120721,,,D*79
$GPVTG,123.85,T,,M,1.24,N,2.29,K,D*3B
$GPGGA,202041.250,4651.3248,N,12414.5138,W,2,11,0.75,-5.3,M,-19.2,M,0000,0000*77
$GPVTG,120.49,T,,M,1.37,N,2.54,K,D*30
$GPGGA,202041.500,4651.3248,N,12414.5136,W,2,11,0.75,-5.3,M,-19.2,M,0000,0000*7B
$GPVTG,117.73,T,,M,1.50,N,2.78,K,D*32
$GPGGA,202041.750,4651.3247,N,12414.5134,W,2,11,0.75,-5.3,M,-19.2,M,0000,0000*71
$GPVTG,116.38,T,,M,1.83,N,3.39,K,D*36
$GPGGA,202042.000,4651.3246,N,12414.5132,W,2,11,0.75,-5.3,M,-19.2,M,0000,0000*77
$GPRMC,202042.000,A,4651.3246,N,12414.5132,W,2.06,122.32,120721,,,D*7E
$GPVTG,122.32,T,,M,2.06,N,3.82,K,D*35
$GPGGA,202042.250,4651.3245,N,12414.5131,W,2,11,0.75,-5.3,M,-19.2,M,0000,0000*70
$GPVTG,132.73,T,,M,2.15,N,3.98,K,D*38
$GPGGA,202042.500,4651.3244,N,12414.5130,W,2,11,0.75,-5.3,M,-19.2,M,0000,0000*72
$GPVTG,144.32,T,,M,1.68,N,3.12,K,D*37
$GPGGA,202042.750,4651.3243,N,12414.5129,W,2,11,0.75,-5.3,M,-19.2,M,0000,0000*7A
$GPVTG,155.15,T,,M,1.38,N,2.56,K,D*36
$GPGGA,202043.000,4651.3242,N,12414.5129,W,2,11,0.75,-5.3,M,-19.2,M,0000,0000*78
$GPRMC,202043.000,A,4651.3242,N,12414.5129,W,1.23,151.56,120721,,,D*73
$GPVTG,151.56,T,,M,1.23,N,2.28,K,D*36
$GPGGA,202043.250,4651.3241,N,12414.5128,W,2,11,0.75,-5.3,M,-19.2,M,0000,0000*7D
$GPVTG,152.44,T,,M,1.15,N,2.13,K,D*3B
$GPGGA,202043.500,4651.3241,N,12414.5128,W,2,11,0.75,-5.3,M,-19.2,M,0000,0000*7F
$GPVTG,157.84,T,,M,1.03,N,1.90,K,D*3D
$GPGGA,202043.750,4651.3240,N,12414.5128,W,2,11,0.75,-5.3,M,-19.2,M,0000,0000*79
$GPVTG,163.48,T,,M,0.97,N,1.80,K,D*37
$GPGGA,202044.000,4651.3239,N,12414.5128,W,2,11,0.75,-5.3,M,-19.2,M,0000,0000*72
$GPRMC,202044.000,A,4651.3239,N,12414.5128,W,0.91,171.62,120721,,,D*74
$GPVTG,171.62,T,,M,0.91,N,1.68,K,D*3C
$GPGGA,202044.250,4651.3239,N,12414.5128,W,2,11,0.75,-5.3,M,-19.2,M,0000,0000*75
$GPVTG,173.70,T,,M,0.93,N,1.72,K,D*34
$GPGGA,202044.500,4651.3238,N,12414.5128,W,2,11,0.75,-5.3,M,-19.2,M,0000,0000*76
$GPVTG,171.44,T,,M,0.90,N,1.67,K,D*36
$GPGGA,202044.750,4651.3238,N,12414.5128,W,2,11,0.75,-5.3,M,-19.2,M,0000,0000*71
$GPVTG,169.45,T,,M,0.85,N,1.58,K,D*36
$GPGGA,202045.000,4651.3237,N,12414.5128,W,2,11,0.75,-5.4,M,-19.2,M,0000,0000*7A
$GPRMC,202045.000,A,4651.3237,N,12414.5128,W,0.76,170.42,120721,,,D*71
$GPVTG,170.42,T,,M,0.76,N,1.41,K,D*3D
$GPGGA,202045.250,4651.3238,N,12414.5128,W,2,11,0.75,-5.4,M,-19.2,M,0000,0000*72
$GPVTG,177.64,T,,M,0.51,N,0.95,K,D*33
$GPGGA,202045.500,4651.3239,N,12414.5128,W,2,11,0.75,-5.4,M,-19.2,M,0000,0000*71
$GPVTG,182.70,T,,M,0.24,N,0.45,K,D*33
$GPGGA,202045.750,4651.3239,N,12414.5128,W,2,11,0.75,-5.4,M,-19.2,M,0000,0000*76
$GPVTG,186.07,T,,M,0.14,N,0.26,K,D*31
$GPGGA,202046.000,4651.3240,N,12414.5127,W,2,11,0.75,-5.4,M,-19.2,M,0000,0000*76
$GPRMC,202046.000,A,4651.3240,N,12414.5127,W,0.08,164.79,120721,,,D*79
$GPVTG,164.79,T,,M,0.08,N,0.16,K,D*3A
$GPGGA,202046.250,4651.3240,N,12414.5127,W,2,11,0.75,-5.4,M,-19.2,M,0000,0000*71
$GPVTG,147.09,T,,M,0.04,N,0.08,K,D*3F
$GPGGA,202046.500,4651.3240,N,12414.5127,W,2,11,0.75,-5.4,M,-19.2,M,0000,0000*73
$GPVTG,177.42,T,,M,0.03,N,0.05,K,D*39
$GPGGA,202046.750,4651.3240,N,12414.5127,W,2,10,0.79,-5.4,M,-19.2,M,0000,0000*79
$GPVTG,149.52,T,,M,0.04,N,0.07,K,D*30
$GPGGA,202047.000,4651.3239,N,12414.5126,W,2,10,0.79,-5.4,M,-19.2,M,0000,0000*75
$GPRMC,202047.000,A,4651.3239,N,12414.5126,W,0.14,128.49,120721,,,D*71
$GPVTG,128.49,T,,M,0.14,N,0.25,K,D*3C
$GPGGA,202047.250,4651.3239,N,12414.5126,W,2,10,0.79,-5.4,M,-19.2,M,0000,0000*72
$GPVTG,130.28,T,,M,0.25,N,0.47,K,D*34
$GPGGA,202047.500,4651.3238,N,12414.5125,W,2,10,0.79,-5.4,M,-19.2,M,0000,0000*72
$GPVTG,135.35,T,,M,0.36,N,0.67,K,D*3D
$GPGGA,202047.750,4651.3238,N,12414.5125,W,2,10,0.79,-5.4,M,-19.2,M,0000,0000*75
$GPVTG,133.94,T,,M,0.39,N,0.71,K,D*38
$GPGGA,202048.000,4651.3237,N,12414.5124,W,2,10,0.79,-5.4,M,-19.2,M,0000,0000*76
$GPRMC,202048.000,A,4651.3237,N,12414.5124,W,0.46,131.64,120721,,,D*72
$GPVTG,131.64,T,,M,0.46,N,0.86,K,D*35
$GPGGA,202048.250,4651.3237,N,12414.5122,W,2,10,0.79,-5.3,M,-19.2,M,0000,0000*70
$GPVTG,129.41,T,,M,0.65,N,1.21,K,D*36
$GPGGA,202048.500,4651.3235,N,12414.5121,W,2,10,0.79,-5.3,M,-19.2,M,0000,0000*73
$GPVTG,128.45,T,,M,0.89,N,1.66,K,D*32
$GPGGA,202048.750,4651.3234,N,12414.5119,W,2,10,0.79,-5.3,M,-19.2,M,0000,0000*7E
$GPVTG,129.58,T,,M,1.10,N,2.03,K,D*3E
$GPGGA,202049.000,4651.3233,N,12414.5117,W,2,10,0.79,-5.3,M,-19.2,M,0000,0000*74
$GPRMC,202049.000,A,4651.3233,N,12414.5117,W,1.33,127.24,120721,,,D*77
$GPVTG,127.24,T,,M,1.33,N,2.46,K,D*3B
$GPGGA,202049.250,4651.3233,N,12414.5115,W,2,10,0.79,-5.3,M,-19.2,M,0000,0000*71
$GPVTG,126.21,T,,M,1.46,N,2.71,K,D*39
$GPGGA,202049.500,4651.3232,N,12414.5113,W,2,10,0.79,-5.3,M,-19.2,M,0000,0000*74
$GPVTG,124.27,T,,M,1.95,N,3.61,K,D*33
$GPGGA,202049.750,4651.3231,N,12414.5112,W,2,10,0.79,-5.3,M,-19.2,M,0000,0000*71
$GPVTG,123.74,T,,M,1.91,N,3.54,K,D*30
$GPGGA,202050.000,4651.3231,N,12414.5110,W,2,10,0.79,-5.3,M,-19.2,M,0000,0000*79
$GPRMC,202050.000,A,4651.3231,N,12414.5110,W,1.81,121.91,120721,,,D*7B
$GPVTG,121.91,T,,M,1.81,N,3.35,K,D*3F
$GPGGA,202050.250,4651.3230,N,12414.5108,W,2,10,0.79,-5.4,M,-19.2,M,0000,0000*71
$GPVTG,123.04,T,,M,1.76,N,3.27,K,D*3A
$GPGGA,202050.500,4651.3229,N,12414.5107,W,2,10,0.79,-5.4,M,-19.2,M,0000,0000*74
$GPVTG,120.88,T,,M,1.56,N,2.88,K,D*3B
$GPGGA,202050.750,4651.3229,N,12414.5106,W,2,10,0.79,-5.4,M,-19.2,M,0000,0000*72
$GPVTG,127.08,T,,M,1.28,N,2.38,K,D*36
$GPGGA,202051.000,4651.3228,N,12414.5105,W,2,10,0.79,-5.4,M,-19.2,M,0000,0000*73
$GPRMC,202051.000,A,4651.3228,N,12414.5105,W,1.33,131.10,120721,,,D*77
$GPVTG,131.10,T,,M,1.33,N,2.46,K,D*3B
$GPGGA,202051.250,4651.3227,N,12414.5104,W,2,10,0.79,-5.4,M,-19.2,M,0000,0000*7A
$GPVTG,138.55,T,,M,1.42,N,2.63,K,D*32
$GPGGA,202051.500,4651.3226,N,12414.5104,W,2,10,0.79,-5.4,M,-19.2,M,0000,0000*79
$GPVTG,145.24,T,,M,1.49,N,2.75,K,D*32
$GPGGA,202051.750,4651.3225,N,12414.5104,W,2,10,0.79,-5.5,M,-19.2,M,0000,0000*7C
$GPVTG,149.48,T,,M,1.45,N,2.70,K,D*3D
$GPGGA,202052.000,4651.3225,N,12414.5104,W,2,10,0.79,-5.5,M,-19.2,M,0000,0000*7D
$GPRMC,202052.000,A,4651.3225,N,12414.5104,W,1.33,154.81,120721,,,D*73
$GPVTG,154.81,T,,M,1.33,N,2.46,K,D*30
$GPGGA,202052.250,4651.3224,N,12414.5104,W,2,10,0.79,-5.5,M,-19.2,M,0000,0000*7B
$GPVTG,161.17,T,,M,1.22,N,2.26,K,D*3F
$GPGGA,202052.500,4651.3224,N,12414.5105,W,2,10,0.79,-5.5,M,-19.2,M,0000,0000*78
$GPVTG,169.23,T,,M,1.04,N,1.94,K,D*3E
$GPGGA,202052.750,4651.3223,N,12414.5105,W,2,10,0.79,-5.6,M,-19.2,M,0000,0000*7B
$GPVTG,175.08,T,,M,0.97,N,1.81,K,D*35
$GPGGA,202053.000,4651.3223,N,12414.5106,W,2,10,0.79,-5.6,M,-19.2,M,0000,0000*7B
$GPRMC,202053.000,A,4651.3223,N,12414.5106,W,0.87,187.61,120721,,,D*78
$GPVTG,187.61,T,,M,0.87,N,1.61,K,D*38
$GPGGA,202053.250,4651.3223,N,12414.5107,W,2,10,0.79,-5.6,M,-19.2,M,0000,0000*7D
$GPVTG,198.94,T,,M,0.77,N,1.44,K,D*34
$GPGGA,202053.500,4651.3223,N,12414.5108,W,2,10,0.79,-5.6,M,-19.2,M,0000,0000*70
$GPVTG,205.69,T,,M,0.72,N,1.33,K,D*34
$GPGGA,202053.750,4651.3223,N,12414.5108,W,2,10,0.79,-5.6,M,-19.2,M,0000,0000*77
$GPVTG,204.36,T,,M,0.70,N,1.30,K,D*3E
$GPGGA,202054.000,4651.3222,N,12414.5107,W,2,10,0.79,-5.6,M,-19.2,M,0000,0000*7C
$GPRMC,202054.000,A,4651.3222,N,12414.5107,W,0.64,198.37,120721,,,D*7F
$GPVTG,198.37,T,,M,0.64,N,1.18,K,D*36
$GPGGA,202054.250,4651.3222,N,12414.5107,W,2,10,0.79,-5.7,M,-19.2,M,0000,0000*7A
$GPVTG,195.72,T,,M,0.64,N,1.18,K,D*3A
$GPGGA,202054.500,4651.3222,N,12414.5107,W,2,10,0.79,-5.7,M,-19.2,M,0000,0000*78
$GPVTG,190.02,T,,M,0.62,N,1.14,K,D*32
$GPGGA,202054.750,4651.3222,N,12414.5107,W,2,10,0.79,-5.7,M,-19.2,M,0000,0000*7F
$GPVTG,192.64,T,,M,0.54,N,0.99,K,D*31
$GPGGA,202055.000,4651.3223,N,12414.5107,W,2,10,0.79,-5.7,M,-19.2,M,0000,0000*7D
$GPRMC,202055.000,A,4651.3223,N,12414.5107,W,0.44,195.34,120721,,,D*73
$GPVTG,195.34,T,,M,0.44,N,0.82,K,D*38
$GPGGA,202055.250,4651.3223,N,12414.5107,W,2,10,0.79,-5.7,M,-19.2,M,0000,0000*7A
$GPVTG,198.64,T,,M,0.31,N,0.58,K,D*35
$GPGGA,202055.500,4651.3223,N,12414.5106,W,2,10,0.79,-5.7,M,-19.2,M,0000,0000*79
$GPVTG,183.55,T,,M,0.27,N,0.51,K,D*33
$GPGGA,202055.750,4651.3223,N,12414.5105,W,2,10,0.79,-5.7,M,-19.2,M,0000,0000*7D
$GPVTG,161.34,T,,M,0.31,N,0.58,K,D*36
$GPGGA,202056.000,4651.3223,N,12414.5104,W,2,10,0.79,-5.7,M,-19.2,M,0000,0000*7D
$GPRMC,202056.000,A,4651.3223,N,12414.5104,W,0.42,146.86,120721,,,D*72
$GPVTG,146.86,T,,M,0.42,N,0.77,K,D*33
$GPGGA,202056.250,4651.3223,N,12414.5103,W,2,10,0.79,-5.7,M,-19.2,M,0000,0000*7D
$GPVTG,145.04,T,,M,0.49,N,0.92,K,D*3A
$GPGGA,202056.500,4651.3223,N,12414.5102,W,2,10,0.79,-5.7,M,-19.2,M,0000,0000*7E
$GPVTG,138.69,T,,M,0.58,N,1.08,K,D*39
$GPGGA,202056.750,4651.3222,N,12414.5101,W,2,10,0.79,-5.7,M,-19.2,M,0000,0000*7B
$GPVTG,132.83,T,,M,0.68,N,1.25,K,D*3B
$GPGGA,202057.000,4651.3222,N,12414.5099,W,2,10,0.79,-5.7,M,-19.2,M,0000,0000*78
$GPRMC,202057.000,A,4651.3222,N,12414.5099,W,0.85,121.86,120721,,,D*7D
$GPVTG,121.86,T,,M,0.85,N,1.58,K,D*35
$GPGGA,202057.250,4651.3222,N,12414.5098,W,2,10,0.79,-5.8,M,-19.2,M,0000,0000*71
$GPVTG,118.87,T,,M,0.93,N,1.72,K,D*31
$GPGGA,202057.500,4651.3222,N,12414.5096,W,2,10,0.79,-5.8,M,-19.2,M,0000,0000*7D
$GPVTG,116.91,T,,M,0.99,N,1.83,K,D*3C
$GPGGA,202057.750,4651.3222,N,12414.5095,W,2,10,0.79,-5.8,M,-19.2,M,0000,0000*79
$GPVTG,116.31,T,,M,1.01,N,1.88,K,D*3D
$GPGGA,202058.000,4651.3221,N,12414.5093,W,2,10,0.79,-5.8,M,-19.2,M,0000,0000*71
$GPRMC,202058.000,A,4651.3221,N,12414.5093,W,1.11,115.63,120721,,,D*7B
$GPVTG,115.63,T,,M,1.11,N,2.06,K,D*3D
$GPGGA,202058.250,4651.3220,N,12414.5091,W,2,10,0.79,-5.8,M,-19.2,M,0000,0000*75
$GPVTG,117.33,T,,M,1.31,N,2.43,K,D*39
$GPGGA,202058.500,4651.3220,N,12414.5089,W,2,10,0.79,-5.8,M,-19.2,M,0000,0000*7E
$GPVTG,116.93,T,,M,1.42,N,2.63,K,D*34
$GPGGA,202058.750,4651.3219,N,12414.5088,W,2,10,0.79,-5.8,M,-19.2,M,0000,0000*72
$GPVTG,117.46,T,,M,1.39,N,2.57,K,D*36
$GPGGA,202059.000,4651.3219,N,12414.5087,W,2,10,0.79,-5.8,M,-19.2,M,0000,0000*7E
$GPRMC,202059.000,A,4651.3219,N,12414.5087,W,1.20,116.65,120721,,,D*73
$GPVTG,116.65,T,,M,1.20,N,2.23,K,D*3D
$GPGGA,202059.250,4651.3219,N,12414.5086,W,2,10,0.79,-5.8,M,-19.2,M,0000,0000*78
$GPVTG,118.07,T,,M,1.07,N,1.98,K,D*31
$GPGGA,202059.500,4651.3219,N,12414.5086,W,2,10,0.79,-5.8,M,-19.2,M,0000,0000*7A
$GPVTG,119.50,T,,M,1.02,N,1.89,K,D*37
$GPGGA,202059.750,4651.3218,N,12414.5085,W,2,10,0.79,-5.9,M,-19.2,M,0000,0000*7E
$GPVTG,121.45,T,,M,1.06,N,1.96,K,D*32
$GPGGA,202100.000,4651.3218,N,12414.5083,W,2,10,0.79,-5.9,M,-19.2,M,0000,0000*77
$GPRMC,202100.000,A,4651.3218,N,12414.5083,W,1.11,122.38,120721,,,D*76
$GPVTG,122.38,T,,M,1.11,N,2.05,K,D*34
$GPGGA,202100.250,4651.3217,N,12414.5082,W,2,10,0.79,-5.9,M,-19.2,M,0000,0000*7E
$GPVTG,120.32,T,,M,1.15,N,2.13,K,D*3F
$GPGGA,202100.500,4651.3218,N,12414.5080,W,2,10,0.79,-5.9,M,-19.2,M,0000,0000*71
$GPVTG,115.44,T,,M,1.15,N,2.13,K,D*38
$GPGGA,202100.750,4651.3218,N,12414.5079,W,2,10,0.79,-5.9,M,-19.2,M,0000,0000*70
$GPVTG,110.34,T,,M,1.08,N,2.00,K,D*34
$GPGGA,202101.000,4651.3218,N,12414.5078,W,2,10,0.79,-5.9,M,-19.2,M,0000,0000*72
$GPRMC,202101.000,A,4651.3218,N,12414.5078,W,0.99,104.25,120721,,,D*7A
$GPVTG,104.25,T,,M,0.99,N,1.84,K,D*37
$GPGGA,202101.250,4651.3218,N,12414.5078,W,2,10,0.79,-5.9,M,-19.2,M,0000,0000*75
$GPVTG,102.90,T,,M,0.88,N,1.63,K,D*36
$GPGGA,202101.500,4651.3218,N,12414.5078,W,2,10,0.79,-6.0,M,-19.2,M,0000,0000*7D
$GPVTG,105.14,T,,M,0.69,N,1.28,K,D*3D
$GPGGA,202101.750,4651.3218,N,12414.5078,W,2,10,0.79,-6.0,M,-19.2,M,0000,0000*7A
$GPVTG,103.68,T,,M,0.60,N,1.10,K,D*32
$GPGGA,202102.000,4651.3219,N,12414.5078,W,2,10,0.79,-6.0,M,-19.2,M,0000,0000*7A
$GPRMC,202102.000,A,4651.3219,N,12414.5078,W,0.51,98.37,120721,,,D*4B
$GPVTG,98.37,T,,M,0.51,N,0.94,K,D*04
$GPGGA,202102.250,4651.3219,N,12414.5077,W,2,10,0.79,-6.0,M,-19.2,M,0000,0000*72
$GPVTG,86.55,T,,M,0.45,N,0.83,K,D*0C
$GPGGA,202102.500,4651.3220,N,12414.5077,W,2,10,0.79,-6.0,M,-19.2,M,0000,0000*7A
$GPVTG,66.78,T,,M,0.39,N,0.72,K,D*08
$GPGGA,202102.750,4651.3220,N,12414.5077,W,2,10,0.79,-6.0,M,-19.2,M,0000,0000*7D
$GPVTG,61.83,T,,M,0.40,N,0.74,K,D*03
$GPGGA,202103.000,4651.3221,N,12414.5077,W,2,10,0.79,-6.0,M,-19.2,M,0000,0000*7F
$GPRMC,202103.000,A,4651.3221,N,12414.5077,W,0.32,54.34,120721,,,D*48
$GPVTG,54.34,T,,M,0.32,N,0.59,K,D*03
$GPGGA,202103.250,4651.3221,N,12414.5077,W,2,10,0.79,-6.0,M,-19.2,M,0000,0000*78
$GPVTG,53.42,T,,M,0.31,N,0.57,K,D*08
$GPGGA,202103.500,4651.3221,N,12414.5076,W,2,10,0.79,-6.0,M,-19.2,M,0000,0000*7B
$GPVTG,59.92,T,,M,0.28,N,0.52,K,D*02
$GPGGA,202103.750,4651.3221,N,12414.5076,W,2,10,0.79,-6.0,M,-19.2,M,0000,0000*7C
$GPVTG,67.20,T,,M,0.27,N,0.51,K,D*0A
$GPGGA,202104.000,4651.3220,N,12414.5076,W,2,10,0.79,-6.0,M,-19.2,M,0000,0000*78
$GPRMC,202104.000,A,4651.3220,N,12414.5076,W,0.30,80.79,120721,,,D*4D
$GPVTG,80.79,T,,M,0.30,N,0.55,K,D*0D
$GPGGA,202104.250,4651.3220,N,12414.5075,W,2,10,0.79,-6.0,M,-19.2,M,0000,0000*7C
$GPVTG,98.72,T,,M,0.39,N,0.73,K,D*02
$GPGGA,202104.500,4651.3219,N,12414.5073,W,2,10,0.79,-5.9,M,-19.2,M,0000,0000*78
$GPVTG,113.65,T,,M,0.58,N,1.07,K,D*33
$GPGGA,202104.750,4651.3218,N,12414.5072,W,2,10,0.79,-5.9,M,-19.2,M,0000,0000*7F
$GPVTG,122.74,T,,M,0.82,N,1.53,K,D*37
$GPGGA,202105.000,4651.3216,N,12414.5070,W,2,10,0.79,-5.9,M,-19.2,M,0000,0000*70
$GPRMC,202105.000,A,4651.3216,N,12414.5070,W,1.13,124.43,120721,,,D*79
$GPVTG,124.43,T,,M,1.13,N,2.09,K,D*30
$GPGGA,202105.250,4651.3215,N,12414.5067,W,2,10,0.79,-5.9,M,-19.2,M,0000,0000*72
$GPVTG,123.09,T,,M,1.40,N,2.59,K,D*3A
$GPGGA,202105.500,4651.3215,N,12414.5064,W,2,10,0.79,-5.9,M,-19.2,M,0000,0000*73
$GPVTG,120.75,T,,M,1.61,N,2.98,K,D*3C
$GPGGA,202105.750,4651.3214,N,12414.5062,W,2,10,0.79,-5.9,M,-19.2,M,0000,0000*73
$GPVTG,116.43,T,,M,2.09,N,3.87,K,D*3E
$GPGGA,202106.000,4651.3213,N,12414.5060,W,2,10,0.79,-5.9,M,-19.2,M,0000,0000*77
$GPRMC,202106.000,A,4651.3213,N,12414.5060,W,2.31,113.84,120721,,,D*72
$GPVTG,113.84,T,,M,2.31,N,4.28,K,D*39
$GPGGA,202106.250,4651.3213,N,12414.5058,W,2,10,0.79,-5.9,M,-19.2,M,0000,0000*7B
$GPVTG,115.29,T,,M,2.12,N,3.93,K,D*3E
$GPGGA,202106.500,4651.3212,N,12414.5056,W,2,10,0.79,-6.0,M,-19.2,M,0000,0000*7C
$GPVTG,117.26,T,,M,1.62,N,3.01,K,D*3C
$GPGGA,202106.750,4651.3212,N,12414.5056,W,2,10,0.79,-6.0,M,-19.2,M,0000,0000*7B
$GPVTG,117.33,T,,M,1.05,N,1.95,K,D*36
$GPGGA,202107.000,4651.3212,N,12414.5056,W,2,10,0.79,-6.0,M,-19.2,M,0000,0000*78
$GPRMC,202107.000,A,4651.3212,N,12414.5056,W,0.51,112.01,120721,,,D*7F
$GPVTG,112.01,T,,M,0.51,N,0.94,K,D*32
$GPGGA,202107.250,4651.3212,N,12414.5056,W,2,10,0.79,-6.0,M,-19.2,M,0000,0000*7F
$GPVTG,87.54,T,,M,0.32,N,0.58,K,D*0A
$GPGGA,202107.500,4651.3213,N,12414.5055,W,2,10,0.79,-6.0,M,-19.2,M,0000,0000*7F
$GPVTG,72.79,T,,M,0.29,N,0.54,K,D*09
$GPGGA,202107.750,4651.3213,N,12414.5055,W,2,10,0.79,-6.0,M,-19.2,M,0000,0000*78
$GPVTG,64.92,T,,M,0.28,N,0.52,K,D*0C
$GPGGA,202108.000,4651.3213,N,12414.5055,W,2,10,0.79,-6.0,M,-19.2,M,0000,0000*75
$GPRMC,202108.000,A,4651.3213,N,12414.5055,W,0.20,62.27,120721,,,D*46
$GPVTG,62.27,T,,M,0.20,N,0.38,K,D*00
$GPGGA,202108.250,4651.3213,N,12414.5055,W,2,10,0.79,-6.0,M,-19.2,M,0000,0000*72
$GPVTG,84.59,T,,M,0.07,N,0.13,K,D*0D
$GPGGA,202108.500,4651.3212,N,12414.5055,W,2,10,0.79,-6.0,M,-19.2,M,0000,0000*71
$GPVTG,150.01,T,,M,0.06,N,0.11,K,D*3B
$GPGGA,202108.750,4651.3212,N,12414.5055,W,2,10,0.79,-6.0,M,-19.2,M,0000,0000*76
$GPVTG,162.71,T,,M,0.07,N,0.13,K,D*3E
$GPGGA,202109.000,4651.3212,N,12414.5056,W,2,10,0.79,-6.0,M,-19.2,M,0000,0000*76
$GPRMC,202109.000,A,4651.3212,N,12414.5056,W,0.11,193.39,120721,,,D*77
$GPVTG,193.39,T,,M,0.11,N,0.20,K,D*3B
$GPGGA,202109.250,4651.3212,N,12414.5056,W,2,10,0.79,-5.9,M,-19.2,M,0000,0000*7B
$GPVTG,210.95,T,,M,0.18,N,0.34,K,D*39
$GPGGA,202109.500,4651.3212,N,12414.5056,W,2,10,0.79,-5.9,M,-19.2,M,0000,0000*79
$GPVTG,211.99,T,,M,0.21,N,0.39,K,D*33
$GPGGA,202109.750,4651.3211,N,12414.5057,W,2,10,0.79,-5.9,M,-19.2,M,0000,0000*7C
$GPVTG,210.62,T,,M,0.24,N,0.45,K,D*38
$GPGGA,202110.000,4651.3211,N,12414.5057,W,2,10,0.79,-5.9,M,-19.2,M,0000,0000*76
$GPRMC,202110.000,A,4651.3211,N,12414.5057,W,0.31,201.38,120721,,,D*76
$GPVTG,201.38,T,,M,0.31,N,0.58,K,D*3F
$GPGGA,202110.250,4651.3210,N,12414.5056,W,2,10,0.79,-5.9,M,-19.2,M,0000,0000*71
$GPVTG,186.99,T,,M,0.33,N,0.61,K,D*30
$GPGGA,202110.500,4651.3210,N,12414.5057,W,2,10,0.79,-5.9,M,-19.2,M,0000,0000*72
$GPVTG,174.13,T,,M,0.37,N,0.68,K,D*32
$GPGGA,202110.750,4651.3210,N,12414.5056,W,2,10,0.79,-5.9,M,-19.2,M,0000,0000*74
$GPVTG,158.43,T,,M,0.41,N,0.76,K,D*37
$GPGGA,202111.000,4651.3210,N,12414.5056,W,2,10,0.79,-5.9,M,-19.2,M,0000,0000*77
$GPRMC,202111.000,A,4651.3210,N,12414.5056,W,0.49,148.73,120721,,,D*79
$GPVTG,148.73,T,,M,0.49,N,0.91,K,D*34
$GPGGA,202111.250,4651.3209,N,12414.5056,W,2,10,0.79,-5.9,M,-19.2,M,0000,0000*78
$GPVTG,141.22,T,,M,0.61,N,1.13,K,D*38
$GPGGA,202111.500,4651.3209,N,12414.5055,W,2,10,0.79,-5.9,M,-19.2,M,0000,0000*79
$GPVTG,131.90,T,,M,0.65,N,1.20,K,D*32
$GPGGA,202111.750,4651.3209,N,12414.5054,W,2,10,0.79,-5.9,M,-19.2,M,0000,0000*7F
$GPVTG,126.89,T,,M,0.66,N,1.22,K,D*3D
$GPGGA,202112.000,4651.3209,N,12414.5054,W,2,10,0.79,-5.9,M,-19.2,M,0000,0000*7E
$GPRMC,202112.000,A,4651.3209,N,12414.5054,W,0.61,122.24,120721,,,D*74
$GPVTG,122.24,T,,M,0.61,N,1.12,K,D*3A
$GPGGA,202112.250,4651.3210,N,12414.5053,W,2,10,0.79,-5.8,M,-19.2,M,0000,0000*77
$GPVTG,115.06,T,,M,0.51,N,0.95,K,D*33
$GPGGA,202112.500,4651.3210,N,12414.5053,W,2,10,0.79,-5.8,M,-19.2,M,0000,0000*75
$GPVTG,116.14,T,,M,0.44,N,0.82,K,D*31
$GPGGA,202112.750,4651.3209,N,12414.5053,W,2,10,0.79,-5.8,M,-19.2,M,0000,0000*7A
$GPVTG,124.81,T,,M,0.42,N,0.78,K,D*3F
$GPGGA,202113.000,4651.3209,N,12414.5053,W,2,10,0.79,-5.8,M,-19.2,M,0000,0000*79
$GPRMC,202113.000,A,4651.3209,N,12414.5053,W,0.50,130.84,120721,,,D*79
$GPVTG,130.84,T,,M,0.50,N,0.93,K,D*39
$GPGGA,202113.250,4651.3209,N,12414.5052,W,2,10,0.79,-5.7,M,-19.2,M,0000,0000*70
$GPVTG,129.66,T,,M,0.64,N,1.18,K,D*38
$GPGGA,202113.500,4651.3208,N,12414.5051,W,2,10,0.79,-5.7,M,-19.2,M,0000,0000*70
$GPVTG,125.69,T,,M,0.73,N,1.36,K,D*31
$GPGGA,202113.750,4651.3208,N,12414.5049,W,2,10,0.79,-5.7,M,-19.2,M,0000,0000*7E
$GPVTG,121.60,T,,M,0.79,N,1.46,K,D*31
$GPGGA,202114.000,4651.3208,N,12414.5047,W,2,10,0.79,-5.7,M,-19.2,M,0000,0000*75
$GPRMC,202114.000,A,4651.3208,N,12414.5047,W,0.88,114.61,120721,,,D*72
$GPVTG,114.61,T,,M,0.88,N,1.63,K,D*3F
$GPGGA,202114.250,4651.3208,N,12414.5046,W,2,10,0.79,-5.7,M,-19.2,M,0000,0000*73
$GPVTG,111.06,T,,M,0.96,N,1.78,K,D*3E
$GPGGA,202114.500,4651.3209,N,12414.5044,W,2,10,0.79,-5.7,M,-19.2,M,0000,0000*72
$GPVTG,103.14,T,,M,1.03,N,1.90,K,D*35
$GPGGA,202114.750,4651.3209,N,12414.5043,W,2,10,0.79,-5.7,M,-19.2,M,0000,0000*72
$GPVTG,101.70,T,,M,1.00,N,1.85,K,D*32
$GPGGA,202115.000,4651.3209,N,12414.5042,W,2,10,0.79,-5.7,M,-19.2,M,0000,0000*70
$GPRMC,202115.000,A,4651.3209,N,12414.5042,W,0.99,100.59,120721,,,D*79
$GPVTG,100.59,T,,M,0.99,N,1.83,K,D*3F
$GPGGA,202115.250,4651.3209,N,12414.5041,W,2,10,0.79,-5.7,M,-19.2,M,0000,0000*74
$GPVTG,100.85,T,,M,0.97,N,1.79,K,D*35
$GPGGA,202115.500,4651.3208,N,12414.5040,W,2,10,0.79,-5.7,M,-19.2,M,0000,0000*76
$GPVTG,102.53,T,,M,0.96,N,1.78,K,D*3C
$GPGGA,202115.750,4651.3208,N,12414.5039,W,2,10,0.79,-5.7,M,-19.2,M,0000,0000*7F
$GPVTG,105.00,T,,M,0.94,N,1.74,K,D*33
$GPGGA,202116.000,4651.3208,N,12414.5039,W,2,10,0.79,-5.7,M,-19.2,M,0000,0000*7E
$GPRMC,202116.000,A,4651.3208,N,12414.5039,W,0.90,105.72,120721,,,D*72
$GPVTG,105.72,T,,M,0.90,N,1.67,K,D*30
$GPGGA,202116.250,4651.3208,N,12414.5039,W,2,10,0.79,-5.7,M,-19.2,M,0000,0000*79
$GPVTG,107.47,T,,M,0.81,N,1.51,K,D*31
$GPGGA,202116.500,4651.3208,N,12414.5039,W,2,10,0.79,-5.7,M,-19.2,M,0000,0000*7B
$GPVTG,107.34,T,,M,0.64,N,1.18,K,D*33
$GPGGA,202116.750,4651.3208,N,12414.5039,W,2,10,0.79,-5.6,M,-19.2,M,0000,0000*7D
$GPVTG,104.90,T,,M,0.50,N,0.93,K,D*3B
$GPGGA,202117.000,4651.3208,N,12414.5039,W,2,10,0.79,-5.6,M,-19.2,M,0000,0000*7E
$GPRMC,202117.000,A,4651.3208,N,12414.5039,W,0.40,106.88,120721,,,D*78
$GPVTG,106.88,T,,M,0.40,N,0.75,K,D*39
$GPGGA,202117.250,4651.3208,N,12414.5040,W,2,10,0.79,-5.6,M,-19.2,M,0000,0000*77
$GPVTG,111.25,T,,M,0.31,N,0.58,K,D*31
$GPGGA,202117.500,4651.3208,N,12414.5040,W,2,10,0.79,-5.6,M,-19.2,M,0000,0000*75
$GPVTG,106.35,T,,M,0.21,N,0.40,K,D*3E
$GPGGA,202117.750,4651.3208,N,12414.5040,W,2,10,0.79,-5.6,M,-19.2,M,0000,0000*72
$GPVTG,115.49,T,,M,0.15,N,0.28,K,D*3E
$GPGGA,202118.000,4651.3208,N,12414.5040,W,2,10,0.79,-5.6,M,-19.2,M,0000,0000*7F
$GPRMC,202118.000,A,4651.3208,N,12414.5040,W,0.17,155.33,120721,,,D*7D
$GPVTG,155.33,T,,M,0.17,N,0.31,K,D*3D
$GPGGA,202118.250,4651.3207,N,12414.5040,W,2,10,0.79,-5.6,M,-19.2,M,0000,0000*77
$GPVTG,172.75,T,,M,0.22,N,0.41,K,D*3B
$GPGGA,202118.500,4651.3207,N,12414.5040,W,2,10,0.79,-5.6,M,-19.2,M,0000,0000*75
$GPVTG,175.13,T,,M,0.29,N,0.54,K,D*33
$GPGGA,202118.750,4651.3206,N,12414.5039,W,2,10,0.79,-5.6,M,-19.2,M,0000,0000*7D
$GPVTG,161.85,T,,M,0.34,N,0.63,K,D*31
$GPGGA,202119.000,4651.3206,N,12414.5038,W,2,10,0.79,-5.6,M,-19.2,M,0000,0000*7F
$GPRMC,202119.000,A,4651.3206,N,12414.5038,W,0.39,148.01,120721,,,D*7C
$GPVTG,148.01,T,,M,0.39,N,0.72,K,D*3B
$GPGGA,202119.250,4651.3206,N,12414.5037,W,2,10,0.79,-5.6,M,-19.2,M,0000,0000*77
$GPVTG,133.14,T,,M,0.53,N,0.98,K,D*3B
$GPGGA,202119.500,4651.3206,N,12414.5035,W,2,10,0.79,-5.6,M,-19.2,M,0000,0000*77
$GPVTG,126.60,T,,M,0.77,N,1.44,K,D*3A
$GPGGA,202119.750,4651.3205,N,12414.5033,W,2,10,0.79,-5.6,M,-19.2,M,0000,0000*75
$GPVTG,125.75,T,,M,0.94,N,1.74,K,D*33
$GPGGA,202120.000,4651.3204,N,12414.5031,W,2,10,0.79,-5.6,M,-19.2,M,0000,0000*7E
$GPRMC,202120.000,A,4651.3204,N,12414.5031,W,1.08,124.89,120721,,,D*74
$GPVTG,124.89,T,,M,1.08,N,2.00,K,D*35
$GPGGA,202120.250,4651.3204,N,12414.5030,W,2,10,0.79,-5.6,M,-19.2,M,0000,0000*78
$GPVTG,124.15,T,,M,1.16,N,2.15,K,D*3B
$GPGGA,202120.500,4651.3203,N,12414.5028,W,2,10,0.79,-5.6,M,-19.2,M,0000,0000*74
$GPVTG,123.16,T,,M,1.28,N,2.36,K,D*33
$GPGGA,202120.750,4651.3203,N,12414.5027,W,2,10,0.79,-5.6,M,-19.2,M,0000,0000*7C
$GPVTG,122.25,T,,M,1.30,N,2.41,K,D*3B
$GPGGA,202121.000,4651.3202,N,12414.5025,W,2,10,0.79,-5.6,M,-19.2,M,0000,0000*7C
$GPRMC,202121.000,A,4651.3202,N,12414.5025,W,1.35,120.50,120721,,,D*78
$GPVTG,120.50,T,,M,1.35,N,2.49,K,D*36
$GPGGA,202121.250,4651.3202,N,12414.5024,W,2,10,0.79,-5.6,M,-19.2,M,0000,0000*7A
$GPVTG,121.30,T,,M,1.36,N,2.52,K,D*38
$GPGGA,202121.500,4651.3201,N,12414.5023,W,2,10,0.79,-5.6,M,-19.2,M,0000,0000*7C
$GPVTG,122.18,T,,M,1.36,N,2.52,K,D*31
$GPGGA,202121.750,4651.3200,N,12414.5023,W,2,10,0.79,-5.6,M,-19.2,M,0000,0000*7A
$GPVTG,125.17,T,,M,1.33,N,2.46,K,D*39
$GPGGA,202122.000,4651.3200,N,12414.5022,W,2,10,0.79,-5.6,M,-19.2,M,0000,0000*7A
$GPRMC,202122.000,A,4651.3200,N,12414.5022,W,1.30,125.77,120721,,,D*7B
$GPVTG,125.77,T,,M,1.30,N,2.42,K,D*38
$GPGGA,202122.250,4651.3199,N,12414.5022,W,2,10,0.79,-5.6,M,-19.2,M,0000,0000*7E
$GPVTG,131.06,T,,M,1.18,N,2.18,K,D*3E
$GPGGA,202122.500,4651.3199,N,12414.5024,W,2,10,0.79,-5.6,M,-19.2,M,0000,0000*7A
$GPVTG,139.19,T,,M,0.91,N,1.68,K,D*3C
$GPGGA,202122.750,4651.3198,N,12414.5025,W,2,10,0.79,-5.6,M,-19.2,M,0000,0000*7D
$GPVTG,150.05,T,,M,0.73,N,1.35,K,D*3A
$GPGGA,202123.000,4651.3199,N,12414.5026,W,2,10,0.79,-5.6,M,-19.2,M,0000,0000*7C
$GPRMC,202123.000,A,4651.3199,N,12414.5026,W,0.51,166.02,120721,,,D*7E
$GPVTG,166.02,T,,M,0.51,N,0.95,K,D*33
$GPGGA,202123.250,4651.3199,N,12414.5027,W,2,10,0.79,-5.6,M,-19.2,M,0000,0000*7A
$GPVTG,182.09,T,,M,0.38,N,0.71,K,D*37
$GPGGA,202123.500,4651.3199,N,12414.5028,W,2,10,0.79,-5.5,M,-19.2,M,0000,0000*74
$GPVTG,217.42,T,,M,0.30,N,0.56,K,D*3A
$GPGGA,202123.750,4651.3199,N,12414.5029,W,2,10,0.79,-5.5,M,-19.2,M,0000,0000*72
$GPVTG,228.46,T,,M,0.32,N,0.60,K,D*35
$GPGGA,202124.000,4651.3199,N,12414.5029,W,2,10,0.79,-5.5,M,-19.2,M,0000,0000*77
$GPRMC,202124.000,A,4651.3199,N,12414.5029,W,0.30,237.71,120721,,,D*72
$GPVTG,237.71,T,,M,0.30,N,0.56,K,D*38
$GPGGA,202124.250,4651.3199,N,12414.5029,W,2,10,0.79,-5.5,M,-19.2,M,0000,0000*70
$GPVTG,224.14,T,,M,0.29,N,0.54,K,D*33
$GPGGA,202124.500,4651.3198,N,12414.5028,W,2,10,0.79,-5.5,M,-19.2,M,0000,0000*72
$GPVTG,174.42,T,,M,0.42,N,0.78,K,D*35
$GPGGA,202124.750,4651.3197,N,12414.5027,W,2,10,0.79,-5.5,M,-19.2,M,0000,0000*75
$GPVTG,160.54,T,,M,0.56,N,1.04,K,D*38
$GPGGA,202125.000,4651.3196,N,12414.5026,W,2,10,0.79,-5.5,M,-19.2,M,0000,0000*76
$GPRMC,202125.000,A,4651.3196,N,12414.5026,W,0.74,146.88,120721,,,D*70
$GPVTG,146.88,T,,M,0.74,N,1.37,K,D*3D
$GPGGA,202125.250,4651.3195,N,12414.5025,W,2,10,0.79,-5.4,M,-19.2,M,0000,0000*70
$GPVTG,139.68,T,,M,0.89,N,1.64,K,D*3F
$GPGGA,202125.500,4651.3194,N,12414.5023,W,2,10,0.79,-5.4,M,-19.2,M,0000,0000*75
$GPVTG,135.66,T,,M,1.03,N,1.91,K,D*34
$GPGGA,202125.750,4651.3193,N,12414.5023,W,2,10,0.79,-5.4,M,-19.2,M,0000,0000*75
$GPVTG,134.68,T,,M,1.06,N,1.96,K,D*39
$GPGGA,202126.000,4651.3193,N,12414.5021,W,2,10,0.79,-5.4,M,-19.2,M,0000,0000*76
$GPRMC,202126.000,A,4651.3193,N,12414.5021,W,1.09,130.30,120721,,,D*78
$GPVTG,130.30,T,,M,1.09,N,2.02,K,D*31
$GPGGA,202126.250,4651.3193,N,12414.5021,W,2,10,0.79,-5.4,M,-19.2,M,0000,0000*71
$GPVTG,126.67,T,,M,1.04,N,1.92,K,D*33
$GPGGA,202126.500,4651.3193,N,12414.5020,W,2,10,0.79,-5.4,M,-19.2,M,0000,0000*72
$GPVTG,124.78,T,,M,1.00,N,1.86,K,D*3E
$GPGGA,202126.750,4651.3192,N,12414.5019,W,2,10,0.79,-5.4,M,-19.2,M,0000,0000*7E
$GPVTG,124.20,T,,M,1.02,N,1.90,K,D*36
$GPGGA,202127.000,4651.3192,N,12414.5018,W,2,10,0.79,-5.4,M,-19.2,M,0000,0000*7C
$GPRMC,202127.000,A,4651.3192,N,12414.5018,W,1.02,123.89,120721,,,D*79
$GPVTG,123.89,T,,M,1.02,N,1.89,K,D*3A
$GPGGA,202127.250,4651.3192,N,12414.5017,W,2,10,0.79,-5.4,M,-19.2,M,0000,0000*74
$GPVTG,120.53,T,,M,1.05,N,1.94,K,D*35
$GPGGA,202127.500,4651.3191,N,12414.5015,W,2,10,0.79,-5.4,M,-19.2,M,0000,0000*77
$GPVTG,119.12,T,,M,1.20,N,2.23,K,D*32
$GPGGA,202127.750,4651.3190,N,12414.5014,W,2,10,0.79,-5.4,M,-19.2,M,0000,0000*70
$GPVTG,121.45,T,,M,1.30,N,2.40,K,D*3F
$GPGGA,202128.000,4651.3189,N,12414.5013,W,2,10,0.79,-5.4,M,-19.2,M,0000,0000*72
$GPRMC,202128.000,A,4651.3189,N,12414.5013,W,1.36,125.56,120721,,,D*74
$GPVTG,125.56,T,,M,1.36,N,2.52,K,D*3C
$GPGGA,202128.250,4651.3187,N,12414.5012,W,2,10,0.79,-5.4,M,-19.2,M,0000,0000*7A
$GPVTG,129.35,T,,M,1.50,N,2.77,K,D*32
$GPGGA,202128.500,4651.3186,N,12414.5011,W,2,10,0.79,-5.4,M,-19.2,M,0000,0000*7A
$GPVTG,130.24,T,,M,1.61,N,2.99,K,D*38
$GPGGA,202128.750,4651.3186,N,12414.5010,W,2,10,0.79,-5.4,M,-19.2,M,0000,0000*7C
$GPVTG,127.22,T,,M,1.51,N,2.80,K,D*33
$GPGGA,202129.000,4651.3186,N,12414.5009,W,2,10,0.79,-5.4,M,-19.2,M,0000,0000*77
$GPRMC,202129.000,A,4651.3186,N,12414.5009,W,1.23,116.16,120721,,,D*71
$GPVTG,116.16,T,,M,1.23,N,2.28,K,D*31
$GPGGA,202129.250,4651.3185,N,12414.5008,W,2,10,0.79,-5.4,M,-19.2,M,0000,0000*72
$GPVTG,111.32,T,,M,1.09,N,2.02,K,D*30
$GPGGA,202129.500,4651.3185,N,12414.5007,W,2,10,0.79,-5.4,M,-19.2,M,0000,0000*7F
$GPVTG,111.96,T,,M,1.10,N,2.03,K,D*37
$GPGGA,202129.750,4651.3185,N,12414.5007,W,2,10,0.79,-5.4,M,-19.2,M,0000,0000*78
$GPVTG,111.33,T,,M,1.09,N,2.01,K,D*32
$GPGGA,202130.000,4651.3185,N,12414.5006,W,2,10,0.79,-5.5,M,-19.2,M,0000,0000*72
$GPRMC,202130.000,A,4651.3185,N,12414.5006,W,1.02,114.55,120721,,,D*73
$GPVTG,114.55,T,,M,1.02,N,1.90,K,D*37
$GPGGA,202130.250,4651.3185,N,12414.5006,W,2,10,0.79,-5.5,M,-19.2,M,0000,0000*75
$GPVTG,112.81,T,,M,0.83,N,1.54,K,D*38
$GPGGA,202130.500,4651.3185,N,12414.5006,W,2,10,0.79,-5.5,M,-19.2,M,0000,0000*77
$GPVTG,106.10,T,,M,0.68,N,1.27,K,D*34
$GPGGA,202130.750,4651.3185,N,12414.5006,W,2,10,0.79,-5.5,M,-19.2,M,0000,0000*70
$GPVTG,96.74,T,,M,0.56,N,1.05,K,D*03
$GPGGA,202131.000,4651.3186,N,12414.5007,W,2,10,0.79,-5.5,M,-19.2,M,0000,0000*71
$GPRMC,202131.000,A,4651.3186,N,12414.5007,W,0.29,76.03,120721,,,D*4E
$GPVTG,76.03,T,,M,0.29,N,0.53,K,D*07
$GPGGA,202131.250,4651.3186,N,12414.5009,W,2,10,0.79,-5.5,M,-19.2,M,0000,0000*78
$GPVTG,315.83,T,,M,0.10,N,0.19,K,D*3D
$GPGGA,202131.500,4651.3186,N,12414.5010,W,2,10,0.79,-5.5,M,-19.2,M,0000,0000*72
$GPVTG,290.50,T,,M,0.30,N,0.56,K,D*36
$GPGGA,202131.750,4651.3186,N,12414.5011,W,2,10,0.79,-5.5,M,-19.2,M,0000,0000*74
$GPVTG,283.91,T,,M,0.37,N,0.68,K,D*33
$GPGGA,202132.000,4651.3185,N,12414.5012,W,2,10,0.79,-5.5,M,-19.2,M,0000,0000*75
$GPRMC,202132.000,A,4651.3185,N,12414.5012,W,0.38,275.60,120721,,,D*7E
$GPVTG,275.60,T,,M,0.38,N,0.71,K,D*33
$GPGGA,202132.250,4651.3185,N,12414.5012,W,2,10,0.79,-5.5,M,-19.2,M,0000,0000*72
$GPVTG,267.75,T,,M,0.34,N,0.63,K,D*3B
$GPGGA,202132.500,4651.3185,N,12414.5012,W,2,10,0.79,-5.5,M,-19.2,M,0000,0000*70
$GPVTG,257.24,T,,M,0.30,N,0.55,K,D*3D
$GPGGA,202132.750,4651.3185,N,12414.5012,W,2,10,0.79,-5.5,M,-19.2,M,0000,0000*77
$GPVTG,251.35,T,,M,0.21,N,0.39,K,D*31
$GPGGA,202133.000,4651.3185,N,12414.5011,W,2,10,0.79,-5.5,M,-19.2,M,0000,0000*77
$GPRMC,202133.000,A,4651.3185,N,12414.5011,W,0.11,197.03,120721,,,D*7D
$GPVTG,197.03,T,,M,0.11,N,0.21,K,D*37
$GPGGA,202133.250,4651.3184,N,12414.5009,W,2,10,0.79,-5.5,M,-19.2,M,0000,0000*78
$GPVTG,134.41,T,,M,0.34,N,0.63,K,D*39
$GPGGA,202133.500,4651.3183,N,12414.5008,W,2,10,0.79,-5.5,M,-19.2,M,0000,0000*7C
$GPVTG,128.25,T,,M,0.59,N,1.09,K,D*30
$GPGGA,202133.750,4651.3183,N,12414.5006,W,2,10,0.79,-5.5,M,-19.2,M,0000,0000*75
$GPVTG,127.96,T,,M,0.75,N,1.39,K,D*3A
$GPGGA,202134.000,4651.3182,N,12414.5005,W,2,10,0.79,-5.5,M,-19.2,M,0000,0000*72
$GPRMC,202134.000,A,4651.3182,N,12414.5005,W,0.92,131.67,120721,,,D*7D
$GPVTG,131.67,T,,M,0.92,N,1.71,K,D*36
$GPGGA,202134.250,4651.3181,N,12414.5004,W,2,10,0.79,-5.5,M,-19.2,M,0000,0000*77
$GPVTG,132.76,T,,M,1.01,N,1.87,K,D*37
$GPGGA,202134.500,4651.3180,N,12414.5004,W,2,10,0.79,-5.5,M,-19.2,M,0000,0000*74
$GPVTG,137.24,T,,M,1.01,N,1.87,K,D*35
$GPGGA,202134.750,4651.3180,N,12414.5003,W,2,10,0.79,-5.5,M,-19.2,M,0000,0000*74
$GPVTG,138.36,T,,M,0.97,N,1.81,K,D*31
$GPGGA,202135.000,4651.3180,N,12414.5003,W,2,10,0.79,-5.5,M,-19.2,M,0000,0000*77
$GPRMC,202135.000,A,4651.3180,N,12414.5003,W,0.94,138.03,120721,,,D*75
$GPVTG,138.03,T,,M,0.94,N,1.74,K,D*3E
$GPGGA,202135.250,4651.3180,N,12414.5002,W,2,10,0.79,-5.5,M,-19.2,M,0000,0000*71
$GPVTG,135.54,T,,M,0.98,N,1.81,K,D*37
$GPGGA,202135.500,4651.3179,N,12414.5000,W,2,10,0.79,-5.5,M,-19.2,M,0000,0000*77
$GPVTG,131.25,T,,M,1.15,N,2.12,K,D*38
$GPGGA,202135.750,4651.3179,N,12414.4998,W,2,10,0.79,-5.5,M,-19.2,M,0000,0000*79
$GPVTG,130.39,T,,M,1.29,N,2.40,K,D*3C
$GPGGA,202136.000,4651.3178,N,12414.4996,W,2,10,0.79,-5.5,M,-19.2,M,0000,0000*77
$GPRMC,202136.000,A,4651.3178,N,12414.4996,W,1.42,131.09,120721,,,D*7C
$GPVTG,131.09,T,,M,1.42,N,2.64,K,D*35
$GPGGA,202136.250,4651.3177,N,12414.4995,W,2,10,0.79,-5.5,M,-19.2,M,0000,0000*7C
$GPVTG,130.25,T,,M,1.50,N,2.78,K,D*34
$GPGGA,202136.500,4651.3177,N,12414.4994,W,2,10,0.79,-5.5,M,-19.2,M,0000,0000*7F
$GPVTG,135.74,T,,M,1.23,N,2.28,K,D*34
$GPGGA,202136.750,4651.3177,N,12414.4994,W,2,10,0.79,-5.5,M,-19.2,M,0000,0000*78
$GPVTG,141.05,T,,M,1.05,N,1.94,K,D*31
$GPGGA,202137.000,4651.3176,N,12414.4994,W,2,10,0.79,-5.5,M,-19.2,M,0000,0000*7A
$GPRMC,202137.000,A,4651.3176,N,12414.4994,W,0.95,147.80,120721,,,D*7A
$GPVTG,147.80,T,,M,0.95,N,1.76,K,D*3E
$GPGGA,202137.250,4651.3176,N,12414.4993,W,2,10,0.79,-5.5,M,-19.2,M,0000,0000*7A
$GPVTG,149.24,T,,M,0.81,N,1.49,K,D*37
$GPGGA,202137.500,4651.3176,N,12414.4993,W,2,10,0.79,-5.5,M,-19.2,M,0000,0000*78
$GPVTG,139.10,T,,M,0.76,N,1.40,K,D*36
$GPGGA,202137.750,4651.3177,N,12414.4993,W,2,10,0.79,-5.5,M,-19.2,M,0000,0000*7E
$GPVTG,136.22,T,,M,0.57,N,1.06,K,D*39
$GPGGA,202138.000,4651.3177,N,12414.4993,W,2,10,0.79,-5.5,M,-19.2,M,0000,0000*73
$GPRMC,202138.000,A,4651.3177,N,12414.4993,W,0.42,135.22,120721,,,D*74
$GPVTG,135.22,T,,M,0.42,N,0.77,K,D*39
$GPGGA,202138.250,4651.3177,N,12414.4993,W,2,10,0.79,-5.5,M,-19.2,M,0000,0000*74
$GPVTG,128.05,T,,M,0.34,N,0.63,K,D*34
$GPGGA,202138.500,4651.3177,N,12414.4993,W,2,10,0.79,-5.5,M,-19.2,M,0000,0000*76
$GPVTG,125.47,T,,M,0.26,N,0.48,K,D*35
$GPGGA,202138.750,4651.3177,N,12414.4993,W,2,10,0.79,-5.5,M,-19.2,M,0000,0000*71
$GPVTG,129.60,T,,M,0.19,N,0.36,K,D*39
$GPGGA,202139.000,4651.3177,N,12414.4993,W,2,10,0.79,-5.5,M,-19.2,M,0000,0000*72
$GPRMC,202139.000,A,4651.3177,N,12414.4993,W,0.09,117.15,120721,,,D*7E
$GPVTG,117.15,T,,M,0.09,N,0.16,K,D*35
$GPGGA,202139.250,4651.3178,N,12414.4994,W,2,10,0.79,-5.5,M,-19.2,M,0000,0000*7D
$GPVTG,325.40,T,,M,0.04,N,0.07,K,D*3B
$GPGGA,202139.500,4651.3178,N,12414.4994,W,2,10,0.79,-5.5,M,-19.2,M,0000,0000*7F
$GPVTG,340.11,T,,M,0.09,N,0.17,K,D*30
$GPGGA,202139.750,4651.3178,N,12414.4994,W,2,10,0.79,-5.5,M,-19.2,M,0000,0000*78
$GPVTG,335.70,T,,M,0.15,N,0.28,K,D*34
$GPGGA,202140.000,4651.3179,N,12414.4994,W,2,10,0.79,-5.5,M,-19.2,M,0000,0000*75
$GPRMC,202140.000,A,4651.3179,N,12414.4994,W,0.21,347.20,120721,,,D*72
$GPVTG,347.20,T,,M,0.21,N,0.40,K,D*3D
$GPGGA,202140.250,4651.3179,N,12414.4994,W,2,10,0.80,-5.5,M,-19.2,M,0000,0000*74
$GPVTG,352.14,T,,M,0.23,N,0.42,K,D*3E
$GPGGA,202140.500,4651.3179,N,12414.4994,W,2,10,0.80,-5.5,M,-19.2,M,0000,0000*76
$GPVTG,1.59,T,,M,0.12,N,0.22,K,D*36
$GPGGA,202140.750,4651.3178,N,12414.4994,W,2,10,0.80,-5.5,M,-19.2,M,0000,0000*70
$GPVTG,120.33,T,,M,0.02,N,0.05,K,D*3C
$GPGGA,202141.000,4651.3177,N,12414.4994,W,2,10,0.79,-5.4,M,-19.2,M,0000,0000*7B
$GPRMC,202141.000,A,4651.3177,N,12414.4994,W,0.17,166.96,120721,,,D*74
$GPVTG,166.96,T,,M,0.17,N,0.31,K,D*32
$GPGGA,202141.250,4651.3177,N,12414.4994,W,2,10,0.79,-5.4,M,-19.2,M,0000,0000*7C
$GPVTG,154.94,T,,M,0.27,N,0.50,K,D*35
$GPGGA,202141.500,4651.3177,N,12414.4994,W,2,10,0.79,-5.4,M,-19.2,M,0000,0000*7E
$GPVTG,150.28,T,,M,0.41,N,0.76,K,D*32
$GPGGA,202141.750,4651.3177,N,12414.4994,W,2,10,0.79,-5.4,M,-19.2,M,0000,0000*79
$GPVTG,146.74,T,,M,0.50,N,0.93,K,D*37
$GPGGA,202142.000,4651.3176,N,12414.4993,W,2,10,0.79,-5.4,M,-19.2,M,0000,0000*7E
$GPRMC,202142.000,A,4651.3176,N,12414.4993,W,0.61,144.10,120721,,,D*7E
$GPVTG,144.10,T,,M,0.61,N,1.14,K,D*3B
$GPGGA,202142.250,4651.3176,N,12414.4992,W,2,10,0.79,-5.4,M,-19.2,M,0000,0000*78
$GPVTG,139.88,T,,M,0.71,N,1.31,K,D*36
$GPGGA,202142.500,4651.3175,N,12414.4991,W,2,10,0.79,-5.4,M,-19.2,M,0000,0000*7A
$GPVTG,138.19,T,,M,0.83,N,1.54,K,D*31
$GPGGA,202142.750,4651.3174,N,12414.4990,W,2,10,0.79,-5.4,M,-19.2,M,0000,0000*7D
$GPVTG,136.68,T,,M,0.93,N,1.73,K,D*3D
$GPGGA,202143.000,4651.3174,N,12414.4989,W,2,10,0.79,-5.4,M,-19.2,M,0000,0000*76
$GPRMC,202143.000,A,4651.3174,N,12414.4989,W,1.06,135.30,120721,,,D*72
$GPVTG,135.30,T,,M,1.06,N,1.96,K,D*35
$GPGGA,202143.250,4651.3173,N,12414.4987,W,2,10,0.79,-5.4,M,-19.2,M,0000,0000*78
$GPVTG,133.47,T,,M,1.18,N,2.18,K,D*39
$GPGGA,202143.500,4651.3172,N,12414.4985,W,2,10,0.79,-5.4,M,-19.2,M,0000,0000*79
$GPVTG,132.28,T,,M,1.29,N,2.39,K,D*30
$GPGGA,202143.750,4651.3171,N,12414.4984,W,2,10,0.79,-5.4,M,-19.2,M,0000,0000*7C
$GPVTG,130.73,T,,M,1.31,N,2.43,K,D*38
$GPGGA,202144.000,4651.3171,N,12414.4983,W,2,10,0.79,-5.4,M,-19.2,M,0000,0000*7E
$GPRMC,202144.000,A,4651.3171,N,12414.4983,W,1.33,128.45,120721,,,D*72
$GPVTG,128.45,T,,M,1.33,N,2.46,K,D*33
$GPGGA,202144.250,4651.3171,N,12414.4981,W,2,10,0.79,-5.4,M,-19.2,M,0000,0000*7B
$GPVTG,125.56,T,,M,1.37,N,2.54,K,D*3B
$GPGGA,202144.500,4651.3170,N,12414.4980,W,2,10,0.79,-5.4,M,-19.2,M,0000,0000*79
$GPVTG,123.33,T,,M,1.35,N,2.51,K,D*39
$GPGGA,202144.750,4651.3170,N,12414.4978,W,2,10,0.79,-5.4,M,-19.2,M,0000,0000*79
$GPVTG,123.39,T,,M,1.32,N,2.45,K,D*31
$GPGGA,202145.000,4651.3169,N,12414.4978,W,2,10,0.79,-5.4,M,-19.2,M,0000,0000*72
$GPRMC,202145.000,A,4651.3169,N,12414.4978,W,1.24,125.11,120721,,,D*74
$GPVTG,125.11,T,,M,1.24,N,2.29,K,D*30
$GPGGA,202145.250,4651.3169,N,12414.4977,W,2,10,0.79,-5.4,M,-19.2,M,0000,0000*7A
$GPVTG,124.78,T,,M,1.22,N,2.27,K,D*36
$GPGGA,202145.500,4651.3168,N,12414.4976,W,2,10,0.79,-5.4,M,-19.2,M,0000,0000*78
$GPVTG,124.30,T,,M,1.25,N,2.31,K,D*3A
$GPGGA,202145.750,4651.3168,N,12414.4975,W,2,10,0.79,-5.4,M,-19.2,M,0000,0000*7C
$GPVTG,124.49,T,,M,1.25,N,2.32,K,D*37
$GPGGA,202146.000,4651.3167,N,12414.4974,W,2,10,0.79,-5.4,M,-19.2,M,0000,0000*73
$GPRMC,202146.000,A,4651.3167,N,12414.4974,W,1.19,125.80,120721,,,D*73
$GPVTG,125.80,T,,M,1.19,N,2.21,K,D*3E
$GPGGA,202146.250,4651.3167,N,12414.4974,W,2,10,0.79,-5.4,M,-19.2,M,0000,0000*74
$GPVTG,125.67,T,,M,1.08,N,2.01,K,D*35
$GPGGA,202146.500,4651.3167,N,12414.4973,W,2,10,0.79,-5.4,M,-19.2,M,0000,0000*71
$GPVTG,124.97,T,,M,0.91,N,1.68,K,D*36
$GPGGA,202146.750,4651.3167,N,12414.4973,W,2,10,0.79,-5.4,M,-19.2,M,0000,0000*76
$GPVTG,123.21,T,,M,0.75,N,1.40,K,D*3C
$GPGGA,202147.000,4651.3167,N,12414.4974,W,2,10,0.79,-5.4,M,-19.2,M,0000,0000*72
$GPRMC,202147.000,A,4651.3167,N,12414.4974,W,0.59,125.02,120721,,,D*7D
$GPVTG,125.02,T,,M,0.59,N,1.09,K,D*38
$GPGGA,202147.250,4651.3167,N,12414.4974,W,2,10,0.79,-5.4,M,-19.2,M,0000,0000*75
$GPVTG,127.60,T,,M,0.41,N,0.76,K,D*3E
$GPGGA,202147.500,4651.3167,N,12414.4974,W,2,10,0.79,-5.4,M,-19.2,M,0000,0000*77
$GPVTG,125.52,T,,M,0.28,N,0.53,K,D*35
$GPGGA,202147.750,4651.3167,N,12414.4974,W,2,10,0.79,-5.4,M,-19.2,M,0000,0000*70
$GPVTG,127.80,T,,M,0.25,N,0.46,K,D*31
$GPGGA,202148.000,4651.3167,N,12414.4974,W,2,10,0.79,-5.4,M,-19.2,M,0000,0000*7D
$GPRMC,202148.000,A,4651.3167,N,12414.4974,W,0.22,125.61,120721,,,D*7B
$GPVTG,125.61,T,,M,0.22,N,0.41,K,D*3C
$GPGGA,202148.250,4651.3167,N,12414.4974,W,2,10,0.79,-5.4,M,-19.2,M,0000,0000*7A
$GPVTG,129.64,T,,M,0.27,N,0.50,K,D*30
$GPGGA,202148.500,4651.3166,N,12414.4973,W,2,10,0.79,-5.4,M,-19.2,M,0000,0000*7E
$GPVTG,124.21,T,,M,0.45,N,0.84,K,D*31
$GPGGA,202148.750,4651.3166,N,12414.4972,W,2,10,0.79,-5.4,M,-19.2,M,0000,0000*78
$GPVTG,121.55,T,,M,0.58,N,1.08,K,D*3E
$GPGGA,202149.000,4651.3165,N,12414.4971,W,2,10,0.79,-5.4,M,-19.2,M,0000,0000*7B
$GPRMC,202149.000,A,4651.3165,N,12414.4971,W,0.67,122.24,120721,,,D*7A
$GPVTG,122.24,T,,M,0.67,N,1.24,K,D*39
$GPGGA,202149.250,4651.3164,N,12414.4970,W,2,10,0.79,-5.4,M,-19.2,M,0000,0000*7C
