$GPGGA,002023.000,4739.3111,N,12219.2961,W,2,09,1.09,33.0,M,-17.3,M,0000,0000*69
$GPVTG,185.76,T,,M,0.00,N,0.01,K,D*34
$GPGGA,002023.250,4739.3111,N,12219.2961,W,2,09,1.09,33.0,M,-17.3,M,0000,0000*6E
$GPVTG,73.76,T,,M,0.00,N,0.00,K,D*0D
$GPGGA,002023.500,4739.3111,N,12219.2961,W,2,09,1.09,33.0,M,-17.3,M,0000,0000*6C
$GPRMC,002023.500,A,4739.3111,N,12219.2961,W,0.00,139.92,160822,,,D*7E
$GPVTG,139.92,T,,M,0.00,N,0.01,K,D*39
$GPGGA,002023.750,4739.3111,N,12219.2961,W,2,09,1.09,33.0,M,-17.3,M,0000,0000*6B
$GPVTG,250.40,T,,M,0.01,N,0.01,K,D*3B
$GPGGA,002024.000,4739.3111,N,12219.2961,W,2,09,1.09,33.0,M,-17.3,M,0000,0000*6E
$GPVTG,87.96,T,,M,0.01,N,0.02,K,D*0B
$GPGGA,002024.250,4739.3111,N,12219.2961,W,2,09,1.09,33.0,M,-17.3,M,0000,0000*69
$GPVTG,282.88,T,,M,0.00,N,0.01,K,D*31
$GPGGA,002024.500,4739.3111,N,12219.2961,W,2,09,1.09,33.0,M,-17.3,M,0000,0000*6B
$GPRMC,002024.500,A,4739.3111,N,12219.2961,W,0.00,241.78,160822,,,D*71
$GPVTG,241.78,T,,M,0.00,N,0.01,K,D*31
$GPGGA,002024.750,4739.3111,N,12219.2961,W,2,09,1.09,33.0,M,-17.3,M,0000,0000*6C
$GPVTG,282.30,T,,M,0.01,N,0.02,K,D*30
$GPGGA,002025.000,4739.3111,N,12219.2961,W,2,09,1.09,33.0,M,-17.3,M,0000,0000*6F
$GPVTG,225.08,T,,M,0.01,N,0.02,K,D*36
$GPGGA,002025.250,4739.3111,N,12219.2961,W,2,09,1.09,33.0,M,-17.3,M,0000,0000*68
$GPVTG,329.31,T,,M,0.00,N,0.01,K,D*33
$GPGGA,002025.500,4739.3111,N,12219.2961,W,2,09,1.09,33.0,M,-17.3,M,0000,0000*6A
$GPRMC,002025.500,A,4739.3111,N,12219.2961,W,0.01,318.17,160822,,,D*75
$GPVTG,318.17,T,,M,0.01,N,0.02,K,D*37
$GPGGA,002025.750,4739.3111,N,12219.2961,W,2,09,1.09,33.0,M,-17.3,M,0000,0000*6D
$GPVTG,0.00,T,,M,0.00,N,0.00,K,D*38
$GPGGA,002026.000,4739.3111,N,12219.2961,W,2,09,1.09,33.0,M,-17.3,M,0000,0000*6C
$GPVTG,282.11,T,,M,0.00,N,0.00,K,D*30
$GPGGA,002026.250,4739.3111,N,12219.2961,W,2,09,1.09,33.0,M,-17.3,M,0000,0000*6B
$GPVTG,315.78,T,,M,0.01,N,0.01,K,D*30
$GPGGA,002026.500,4739.3111,N,12219.2961,W,2,09,1.09,33.0,M,-17.3,M,0000,0000*69
$GPRMC,002026.500,A,4739.3111,N,12219.2961,W,0.01,329.90,160822,,,D*7B
$GPVTG,329.90,T,,M,0.01,N,0.01,K,D*39
$GPGGA,002026.750,4739.3111,N,12219.2961,W,2,09,1.09,33.0,M,-17.3,M,0000,0000*6E
$GPVTG,76.60,T,,M,0.00,N,0.01,K,D*0E
$GPGGA,002027.000,4739.3111,N,12219.2961,W,2,09,1.09,33.0,M,-17.3,M,0000,0000*6D
$GPVTG,39.26,T,,M,0.00,N,0.01,K,D*07
$GPGGA,002027.250,4739.3111,N,12219.2961,W,2,09,1.09,33.0,M,-17.3,M,0000,0000*6A
$GPVTG,29.05,T,,M,0.00,N,0.01,K,D*07
$GPGGA,002027.500,4739.3111,N,12219.2961,W,2,09,1.09,33.0,M,-17.3,M,0000,0000*68
$GPRMC,002027.500,A,4739.3111,N,12219.2961,W,0.01,45.41,160822,,,D*4F
$GPVTG,45.41,T,,M,0.01,N,0.01,K,D*0C
$GPGGA,002027.750,4739.3111,N,12219.2961,W,2,09,1.09,33.0,M,-17.3,M,0000,0000*6F
$GPVTG,290.60,T,,M,0.01,N,0.01,K,D*35
$GPGGA,002028.000,4739.3111,N,12219.2961,W,2,09,1.09,33.0,M,-17.3,M,0000,0000*62
$GPVTG,48.88,T,,M,0.00,N,0.01,K,D*05
$GPGGA,002028.250,4739.3111,N,12219.2961,W,2,09,1.09,33.0,M,-17.3,M,0000,0000*65
$GPVTG,57.92,T,,M,0.01,N,0.02,K,D*02
$GPGGA,002028.500,4739.3111,N,12219.2961,W,2,09,1.09,33.0,M,-17.3,M,0000,0000*67
$GPRMC,002028.500,A,4739.3111,N,12219.2961,W,0.01,349.14,160822,,,D*7F
$GPVTG,349.14,T,,M,0.01,N,0.01,K,D*33
$GPGGA,002028.750,4739.3111,N,12219.2961,W,2,09,1.09,33.0,M,-17.3,M,0000,0000*60
$GPVTG,259.09,T,,M,0.00,N,0.00,K,D*3F
$GPGGA,002029.000,4739.3111,N,12219.2961,W,2,09,1.09,33.0,M,-17.3,M,0000,0000*63
$GPVTG,0.00,T,,M,0.00,N,0.00,K,D*38
$GPGGA,002029.250,4739.3111,N,12219.2961,W,2,09,1.09,33.0,M,-17.3,M,0000,0000*64
$GPVTG,86.73,T,,M,0.01,N,0.01,K,D*02
$GPGGA,002029.500,4739.3111,N,12219.2961,W,2,09,1.09,33.0,M,-17.3,M,0000,0000*66
$GPRMC,002029.500,A,4739.3111,N,12219.2961,W,0.01,319.60,160822,,,D*78
$GPVTG,319.60,T,,M,0.01,N,0.01,K,D*35
$GPGGA,002029.750,4739.3111,N,12219.2961,W,2,09,1.09,33.1,M,-17.3,M,0000,0000*60
$GPVTG,9.92,T,,M,0.00,N,0.01,K,D*3B
$GPGGA,002030.000,4739.3111,N,12219.2961,W,2,09,1.09,33.1,M,-17.3,M,0000,0000*6A
$GPVTG,263.84,T,,M,0.00,N,0.00,K,D*33
$GPGGA,002030.250,4739.3111,N,12219.2961,W,2,09,1.09,33.1,M,-17.3,M,0000,0000*6D
$GPVTG,45.37,T,,M,0.00,N,0.01,K,D*0C
$GPGGA,002030.500,4739.3111,N,12219.2961,W,2,09,1.09,33.1,M,-17.3,M,0000,0000*6F
$GPRMC,002030.500,A,4739.3111,N,12219.2961,W,0.01,52.64,160822,,,D*48
$GPVTG,52.64,T,,M,0.01,N,0.01,K,D*0D
$GPGGA,002030.750,4739.3111,N,12219.2961,W,2,09,1.09,33.1,M,-17.3,M,0000,0000*68
$GPVTG,0.00,T,,M,0.00,N,0.00,K,D*38
$GPGGA,002031.000,4739.3111,N,12219.2961,W,2,09,1.09,33.1,M,-17.3,M,0000,0000*6B
$GPVTG,84.71,T,,M,0.01,N,0.03,K,D*00
$GPGGA,002031.250,4739.3111,N,12219.2961,W,2,09,1.09,33.1,M,-17.3,M,0000,0000*6C
$GPVTG,46.73,T,,M,0.01,N,0.01,K,D*0E
$GPGGA,002031.500,4739.3111,N,12219.2961,W,2,09,1.09,33.1,M,-17.3,M,0000,0000*6E
$GPRMC,002031.500,A,4739.3111,N,12219.2961,W,0.01,155.43,160822,,,D*7A
$GPVTG,155.43,T,,M,0.01,N,0.01,K,D*3E
$GPGGA,002031.750,4739.3111,N,12219.2961,W,2,09,1.09,33.1,M,-17.3,M,0000,0000*69
$GPVTG,147.62,T,,M,0.00,N,0.01,K,D*3F
$GPGGA,002032.000,4739.3111,N,12219.2961,W,2,09,1.09,33.1,M,-17.3,M,0000,0000*68
$GPVTG,124.58,T,,M,0.01,N,0.01,K,D*32
$GPGGA,002032.250,4739.3111,N,12219.2961,W,2,09,1.09,33.1,M,-17.3,M,0000,0000*6F
$GPVTG,100.60,T,,M,0.00,N,0.01,K,D*3E
$GPGGA,002032.500,4739.3111,N,12219.2961,W,2,09,1.09,33.1,M,-17.3,M,0000,0000*6D
$GPRMC,002032.500,A,4739.3111,N,12219.2961,W,0.01,125.13,160822,,,D*7B
$GPVTG,125.13,T,,M,0.01,N,0.01,K,D*3C
$GPGGA,002032.750,4739.3111,N,12219.2961,W,2,09,1.09,33.1,M,-17.3,M,0000,0000*6A
$GPVTG,231.04,T,,M,0.00,N,0.00,K,D*3C
$GPGGA,002033.000,4739.3111,N,12219.2961,W,2,09,1.09,33.1,M,-17.3,M,0000,0000*69
$GPVTG,257.43,T,,M,0.00,N,0.01,K,D*3E
$GPGGA,002033.250,4739.3111,N,12219.2961,W,2,09,1.09,33.1,M,-17.3,M,0000,0000*6E
$GPVTG,150.36,T,,M,0.01,N,0.01,K,D*39
$GPGGA,002033.500,4739.3111,N,12219.2961,W,2,09,1.09,33.1,M,-17.3,M,0000,0000*6C
$GPRMC,002033.500,A,4739.3111,N,12219.2961,W,0.00,283.75,160822,,,D*74
$GPVTG,283.75,T,,M,0.00,N,0.00,K,D*33
$GPGGA,002033.750,4739.3111,N,12219.2961,W,2,09,1.09,33.1,M,-17.3,M,0000,0000*6B
$GPVTG,86.10,T,,M,0.01,N,0.01,K,D*07
$GPGGA,002034.000,4739.3111,N,12219.2961,W,2,09,1.09,33.1,M,-17.3,M,0000,0000*6E
$GPVTG,175.69,T,,M,0.00,N,0.00,K,D*34
$GPGGA,002034.250,4739.3111,N,12219.2961,W,2,09,1.09,33.1,M,-17.3,M,0000,0000*69
$GPVTG,158.53,T,,M,0.01,N,0.01,K,D*32
$GPGGA,002034.500,4739.3111,N,12219.2961,W,2,09,1.09,33.1,M,-17.3,M,0000,0000*6B
$GPRMC,002034.500,A,4739.3111,N,12219.2961,W,0.01,244.15,160822,,,D*7F
$GPVTG,244.15,T,,M,0.01,N,0.01,K,D*3E
$GPGGA,002034.750,4739.3111,N,12219.2961,W,2,09,1.09,33.1,M,-17.3,M,0000,0000*6C
$GPVTG,50.45,T,,M,0.00,N,0.01,K,D*0D
$GPGGA,002035.000,4739.3111,N,12219.2961,W,2,09,1.09,33.1,M,-17.3,M,0000,0000*6F
$GPVTG,132.83,T,,M,0.01,N,0.01,K,D*33
$GPGGA,002035.250,4739.3111,N,12219.2961,W,2,09,1.09,33.1,M,-17.3,M,0000,0000*68
$GPVTG,184.34,T,,M,0.01,N,0.02,K,D*31
$GPGGA,002035.500,4739.3111,N,12219.2961,W,2,09,1.09,33.1,M,-17.3,M,0000,0000*6A
$GPRMC,002035.500,A,4739.3111,N,12219.2961,W,0.00,302.48,160822,,,D*74
$GPVTG,302.48,T,,M,0.00,N,0.01,K,D*34
$GPGGA,002035.750,4739.3111,N,12219.2961,W,2,09,1.09,33.1,M,-17.3,M,0000,0000*6D
$GPVTG,64.64,T,,M,0.01,N,0.01,K,D*08
$GPGGA,002036.000,4739.3111,N,12219.2961,W,2,09,1.09,33.1,M,-17.3,M,0000,0000*6C
$GPVTG,238.18,T,,M,0.01,N,0.01,K,D*38
$GPGGA,002036.250,4739.3111,N,12219.2961,W,2,09,1.09,33.1,M,-17.3,M,0000,0000*6B
$GPVTG,131.98,T,,M,0.01,N,0.01,K,D*3A
$GPGGA,002036.500,4739.3111,N,12219.2961,W,2,09,1.09,33.1,M,-17.3,M,0000,0000*69
$GPRMC,002036.500,A,4739.3111,N,12219.2961,W,0.01,261.26,160822,,,D*7A
$GPVTG,261.26,T,,M,0.01,N,0.01,K,D*39
$GPGGA,002036.750,4739.3111,N,12219.2961,W,2,09,1.09,33.1,M,-17.3,M,0000,0000*6E
$GPVTG,231.22,T,,M,0.00,N,0.01,K,D*39
$GPGGA,002037.000,4739.3111,N,12219.2961,W,2,09,1.09,33.1,M,-17.3,M,0000,0000*6D
$GPVTG,183.22,T,,M,0.01,N,0.01,K,D*32
$GPGGA,002037.250,4739.3111,N,12219.2961,W,2,09,1.09,33.1,M,-17.3,M,0000,0000*6A
$GPVTG,282.53,T,,M,0.01,N,0.01,K,D*36
$GPGGA,002037.500,4739.3111,N,12219.2961,W,2,09,1.09,33.1,M,-17.3,M,0000,0000*68
$GPRMC,002037.500,A,4739.3111,N,12219.2961,W,0.00,173.63,160822,,,D*7B
$GPVTG,173.63,T,,M,0.00,N,0.01,K,D*39
$GPGGA,002037.750,4739.3111,N,12219.2961,W,2,09,1.09,33.1,M,-17.3,M,0000,0000*6F
$GPVTG,307.29,T,,M,0.00,N,0.01,K,D*36
$GPGGA,002038.000,4739.3111,N,12219.2961,W,2,09,1.09,33.1,M,-17.3,M,0000,0000*62
$GPVTG,214.10,T,,M,0.01,N,0.01,K,D*3E
$GPGGA,002038.250,4739.3111,N,12219.2961,W,2,09,1.09,33.1,M,-17.3,M,0000,0000*65
$GPVTG,275.09,T,,M,0.01,N,0.01,K,D*31
$GPGGA,002038.500,4739.3111,N,12219.2961,W,2,09,1.09,33.1,M,-17.3,M,0000,0000*67
$GPRMC,002038.500,A,4739.3111,N,12219.2961,W,0.01,99.29,160822,,,D*4E
$GPVTG,99.29,T,,M,0.01,N,0.01,K,D*03
$GPGGA,002038.750,4739.3111,N,12219.2961,W,2,09,1.09,33.1,M,-17.3,M,0000,0000*60
$GPVTG,355.04,T,,M,0.01,N,0.01,K,D*3F
$GPGGA,002039.000,4739.3111,N,12219.2961,W,2,09,1.09,33.1,M,-17.3,M,0000,0000*63
$GPVTG,105.05,T,,M,0.00,N,0.01,K,D*38
$GPGGA,002039.250,4739.3111,N,12219.2961,W,2,09,1.09,33.1,M,-17.3,M,0000,0000*64
$GPVTG,6.16,T,,M,0.01,N,0.01,K,D*39
$GPGGA,002039.500,4739.3111,N,12219.2961,W,2,09,1.09,33.1,M,-17.3,M,0000,0000*66
$GPRMC,002039.500,A,4739.3111,N,12219.2961,W,0.01,136.85,160822,,,D*7D
$GPVTG,136.85,T,,M,0.01,N,0.01,K,D*31
$GPGGA,002039.750,4739.3111,N,12219.2961,W,2,09,1.09,33.1,M,-17.3,M,0000,0000*61
$GPVTG,15.66,T,,M,0.00,N,0.01,K,D*0D
$GPGGA,002040.000,4739.3111,N,12219.2961,W,2,09,1.09,33.1,M,-17.3,M,0000,0000*6D
$GPVTG,176.39,T,,M,0.00,N,0.00,K,D*32
$GPGGA,002040.250,4739.3111,N,12219.2961,W,2,09,1.09,33.1,M,-17.3,M,0000,0000*6A
$GPVTG,334.14,T,,M,0.00,N,0.01,K,D*38
$GPGGA,002040.500,4739.3111,N,12219.2961,W,2,09,1.09,33.1,M,-17.3,M,0000,0000*68
$GPRMC,002040.500,A,4739.3111,N,12219.2961,W,0.01,72.17,160822,,,D*49
$GPVTG,72.17,T,,M,0.01,N,0.01,K,D*0B
$GPGGA,002040.750,4739.3111,N,12219.2961,W,2,09,1.09,33.1,M,-17.3,M,0000,0000*6F
$GPVTG,111.72,T,,M,0.00,N,0.01,K,D*3D
$GPGGA,002041.000,4739.3111,N,12219.2961,W,2,09,1.09,33.1,M,-17.3,M,0000,0000*6C
$GPVTG,331.42,T,,M,0.00,N,0.01,K,D*3E
$GPGGA,002041.250,4739.3111,N,12219.2961,W,2,09,1.09,33.1,M,-17.3,M,0000,0000*6B
$GPVTG,96.58,T,,M,0.00,N,0.01,K,D*0B
$GPGGA,002041.500,4739.3111,N,12219.2961,W,2,09,1.09,33.1,M,-17.3,M,0000,0000*69
$GPRMC,002041.500,A,4739.3111,N,12219.2961,W,0.00,131.83,160822,,,D*72
$GPVTG,131.83,T,,M,0.00,N,0.01,K,D*31
$GPGGA,002041.750,4739.3111,N,12219.2961,W,2,09,1.09,33.1,M,-17.3,M,0000,0000*6E
$GPVTG,341.09,T,,M,0.01,N,0.01,K,D*37
$GPGGA,002042.000,4739.3111,N,12219.2961,W,2,09,1.09,33.1,M,-17.3,M,0000,0000*6F
$GPVTG,99.92,T,,M,0.01,N,0.01,K,D*03
$GPGGA,002042.250,4739.3111,N,12219.2961,W,2,09,1.09,33.1,M,-17.3,M,0000,0000*68
$GPVTG,51.11,T,,M,0.00,N,0.01,K,D*0D
$GPGGA,002042.500,4739.3111,N,12219.2961,W,2,09,1.09,33.1,M,-17.3,M,0000,0000*6A
$GPRMC,002042.500,A,4739.3111,N,12219.2961,W,0.00,0.00,160822,,,D*79
$GPVTG,0.00,T,,M,0.00,N,0.00,K,D*38
$GPGGA,002042.750,4739.3111,N,12219.2961,W,2,09,1.09,33.1,M,-17.3,M,0000,0000*6D
$GPVTG,55.28,T,,M,0.00,N,0.01,K,D*03
$GPGGA,002043.000,4739.3111,N,12219.2961,W,2,09,1.09,33.1,M,-17.3,M,0000,0000*6E
$GPVTG,41.43,T,,M,0.01,N,0.02,K,D*09
$GPGGA,002043.250,4739.3111,N,12219.2961,W,2,09,1.09,33.1,M,-17.3,M,0000,0000*69
$GPVTG,92.70,T,,M,0.00,N,0.01,K,D*05
$GPGGA,002043.500,4739.3111,N,12219.2961,W,2,09,1.09,33.1,M,-17.3,M,0000,0000*6B
$GPRMC,002043.500,A,4739.3111,N,12219.2961,W,0.00,153.58,160822,,,D*72
$GPVTG,153.58,T,,M,0.00,N,0.01,K,D*33
$GPGGA,002043.750,4739.3111,N,12219.2961,W,2,09,1.09,33.1,M,-17.3,M,0000,0000*6C
$GPVTG,347.84,T,,M,0.01,N,0.01,K,D*34
$GPGGA,002044.000,4739.3111,N,12219.2961,W,2,09,1.09,33.1,M,-17.3,M,0000,0000*69
$GPVTG,85.27,T,,M,0.00,N,0.01,K,D*01
$GPGGA,002044.250,4739.3111,N,12219.2961,W,2,09,1.09,33.1,M,-17.3,M,0000,0000*6E
$GPVTG,106.39,T,,M,0.01,N,0.02,K,D*36
$GPGGA,002044.500,4739.3111,N,12219.2961,W,2,09,1.09,33.1,M,-17.3,M,0000,0000*6C
$GPRMC,002044.500,A,4739.3111,N,12219.2961,W,0.01,230.01,160822,,,D*7E
$GPVTG,230.01,T,,M,0.01,N,0.01,K,D*38
$GPGGA,002044.750,4739.3111,N,12219.2961,W,2,09,1.09,33.1,M,-17.3,M,0000,0000*6B
$GPVTG,200.16,T,,M,0.00,N,0.00,K,D*3D
$GPGGA,002045.000,4739.3111,N,12219.2961,W,2,09,1.09,33.1,M,-17.3,M,0000,0000*68
$GPVTG,340.23,T,,M,0.01,N,0.01,K,D*3E
$GPGGA,002045.250,4739.3111,N,12219.2961,W,2,09,1.09,33.1,M,-17.3,M,0000,0000*6F
$GPVTG,323.37,T,,M,0.00,N,0.00,K,D*3E
$GPGGA,002045.500,4739.3111,N,12219.2961,W,2,09,1.09,33.1,M,-17.3,M,0000,0000*6D
$GPRMC,002045.500,A,4739.3111,N,12219.2961,W,0.01,148.85,160822,,,D*7F
$GPVTG,148.85,T,,M,0.01,N,0.01,K,D*38
$GPGGA,002045.750,4739.3111,N,12219.2961,W,2,09,1.09,33.1,M,-17.3,M,0000,0000*6A
$GPVTG,265.42,T,,M,0.00,N,0.01,K,D*3E
$GPGGA,002046.000,4739.3111,N,12219.2961,W,2,09,1.09,33.1,M,-17.3,M,0000,0000*6B
$GPVTG,176.46,T,,M,0.00,N,0.00,K,D*3A
$GPGGA,002046.250,4739.3111,N,12219.2961,W,2,09,1.09,33.1,M,-17.3,M,0000,0000*6C
$GPVTG,306.77,T,,M,0.01,N,0.01,K,D*3D
$GPGGA,002046.500,4739.3111,N,12219.2961,W,2,09,1.09,33.1,M,-17.3,M,0000,0000*6E
$GPRMC,002046.500,A,4739.3111,N,12219.2961,W,0.00,92.17,160822,,,D*40
$GPVTG,92.17,T,,M,0.00,N,0.00,K,D*05
$GPGGA,002046.750,4739.3111,N,12219.2961,W,2,09,1.09,33.1,M,-17.3,M,0000,0000*69
$GPVTG,156.35,T,,M,0.00,N,0.01,K,D*3D
$GPGGA,002047.000,4739.3111,N,12219.2961,W,2,09,1.09,33.1,M,-17.3,M,0000,0000*6A
$GPVTG,289.18,T,,M,0.01,N,0.01,K,D*32
$GPGGA,002047.250,4739.3111,N,12219.2961,W,2,09,1.09,33.1,M,-17.3,M,0000,0000*6D
$GPVTG,62.44,T,,M,0.00,N,0.01,K,D*0D
$GPGGA,002047.500,4739.3111,N,12219.2961,W,2,09,1.09,33.1,M,-17.3,M,0000,0000*6F
$GPRMC,002047.500,A,4739.3111,N,12219.2961,W,0.01,287.81,160822,,,D*79
$GPVTG,287.81,T,,M,0.01,N,0.01,K,D*3C
$GPGGA,002047.750,4739.3111,N,12219.2961,W,2,09,1.09,33.1,M,-17.3,M,0000,0000*68
$GPVTG,179.79,T,,M,0.01,N,0.02,K,D*3A
$GPGGA,002048.000,4739.3111,N,12219.2961,W,2,09,1.09,33.1,M,-17.3,M,0000,0000*65
$GPVTG,281.57,T,,M,0.00,N,0.00,K,D*31
$GPGGA,002048.250,4739.3111,N,12219.2961,W,2,09,1.09,33.1,M,-17.3,M,0000,0000*62
$GPVTG,281.85,T,,M,0.01,N,0.01,K,D*3E
$GPGGA,002048.500,4739.3111,N,12219.2961,W,2,09,1.09,33.1,M,-17.3,M,0000,0000*60
$GPRMC,002048.500,A,4739.3111,N,12219.2961,W,0.00,235.27,160822,,,D*72
$GPVTG,235.27,T,,M,0.00,N,0.01,K,D*38
$GPGGA,002048.750,4739.3111,N,12219.2961,W,2,09,1.09,33.1,M,-17.3,M,0000,0000*67
$GPVTG,106.78,T,,M,0.00,N,0.01,K,D*31
$GPGGA,002049.000,4739.3111,N,12219.2961,W,2,09,1.09,33.1,M,-17.3,M,0000,0000*64
$GPVTG,230.75,T,,M,0.01,N,0.01,K,D*3B
$GPGGA,002049.250,4739.3111,N,12219.2961,W,2,09,1.09,33.1,M,-17.3,M,0000,0000*63
$GPVTG,124.83,T,,M,0.00,N,0.01,K,D*35
$GPGGA,002049.500,4739.3111,N,12219.2961,W,2,09,1.09,33.1,M,-17.3,M,0000,0000*61
$GPRMC,002049.500,A,4739.3111,N,12219.2961,W,0.01,228.86,160822,,,D*75
$GPVTG,228.86,T,,M,0.01,N,0.02,K,D*3D
$GPGGA,002049.750,4739.3111,N,12219.2961,W,2,09,1.09,33.1,M,-17.3,M,0000,0000*66
$GPVTG,0.00,T,,M,0.00,N,0.00,K,D*38
$GPGGA,002050.000,4739.3111,N,12219.2961,W,2,09,1.09,33.1,M,-17.3,M,0000,0000*6C
$GPVTG,345.02,T,,M,0.00,N,0.01,K,D*39
$GPGGA,002050.250,4739.3111,N,12219.2961,W,2,09,1.09,33.1,M,-17.3,M,0000,0000*6B
$GPVTG,239.33,T,,M,0.01,N,0.02,K,D*33
$GPGGA,002050.500,4739.3111,N,12219.2961,W,2,09,1.09,33.1,M,-17.3,M,0000,0000*69
$GPRMC,002050.500,A,4739.3111,N,12219.2961,W,0.01,47.55,160822,,,D*48
$GPVTG,47.55,T,,M,0.01,N,0.02,K,D*08
$GPGGA,002050.750,4739.3111,N,12219.2961,W,2,09,1.09,33.1,M,-17.3,M,0000,0000*6E
$GPVTG,132.20,T,,M,0.01,N,0.01,K,D*3A
$GPGGA,002051.000,4739.3111,N,12219.2961,W,2,09,1.09,33.1,M,-17.3,M,0000,0000*6D
$GPVTG,117.74,T,,M,0.01,N,0.01,K,D*3C
$GPGGA,002051.250,4739.3111,N,12219.2961,W,2,09,1.09,33.1,M,-17.3,M,0000,0000*6A
$GPVTG,168.40,T,,M,0.00,N,0.00,K,D*33
$GPGGA,002051.500,4739.3111,N,12219.2961,W,2,09,1.09,33.1,M,-17.3,M,0000,0000*68
$GPRMC,002051.500,A,4739.3111,N,12219.2961,W,0.00,236.49,160822,,,D*71
$GPVTG,236.49,T,,M,0.00,N,0.01,K,D*33
$GPGGA,002051.750,4739.3111,N,12219.2961,W,2,09,1.09,33.1,M,-17.3,M,0000,0000*6F
$GPVTG,86.13,T,,M,0.01,N,0.02,K,D*07
$GPGGA,002052.000,4739.3111,N,12219.2961,W,2,09,1.09,33.1,M,-17.3,M,0000,0000*6E
$GPVTG,25.40,T,,M,0.00,N,0.00,K,D*0B
$GPGGA,002052.250,4739.3111,N,12219.2961,W,2,09,1.09,33.1,M,-17.3,M,0000,0000*69
$GPVTG,113.23,T,,M,0.01,N,0.01,K,D*3A
$GPGGA,002052.500,4739.3111,N,12219.2961,W,2,09,1.09,33.1,M,-17.3,M,0000,0000*6B
$GPRMC,002052.500,A,4739.3111,N,12219.2961,W,0.00,105.01,160822,,,D*7D
$GPVTG,105.01,T,,M,0.00,N,0.01,K,D*3C
$GPGGA,002052.750,4739.3111,N,12219.2961,W,2,09,1.09,33.1,M,-17.3,M,0000,0000*6C
$GPVTG,48.51,T,,M,0.00,N,0.01,K,D*01
$GPGGA,002053.000,4739.3111,N,12219.2961,W,2,09,1.09,33.1,M,-17.3,M,0000,0000*6F
$GPVTG,0.00,T,,M,0.00,N,0.00,K,D*38
$GPGGA,002053.250,4739.3111,N,12219.2961,W,2,09,1.09,33.1,M,-17.3,M,0000,0000*68
$GPVTG,96.82,T,,M,0.01,N,0.02,K,D*0E
$GPGGA,002053.500,4739.3111,N,12219.2961,W,2,09,1.09,33.1,M,-17.3,M,0000,0000*6A
$GPRMC,002053.500,A,4739.3111,N,12219.2961,W,0.00,118.71,160822,,,D*77
$GPVTG,118.71,T,,M,0.00,N,0.01,K,D*37
$GPGGA,002053.750,4739.3111,N,12219.2961,W,2,09,1.09,33.1,M,-17.3,M,0000,0000*6D
$GPVTG,51.10,T,,M,0.00,N,0.01,K,D*0C
$GPGGA,002054.000,4739.3111,N,12219.2961,W,2,09,1.09,33.1,M,-17.3,M,0000,0000*68
$GPVTG,136.14,T,,M,0.00,N,0.01,K,D*38
$GPGGA,002054.250,4739.3111,N,12219.2961,W,2,09,1.09,33.1,M,-17.3,M,0000,0000*6F
$GPVTG,80.05,T,,M,0.01,N,0.02,K,D*06
$GPGGA,002054.500,4739.3111,N,12219.2961,W,2,09,1.09,33.1,M,-17.3,M,0000,0000*6D
$GPRMC,002054.500,A,4739.3111,N,12219.2961,W,0.00,21.95,160822,,,D*41
$GPVTG,21.95,T,,M,0.00,N,0.00,K,D*07
$GPGGA,002054.750,4739.3111,N,12219.2961,W,2,09,1.09,33.1,M,-17.3,M,0000,0000*6A
$GPVTG,23.84,T,,M,0.01,N,0.01,K,D*05
$GPGGA,002055.000,4739.3111,N,12219.2961,W,2,09,1.09,33.1,M,-17.3,M,0000,0000*69
$GPVTG,67.90,T,,M,0.01,N,0.02,K,D*03
$GPGGA,002055.250,4739.3111,N,12219.2961,W,2,09,1.09,33.1,M,-17.3,M,0000,0000*6E
$GPVTG,61.12,T,,M,0.01,N,0.01,K,D*0C
$GPGGA,002055.500,4739.3111,N,12219.2961,W,2,09,1.09,33.1,M,-17.3,M,0000,0000*6C
$GPRMC,002055.500,A,4739.3111,N,12219.2961,W,0.01,140.81,160822,,,D*72
$GPVTG,140.81,T,,M,0.01,N,0.02,K,D*37
$GPGGA,002055.750,4739.3111,N,12219.2961,W,2,09,1.09,33.1,M,-17.3,M,0000,0000*6B
$GPVTG,1.60,T,,M,0.00,N,0.01,K,D*3E
$GPGGA,002056.000,4739.3111,N,12219.2961,W,2,09,1.09,33.1,M,-17.3,M,0000,0000*6A
$GPVTG,0.00,T,,M,0.00,N,0.00,K,D*38
$GPGGA,002056.250,4739.3111,N,12219.2961,W,2,09,1.09,33.1,M,-17.3,M,0000,0000*6D
$GPVTG,158.58,T,,M,0.01,N,0.01,K,D*39
$GPGGA,002056.500,4739.3111,N,12219.2961,W,2,09,1.09,33.1,M,-17.3,M,0000,0000*6F
$GPRMC,002056.500,A,4739.3111,N,12219.2961,W,0.01,245.93,160822,,,D*74
$GPVTG,245.93,T,,M,0.01,N,0.01,K,D*31
$GPGGA,002056.750,4739.3111,N,12219.2961,W,2,09,1.09,33.1,M,-17.3,M,0000,0000*68
$GPVTG,215.18,T,,M,0.00,N,0.00,K,D*37
$GPGGA,002057.000,4739.3111,N,12219.2961,W,2,09,1.09,33.1,M,-17.3,M,0000,0000*6B
$GPVTG,185.02,T,,M,0.01,N,0.01,K,D*36
$GPGGA,002057.250,4739.3111,N,12219.2961,W,2,09,1.09,33.1,M,-17.3,M,0000,0000*6C
$GPVTG,275.31,T,,M,0.01,N,0.01,K,D*3A
$GPGGA,002057.500,4739.3111,N,12219.2961,W,2,09,1.09,33.1,M,-17.3,M,0000,0000*6E
$GPRMC,002057.500,A,4739.3111,N,12219.2961,W,0.00,299.29,160822,,,D*74
$GPVTG,299.29,T,,M,0.00,N,0.00,K,D*31
$GPGGA,002057.750,4739.3111,N,12219.2961,W,2,09,1.09,33.1,M,-17.3,M,0000,0000*69
$GPVTG,214.50,T,,M,0.01,N,0.02,K,D*39
$GPGGA,002058.000,4739.3111,N,12219.2961,W,2,09,1.09,33.1,M,-17.3,M,0000,0000*64
$GPVTG,154.46,T,,M,0.00,N,0.01,K,D*3B
$GPGGA,002058.250,4739.3111,N,12219.2961,W,2,09,1.09,33.1,M,-17.3,M,0000,0000*63
$GPVTG,201.05,T,,M,0.01,N,0.01,K,D*3E
$GPGGA,002058.500,4739.3111,N,12219.2961,W,2,09,1.09,33.1,M,-17.3,M,0000,0000*61
$GPRMC,002058.500,A,4739.3111,N,12219.2961,W,0.01,303.44,160822,,,D*73
$GPVTG,303.44,T,,M,0.01,N,0.01,K,D*38
$GPGGA,002058.750,4739.3111,N,12219.2961,W,2,09,1.09,33.1,M,-17.3,M,0000,0000*66
$GPVTG,258.53,T,,M,0.01,N,0.01,K,D*31
$GPGGA,002059.000,4739.3111,N,12219.2961,W,2,09,1.09,33.1,M,-17.3,M,0000,0000*65
$GPVTG,288.38,T,,M,0.00,N,0.01,K,D*30
$GPGGA,002059.250,4739.3111,N,12219.2961,W,2,09,1.09,33.1,M,-17.3,M,0000,0000*62
$GPVTG,194.52,T,,M,0.00,N,0.01,K,D*32
$GPGGA,002059.500,4739.3111,N,12219.2961,W,2,09,1.09,33.1,M,-17.3,M,0000,0000*60
$GPRMC,002059.500,A,4739.3111,N,12219.2961,W,0.00,189.69,160822,,,D*7C
$GPVTG,189.69,T,,M,0.00,N,0.01,K,D*36
$GPGGA,002059.750,4739.3111,N,12219.2961,W,2,09,1.09,33.1,M,-17.3,M,0000,0000*67
$GPVTG,202.43,T,,M,0.01,N,0.01,K,D*3F
$GPGGA,002100.000,4739.3111,N,12219.2961,W,2,09,1.09,33.1,M,-17.3,M,0000,0000*68
$GPVTG,323.00,T,,M,0.01,N,0.01,K,D*3A
$GPGGA,002100.250,4739.3111,N,12219.2961,W,2,09,1.09,33.1,M,-17.3,M,0000,0000*6F
$GPVTG,294.86,T,,M,0.01,N,0.01,K,D*39
$GPGGA,002100.500,4739.3111,N,12219.2961,W,2,09,1.09,33.1,M,-17.3,M,0000,0000*6D
$GPRMC,002100.500,A,4739.3111,N,12219.2961,W,0.01,229.32,160822,,,D*77
$GPVTG,229.32,T,,M,0.01,N,0.01,K,D*30
$GPGGA,002100.750,4739.3111,N,12219.2961,W,2,09,1.09,33.1,M,-17.3,M,0000,0000*6A
$GPVTG,188.91,T,,M,0.00,N,0.00,K,D*31
$GPGGA,002101.000,4739.3111,N,12219.2961,W,2,09,1.09,33.1,M,-17.3,M,0000,0000*69
$GPVTG,185.53,T,,M,0.01,N,0.01,K,D*32
$GPGGA,002101.250,4739.3111,N,12219.2961,W,2,09,1.09,33.1,M,-17.3,M,0000,0000*6E
$GPVTG,218.84,T,,M,0.01,N,0.01,K,D*3F
$GPGGA,002101.500,4739.3111,N,12219.2961,W,2,09,1.09,33.1,M,-17.3,M,0000,0000*6C
$GPRMC,002101.500,A,4739.3111,N,12219.2961,W,0.00,279.93,160822,,,D*79
$GPVTG,279.93,T,,M,0.00,N,0.01,K,D*3F
$GPGGA,002101.750,4739.3111,N,12219.2961,W,2,09,1.09,33.1,M,-17.3,M,0000,0000*6B
$GPVTG,304.75,T,,M,0.00,N,0.01,K,D*3C
$GPGGA,002102.000,4739.3111,N,12219.2961,W,2,09,1.09,33.2,M,-17.3,M,0000,0000*69
$GPVTG,148.92,T,,M,0.00,N,0.01,K,D*3F
$GPGGA,002102.250,4739.3111,N,12219.2961,W,2,09,1.09,33.2,M,-17.3,M,0000,0000*6E
$GPVTG,204.80,T,,M,0.00,N,0.00,K,D*36
$GPGGA,002102.500,4739.3111,N,12219.2961,W,2,09,1.09,33.2,M,-17.3,M,0000,0000*6C
$GPRMC,002102.500,A,4739.3111,N,12219.2961,W,0.01,111.70,160822,,,D*7B
$GPVTG,111.70,T,,M,0.01,N,0.01,K,D*3E
$GPGGA,002102.750,4739.3111,N,12219.2961,W,2,09,1.09,33.2,M,-17.3,M,0000,0000*6B
$GPVTG,50.21,T,,M,0.00,N,0.01,K,D*0F
$GPGGA,002103.000,4739.3111,N,12219.2961,W,2,09,1.09,33.2,M,-17.3,M,0000,0000*68
$GPVTG,37.97,T,,M,0.01,N,0.01,K,D*02
$GPGGA,002103.250,4739.3111,N,12219.2961,W,2,09,1.09,33.2,M,-17.3,M,0000,0000*6F
$GPVTG,120.06,T,,M,0.01,N,0.01,K,D*3D
$GPGGA,002103.500,4739.3111,N,12219.2961,W,2,09,1.09,33.2,M,-17.3,M,0000,0000*6D
$GPRMC,002103.500,A,4739.3111,N,12219.2961,W,0.00,342.14,160822,,,D*7D
$GPVTG,342.14,T,,M,0.00,N,0.01,K,D*39
$GPGGA,002103.750,4739.3111,N,12219.2961,W,2,09,1.09,33.2,M,-17.3,M,0000,0000*6A
$GPVTG,100.19,T,,M,0.00,N,0.01,K,D*30
$GPGGA,002104.000,4739.3111,N,12219.2961,W,2,09,1.09,33.2,M,-17.3,M,0000,0000*6F
$GPVTG,63.52,T,,M,0.01,N,0.01,K,D*0A
$GPGGA,002104.250,4739.3111,N,12219.2961,W,2,09,1.09,33.2,M,-17.3,M,0000,0000*68
$GPVTG,148.73,T,,M,0.00,N,0.01,K,D*30
$GPGGA,002104.500,4739.3111,N,12219.2961,W,2,09,1.09,33.2,M,-17.3,M,0000,0000*6A
$GPRMC,002104.500,A,4739.3111,N,12219.2961,W,0.01,34.07,160822,,,D*4B
$GPVTG,34.07,T,,M,0.01,N,0.01,K,D*08
$GPGGA,002104.750,4739.3111,N,12219.2961,W,2,09,1.09,33.2,M,-17.3,M,0000,0000*6D
$GPVTG,0.00,T,,M,0.00,N,0.00,K,D*38
$GPGGA,002105.000,4739.3111,N,12219.2961,W,2,09,1.09,33.2,M,-17.3,M,0000,0000*6E
$GPVTG,144.81,T,,M,0.00,N,0.01,K,D*31
$GPGGA,002105.250,4739.3111,N,12219.2961,W,2,09,1.09,33.2,M,-17.3,M,0000,0000*69
$GPVTG,104.04,T,,M,0.01,N,0.02,K,D*3A
$GPGGA,002105.500,4739.3111,N,12219.2961,W,2,09,1.09,33.2,M,-17.3,M,0000,0000*6B
$GPRMC,002105.500,A,4739.3111,N,12219.2961,W,0.01,18.43,160822,,,D*44
$GPVTG,18.43,T,,M,0.01,N,0.01,K,D*06
$GPGGA,002105.750,4739.3111,N,12219.2961,W,2,09,1.09,33.2,M,-17.3,M,0000,0000*6C
$GPVTG,115.12,T,,M,0.01,N,0.01,K,D*3E
$GPGGA,002106.000,4739.3111,N,12219.2961,W,2,09,1.09,33.2,M,-17.3,M,0000,0000*6D
$GPVTG,69.12,T,,M,0.01,N,0.01,K,D*04
$GPGGA,002106.250,4739.3111,N,12219.2961,W,2,09,1.09,33.2,M,-17.3,M,0000,0000*6A
$GPVTG,122.77,T,,M,0.01,N,0.01,K,D*39
$GPGGA,002106.500,4739.3111,N,12219.2961,W,2,09,1.09,33.2,M,-17.3,M,0000,0000*68
$GPRMC,002106.500,A,4739.3111,N,12219.2961,W,0.00,54.69,160822,,,D*46
$GPVTG,54.69,T,,M,0.00,N,0.01,K,D*07
$GPGGA,002106.750,4739.3111,N,12219.2961,W,2,09,1.09,33.2,M,-17.3,M,0000,0000*6F
$GPVTG,20.27,T,,M,0.00,N,0.00,K,D*0F
$GPGGA,002107.000,4739.3111,N,12219.2961,W,2,09,1.09,33.2,M,-17.3,M,0000,0000*6C
$GPVTG,57.38,T,,M,0.01,N,0.02,K,D*02
$GPGGA,002107.250,4739.3111,N,12219.2961,W,2,09,1.09,33.2,M,-17.3,M,0000,0000*6B
$GPVTG,359.01,T,,M,0.01,N,0.01,K,D*36
$GPGGA,002107.500,4739.3111,N,12219.2961,W,2,09,1.09,33.2,M,-17.3,M,0000,0000*69
$GPRMC,002107.500,A,4739.3111,N,12219.2961,W,0.01,165.36,160822,,,D*7F
$GPVTG,165.36,T,,M,0.01,N,0.01,K,D*3F
$GPGGA,002107.750,4739.3111,N,12219.2961,W,2,09,1.09,33.2,M,-17.3,M,0000,0000*6E
$GPVTG,33.50,T,,M,0.00,N,0.01,K,D*0C
$GPGGA,002108.000,4739.3111,N,12219.2961,W,2,09,1.09,33.2,M,-17.3,M,0000,0000*63
$GPVTG,83.42,T,,M,0.00,N,0.01,K,D*04
$GPGGA,002108.250,4739.3111,N,12219.2961,W,2,09,1.09,33.2,M,-17.3,M,0000,0000*64
$GPVTG,41.50,T,,M,0.00,N,0.01,K,D*09
$GPGGA,002108.500,4739.3111,N,12219.2961,W,2,09,1.09,33.2,M,-17.3,M,0000,0000*66
$GPRMC,002108.500,A,4739.3111,N,12219.2961,W,0.00,228.75,160822,,,D*7C
$GPVTG,228.75,T,,M,0.00,N,0.01,K,D*33
$GPGGA,002108.750,4739.3111,N,12219.2961,W,2,09,1.09,33.2,M,-17.3,M,0000,0000*61
$GPVTG,282.78,T,,M,0.01,N,0.01,K,D*3F
$GPGGA,002109.000,4739.3111,N,12219.2961,W,2,09,1.09,33.2,M,-17.3,M,0000,0000*62
$GPVTG,277.20,T,,M,0.01,N,0.01,K,D*38
$GPGGA,002109.250,4739.3111,N,12219.2961,W,2,09,1.09,33.2,M,-17.3,M,0000,0000*65
$GPVTG,235.81,T,,M,0.00,N,0.01,K,D*34
$GPGGA,002109.500,4739.3111,N,12219.2961,W,2,09,1.09,33.2,M,-17.3,M,0000,0000*67
$GPRMC,002109.500,A,4739.3111,N,12219.2961,W,0.00,23.31,160822,,,D*44
$GPVTG,23.31,T,,M,0.00,N,0.01,K,D*0A
$GPGGA,002109.750,4739.3111,N,12219.2961,W,2,09,1.09,33.2,M,-17.3,M,0000,0000*60
$GPVTG,264.02,T,,M,0.00,N,0.01,K,D*3B
$GPGGA,002110.000,4739.3111,N,12219.2961,W,2,09,1.09,33.2,M,-17.3,M,0000,0000*6A
$GPVTG,291.28,T,,M,0.00,N,0.01,K,D*39
$GPGGA,002110.250,4739.3111,N,12219.2961,W,2,09,1.09,33.2,M,-17.3,M,0000,0000*6D
$GPVTG,230.61,T,,M,0.01,N,0.01,K,D*3E
$GPGGA,002110.500,4739.3111,N,12219.2961,W,2,09,1.09,33.2,M,-17.3,M,0000,0000*6F
$GPRMC,002110.500,A,4739.3111,N,12219.2961,W,0.00,186.71,160822,,,D*76
$GPVTG,186.71,T,,M,0.00,N,0.00,K,D*31
$GPGGA,002110.750,4739.3111,N,12219.2961,W,2,09,1.09,33.2,M,-17.3,M,0000,0000*68
$GPVTG,294.07,T,,M,0.01,N,0.01,K,D*30
$GPGGA,002111.000,4739.3111,N,12219.2961,W,2,09,1.09,33.2,M,-17.3,M,0000,0000*6B
$GPVTG,0.00,T,,M,0.00,N,0.00,K,D*38
$GPGGA,002111.250,4739.3111,N,12219.2961,W,2,09,1.09,33.2,M,-17.3,M,0000,0000*6C
$GPVTG,283.20,T,,M,0.02,N,0.03,K,D*32
$GPGGA,002111.500,4739.3111,N,12219.2961,W,2,09,1.09,33.2,M,-17.3,M,0000,0000*6E
$GPRMC,002111.500,A,4739.3111,N,12219.2961,W,0.00,223.27,160822,,,D*78
$GPVTG,223.27,T,,M,0.00,N,0.00,K,D*3E
$GPGGA,002111.750,4739.3111,N,12219.2961,W,2,09,1.09,33.2,M,-17.3,M,0000,0000*69
$GPVTG,299.55,T,,M,0.01,N,0.01,K,D*3A
$GPGGA,002112.000,4739.3111,N,12219.2961,W,2,09,1.09,33.2,M,-17.3,M,0000,0000*68
$GPVTG,238.02,T,,M,0.01,N,0.01,K,D*33
$GPGGA,002112.250,4739.3111,N,12219.2961,W,2,09,1.09,33.2,M,-17.3,M,0000,0000*6F
$GPVTG,344.75,T,,M,0.00,N,0.01,K,D*38
$GPGGA,002112.500,4739.3111,N,12219.2961,W,2,09,1.09,33.2,M,-17.3,M,0000,0000*6D
$GPRMC,002112.500,A,4739.3111,N,12219.2961,W,0.01,206.55,160822,,,D*78
$GPVTG,206.55,T,,M,0.01,N,0.02,K,D*3F
$GPGGA,002112.750,4739.3111,N,12219.2961,W,2,09,1.09,33.2,M,-17.3,M,0000,0000*6A
$GPVTG,302.39,T,,M,0.01,N,0.01,K,D*33
$GPGGA,002113.000,4739.3111,N,12219.2961,W,2,09,1.09,33.2,M,-17.3,M,0000,0000*69
$GPVTG,159.88,T,,M,0.01,N,0.02,K,D*36
$GPGGA,002113.250,4739.3111,N,12219.2961,W,2,09,1.09,33.2,M,-17.3,M,0000,0000*6E
$GPVTG,268.95,T,,M,0.00,N,0.00,K,D*38
$GPGGA,002113.500,4739.3111,N,12219.2961,W,2,09,1.09,33.2,M,-17.3,M,0000,0000*6C
$GPRMC,002113.500,A,4739.3111,N,12219.2961,W,0.00,155.24,160822,,,D*7B
$GPVTG,155.24,T,,M,0.00,N,0.00,K,D*3F
$GPGGA,002113.750,4739.3111,N,12219.2961,W,2,09,1.09,33.2,M,-17.3,M,0000,0000*6B
$GPVTG,199.76,T,,M,0.00,N,0.01,K,D*39
$GPGGA,002114.000,4739.3111,N,12219.2961,W,2,09,1.09,33.2,M,-17.3,M,0000,0000*6E
$GPVTG,13.95,T,,M,0.01,N,0.01,K,D*06
$GPGGA,002114.250,4739.3111,N,12219.2961,W,2,09,1.09,33.2,M,-17.3,M,0000,0000*69
$GPVTG,237.73,T,,M,0.00,N,0.01,K,D*3B
$GPGGA,002114.500,4739.3111,N,12219.2961,W,2,09,1.09,33.2,M,-17.3,M,0000,0000*6B
$GPRMC,002114.500,A,4739.3111,N,12219.2961,W,0.01,120.06,160822,,,D*7F
$GPVTG,120.06,T,,M,0.01,N,0.02,K,D*3E
$GPGGA,002114.750,4739.3111,N,12219.2961,W,2,09,1.09,33.2,M,-17.3,M,0000,0000*6C
$GPVTG,72.26,T,,M,0.01,N,0.02,K,D*0A
$GPGGA,002115.000,4739.3111,N,12219.2961,W,2,09,1.09,33.2,M,-17.3,M,0000,0000*6F
$GPVTG,107.96,T,,M,0.00,N,0.01,K,D*30
$GPGGA,002115.250,4739.3111,N,12219.2961,W,2,09,1.09,33.2,M,-17.3,M,0000,0000*68
$GPVTG,82.87,T,,M,0.01,N,0.02,K,D*0E
$GPGGA,002115.500,4739.3111,N,12219.2961,W,2,09,1.09,33.2,M,-17.3,M,0000,0000*6A
$GPRMC,002115.500,A,4739.3111,N,12219.2961,W,0.01,221.43,160822,,,D*7D
$GPVTG,221.43,T,,M,0.01,N,0.01,K,D*3E
$GPGGA,002115.750,4739.3111,N,12219.2961,W,2,09,1.09,33.2,M,-17.3,M,0000,0000*6D
$GPVTG,74.28,T,,M,0.01,N,0.01,K,D*01
$GPGGA,002116.000,4739.3111,N,12219.2961,W,2,09,1.09,33.2,M,-17.3,M,0000,0000*6C
$GPVTG,81.44,T,,M,0.01,N,0.02,K,D*02
$GPGGA,002116.250,4739.3111,N,12219.2961,W,2,09,1.09,33.2,M,-17.3,M,0000,0000*6B
$GPVTG,113.75,T,,M,0.01,N,0.01,K,D*39
$GPGGA,002116.500,4739.3111,N,12219.2961,W,2,09,1.09,33.2,M,-17.3,M,0000,0000*69
$GPRMC,002116.500,A,4739.3111,N,12219.2961,W,0.00,151.08,160822,,,D*74
$GPVTG,151.08,T,,M,0.00,N,0.01,K,D*34
$GPGGA,002116.750,4739.3111,N,12219.2961,W,2,09,1.09,33.2,M,-17.3,M,0000,0000*6E
$GPVTG,86.94,T,,M,0.01,N,0.02,K,D*08
$GPGGA,002117.000,4739.3111,N,12219.2961,W,2,09,1.09,33.2,M,-17.3,M,0000,0000*6D
$GPVTG,127.11,T,,M,0.00,N,0.01,K,D*3D
$GPGGA,002117.250,4739.3111,N,12219.2961,W,2,09,1.09,33.2,M,-17.3,M,0000,0000*6A
$GPVTG,85.38,T,,M,0.01,N,0.01,K,D*0E
$GPGGA,002117.500,4739.3111,N,12219.2961,W,2,09,1.09,33.2,M,-17.3,M,0000,0000*68
$GPRMC,002117.500,A,4739.3111,N,12219.2961,W,0.01,98.32,160822,,,D*49
$GPVTG,98.32,T,,M,0.01,N,0.01,K,D*08
$GPGGA,002117.750,4739.3111,N,12219.2961,W,2,09,1.09,33.2,M,-17.3,M,0000,0000*6F
$GPVTG,61.81,T,,M,0.00,N,0.01,K,D*07
$GPGGA,002118.000,4739.3111,N,12219.2961,W,2,09,1.09,33.2,M,-17.3,M,0000,0000*62
$GPVTG,61.36,T,,M,0.00,N,0.01,K,D*0B
$GPGGA,002118.250,4739.3111,N,12219.2961,W,2,09,1.09,33.2,M,-17.3,M,0000,0000*65
$GPVTG,136.21,T,,M,0.00,N,0.00,K,D*3F
$GPGGA,002118.500,4739.3111,N,12219.2961,W,2,09,1.09,33.2,M,-17.3,M,0000,0000*67
$GPRMC,002118.500,A,4739.3111,N,12219.2961,W,0.00,0.00,160822,,,D*77
$GPVTG,0.00,T,,M,0.00,N,0.00,K,D*38
$GPGGA,002118.750,4739.3111,N,12219.2961,W,2,09,1.09,33.2,M,-17.3,M,0000,0000*60
$GPVTG,81.36,T,,M,0.00,N,0.00,K,D*04
$GPGGA,002119.000,4739.3111,N,12219.2961,W,2,09,1.09,33.2,M,-17.3,M,0000,0000*63
$GPVTG,271.31,T,,M,0.01,N,0.01,K,D*3E
$GPGGA,002119.250,4739.3111,N,12219.2961,W,2,09,1.09,33.2,M,-17.3,M,0000,0000*64
$GPVTG,9.24,T,,M,0.01,N,0.01,K,D*37
$GPGGA,002119.500,4739.3111,N,12219.2961,W,2,09,1.09,33.2,M,-17.3,M,0000,0000*66
$GPRMC,002119.500,A,4739.3111,N,12219.2961,W,0.00,125.04,160822,,,D*74
$GPVTG,125.04,T,,M,0.00,N,0.01,K,D*3B
$GPGGA,002119.750,4739.3111,N,12219.2961,W,2,09,1.09,33.2,M,-17.3,M,0000,0000*61
$GPVTG,105.44,T,,M,0.00,N,0.01,K,D*3D
$GPGGA,002120.000,4739.3111,N,12219.2961,W,2,09,1.09,33.2,M,-17.3,M,0000,0000*69
$GPVTG,207.40,T,,M,0.00,N,0.01,K,D*38
$GPGGA,002120.250,4739.3111,N,12219.2961,W,2,09,1.09,33.2,M,-17.3,M,0000,0000*6E
$GPVTG,279.12,T,,M,0.00,N,0.01,K,D*36
$GPGGA,002120.500,4739.3111,N,12219.2961,W,2,09,1.09,33.2,M,-17.3,M,0000,0000*6C
$GPRMC,002120.500,A,4739.3111,N,12219.2961,W,0.00,219.55,160822,,,D*76
$GPVTG,219.55,T,,M,0.00,N,0.01,K,D*33
$GPGGA,002120.750,4739.3111,N,12219.2961,W,2,09,1.09,33.2,M,-17.3,M,0000,0000*6B
$GPVTG,12.67,T,,M,0.00,N,0.01,K,D*0B
$GPGGA,002121.000,4739.3111,N,12219.2961,W,2,09,1.09,33.2,M,-17.3,M,0000,0000*68
$GPVTG,257.64,T,,M,0.01,N,0.02,K,D*39
$GPGGA,002121.250,4739.3111,N,12219.2961,W,2,09,1.09,33.2,M,-17.3,M,0000,0000*6F
$GPVTG,333.82,T,,M,0.00,N,0.01,K,D*30
$GPGGA,002121.500,4739.3111,N,12219.2961,W,2,09,1.09,33.2,M,-17.3,M,0000,0000*6D
$GPRMC,002121.500,A,4739.3111,N,12219.2961,W,0.01,336.88,160822,,,D*7A
$GPVTG,336.88,T,,M,0.01,N,0.01,K,D*3E
$GPGGA,002121.750,4739.3111,N,12219.2961,W,2,09,1.09,33.2,M,-17.3,M,0000,0000*6A
$GPVTG,287.02,T,,M,0.01,N,0.02,K,D*34
$GPGGA,002122.000,4739.3111,N,12219.2961,W,2,09,1.09,33.2,M,-17.3,M,0000,0000*6B
$GPVTG,206.53,T,,M,0.00,N,0.01,K,D*3B
$GPGGA,002122.250,4739.3111,N,12219.2961,W,2,09,1.09,33.2,M,-17.3,M,0000,0000*6C
$GPVTG,304.19,T,,M,0.01,N,0.01,K,D*37
$GPGGA,002122.500,4739.3111,N,12219.2961,W,2,09,1.09,33.2,M,-17.3,M,0000,0000*6E
$GPRMC,002122.500,A,4739.3111,N,12219.2961,W,0.00,352.57,160822,,,D*78
$GPVTG,352.57,T,,M,0.00,N,0.01,K,D*3F
$GPGGA,002122.750,4739.3111,N,12219.2961,W,2,09,1.09,33.2,M,-17.3,M,0000,0000*69
$GPVTG,267.08,T,,M,0.01,N,0.01,K,D*33
$GPGGA,002123.000,4739.3111,N,12219.2961,W,2,09,1.09,33.2,M,-17.3,M,0000,0000*6A
$GPVTG,206.84,T,,M,0.00,N,0.01,K,D*31
$GPGGA,002123.250,4739.3111,N,12219.2961,W,2,09,1.09,33.2,M,-17.3,M,0000,0000*6D
$GPVTG,239.40,T,,M,0.00,N,0.00,K,D*34
$GPGGA,002123.500,4739.3111,N,12219.2961,W,2,09,1.09,33.2,M,-17.3,M,0000,0000*6F
$GPRMC,002123.500,A,4739.3111,N,12219.2961,W,0.00,311.29,160822,,,D*77
$GPVTG,311.29,T,,M,0.00,N,0.01,K,D*31
$GPGGA,002123.750,4739.3111,N,12219.2961,W,2,09,1.09,33.2,M,-17.3,M,0000,0000*68
$GPVTG,327.35,T,,M,0.00,N,0.01,K,D*39
$GPGGA,002124.000,4739.3111,N,12219.2961,W,2,09,1.09,33.2,M,-17.3,M,0000,0000*6D
$GPVTG,271.72,T,,M,0.01,N,0.01,K,D*39
$GPGGA,002124.250,4739.3111,N,12219.2961,W,2,09,1.09,33.2,M,-17.3,M,0000,0000*6A
$GPVTG,294.70,T,,M,0.01,N,0.01,K,D*30
$GPGGA,002124.500,4739.3111,N,12219.2961,W,2,09,1.09,33.2,M,-17.3,M,0000,0000*68
$GPRMC,002124.500,A,4739.3111,N,12219.2961,W,0.00,330.52,160822,,,D*7F
$GPVTG,330.52,T,,M,0.00,N,0.00,K,D*3F
$GPGGA,002124.750,4739.3111,N,12219.2961,W,2,09,1.09,33.2,M,-17.3,M,0000,0000*6F
$GPVTG,233.39,T,,M,0.00,N,0.01,K,D*31
$GPGGA,002125.000,4739.3111,N,12219.2961,W,2,09,1.09,33.2,M,-17.3,M,0000,0000*6C
$GPVTG,152.78,T,,M,0.01,N,0.02,K,D*32
$GPGGA,002125.250,4739.3111,N,12219.2961,W,2,09,1.09,33.2,M,-17.3,M,0000,0000*6B
$GPVTG,215.62,T,,M,0.00,N,0.01,K,D*3B
$GPGGA,002125.500,4739.3111,N,12219.2961,W,2,09,1.09,33.2,M,-17.3,M,0000,0000*69
$GPRMC,002125.500,A,4739.3111,N,12219.2961,W,0.01,51.13,160822,,,D*4E
$GPVTG,51.13,T,,M,0.01,N,0.02,K,D*0D
$GPGGA,002125.750,4739.3111,N,12219.2961,W,2,09,1.09,33.2,M,-17.3,M,0000,0000*6E
$GPVTG,46.69,T,,M,0.00,N,0.01,K,D*04
$GPGGA,002126.000,4739.3111,N,12219.2961,W,2,09,1.09,33.2,M,-17.3,M,0000,0000*6F
$GPVTG,247.14,T,,M,0.01,N,0.02,K,D*3F
$GPGGA,002126.250,4739.3111,N,12219.2961,W,2,09,1.09,33.2,M,-17.3,M,0000,0000*68
$GPVTG,84.91,T,,M,0.01,N,0.01,K,D*0C
$GPGGA,002126.500,4739.3111,N,12219.2961,W,2,09,1.09,33.2,M,-17.3,M,0000,0000*6A
$GPRMC,002126.500,A,4739.3111,N,12219.2961,W,0.00,189.64,160822,,,D*78
$GPVTG,189.64,T,,M,0.00,N,0.01,K,D*3B
$GPGGA,002126.750,4739.3111,N,12219.2961,W,2,09,1.09,33.2,M,-17.3,M,0000,0000*6D
$GPVTG,80.53,T,,M,0.01,N,0.01,K,D*06
$GPGGA,002127.000,4739.3111,N,12219.2961,W,2,09,1.09,33.2,M,-17.3,M,0000,0000*6E
$GPVTG,123.69,T,,M,0.01,N,0.01,K,D*37
$GPGGA,002127.250,4739.3111,N,12219.2961,W,2,09,1.09,33.2,M,-17.3,M,0000,0000*69
$GPVTG,73.58,T,,M,0.01,N,0.01,K,D*01
$GPGGA,002127.500,4739.3111,N,12219.2961,W,2,09,1.09,33.2,M,-17.3,M,0000,0000*6B
$GPRMC,002127.500,A,4739.3111,N,12219.2961,W,0.01,109.43,160822,,,D*75
$GPVTG,109.43,T,,M,0.01,N,0.01,K,D*37
$GPGGA,002127.750,4739.3111,N,12219.2961,W,2,09,1.09,33.2,M,-17.3,M,0000,0000*6C
$GPVTG,120.26,T,,M,0.01,N,0.01,K,D*3F
$GPGGA,002128.000,4739.3111,N,12219.2961,W,2,09,1.09,33.2,M,-17.3,M,0000,0000*61
$GPVTG,74.71,T,,M,0.01,N,0.01,K,D*0D
$GPGGA,002128.250,4739.3111,N,12219.2961,W,2,09,1.09,33.2,M,-17.3,M,0000,0000*66
$GPVTG,107.82,T,,M,0.01,N,0.01,K,D*34
$GPGGA,002128.500,4739.3111,N,12219.2961,W,2,09,1.09,33.2,M,-17.3,M,0000,0000*64
$GPRMC,002128.500,A,4739.3111,N,12219.2961,W,0.00,67.52,160822,,,D*42
$GPVTG,67.52,T,,M,0.00,N,0.01,K,D*0F
$GPGGA,002128.750,4739.3111,N,12219.2961,W,2,09,1.09,33.2,M,-17.3,M,0000,0000*63
$GPVTG,172.89,T,,M,0.01,N,0.02,K,D*3E
$GPGGA,002129.000,4739.3111,N,12219.2961,W,2,09,1.09,33.2,M,-17.3,M,0000,0000*60
$GPVTG,64.46,T,,M,0.01,N,0.02,K,D*0B
$GPGGA,002129.250,4739.3111,N,12219.2961,W,2,09,1.09,33.2,M,-17.3,M,0000,0000*67
$GPVTG,56.95,T,,M,0.01,N,0.01,K,D*07
$GPGGA,002129.500,4739.3111,N,12219.2961,W,2,09,1.09,33.2,M,-17.3,M,0000,0000*65
$GPRMC,002129.500,A,4739.3111,N,12219.2961,W,0.00,99.35,160822,,,D*43
$GPVTG,99.35,T,,M,0.00,N,0.00,K,D*0E
$GPGGA,002129.750,4739.3111,N,12219.2961,W,2,09,1.09,33.2,M,-17.3,M,0000,0000*62
$GPVTG,126.29,T,,M,0.01,N,0.01,K,D*36
$GPGGA,002130.000,4739.3111,N,12219.2961,W,2,09,1.09,33.2,M,-17.3,M,0000,0000*68
$GPVTG,77.21,T,,M,0.01,N,0.01,K,D*0B
$GPGGA,002130.250,4739.3111,N,12219.2961,W,2,09,1.09,33.2,M,-17.3,M,0000,0000*6F
$GPVTG,127.20,T,,M,0.00,N,0.00,K,D*3E
$GPGGA,002130.500,4739.3111,N,12219.2961,W,2,09,1.09,33.2,M,-17.3,M,0000,0000*6D
$GPRMC,002130.500,A,4739.3111,N,12219.2961,W,0.00,0.64,160822,,,D*7F
$GPVTG,0.64,T,,M,0.00,N,0.01,K,D*3B
$GPGGA,002130.750,4739.3111,N,12219.2961,W,2,09,1.09,33.2,M,-17.3,M,0000,0000*6A
$GPVTG,13.25,T,,M,0.01,N,0.02,K,D*0E
$GPGGA,002131.000,4739.3111,N,12219.2961,W,2,09,1.09,33.2,M,-17.3,M,0000,0000*69
$GPVTG,319.24,T,,M,0.00,N,0.00,K,D*35
$GPGGA,002131.250,4739.3111,N,12219.2961,W,2,09,1.09,33.2,M,-17.3,M,0000,0000*6E
$GPVTG,346.48,T,,M,0.01,N,0.01,K,D*35
$GPGGA,002131.500,4739.3111,N,12219.2961,W,2,09,1.09,33.2,M,-17.3,M,0000,0000*6C
$GPRMC,002131.500,A,4739.3111,N,12219.2961,W,0.00,112.94,160822,,,D*73
$GPVTG,112.94,T,,M,0.00,N,0.00,K,D*37
$GPGGA,002131.750,4739.3111,N,12219.2961,W,2,09,1.09,33.2,M,-17.3,M,0000,0000*6B
$GPVTG,128.65,T,,M,0.01,N,0.01,K,D*30
$GPGGA,002132.000,4739.3111,N,12219.2961,W,2,09,1.09,33.2,M,-17.3,M,0000,0000*6A
$GPVTG,312.37,T,,M,0.00,N,0.00,K,D*3C
$GPGGA,002132.250,4739.3111,N,12219.2961,W,2,09,1.09,33.2,M,-17.3,M,0000,0000*6D
$GPVTG,98.88,T,,M,0.00,N,0.00,K,D*09
$GPGGA,002132.500,4739.3111,N,12219.2961,W,2,09,1.09,33.2,M,-17.3,M,0000,0000*6F
$GPRMC,002132.500,A,4739.3111,N,12219.2961,W,0.01,290.96,160822,,,D*7A
$GPVTG,290.96,T,,M,0.01,N,0.01,K,D*3C
$GPGGA,002132.750,4739.3111,N,12219.2961,W,2,09,1.09,33.2,M,-17.3,M,0000,0000*68
$GPVTG,311.21,T,,M,0.00,N,0.01,K,D*39
$GPGGA,002133.000,4739.3111,N,12219.2961,W,2,09,1.09,33.2,M,-17.3,M,0000,0000*6B
$GPVTG,281.92,T,,M,0.01,N,0.01,K,D*38
$GPGGA,002133.250,4739.3111,N,12219.2961,W,2,09,1.09,33.2,M,-17.3,M,0000,0000*6C
$GPVTG,356.91,T,,M,0.01,N,0.01,K,D*30
$GPGGA,002133.500,4739.3111,N,12219.2961,W,2,09,1.09,33.2,M,-17.3,M,0000,0000*6E
$GPRMC,002133.500,A,4739.3111,N,12219.2961,W,0.00,236.83,160822,,,D*72
$GPVTG,236.83,T,,M,0.00,N,0.01,K,D*35
$GPGGA,002133.750,4739.3111,N,12219.2961,W,2,09,1.09,33.2,M,-17.3,M,0000,0000*69
$GPVTG,308.19,T,,M,0.01,N,0.01,K,D*3B
$GPGGA,002134.000,4739.3111,N,12219.2961,W,2,09,1.09,33.2,M,-17.3,M,0000,0000*6C
$GPVTG,308.50,T,,M,0.01,N,0.01,K,D*36
$GPGGA,002134.250,4739.3111,N,12219.2961,W,2,09,1.09,33.2,M,-17.3,M,0000,0000*6B
$GPVTG,202.25,T,,M,0.00,N,0.01,K,D*3E
$GPGGA,002134.500,4739.3111,N,12219.2961,W,2,09,1.09,33.2,M,-17.3,M,0000,0000*69
$GPRMC,002134.500,A,4739.3111,N,12219.2961,W,0.01,297.37,160822,,,D*70
$GPVTG,297.37,T,,M,0.01,N,0.01,K,D*30
$GPGGA,002134.750,4739.3111,N,12219.2961,W,2,09,1.09,33.2,M,-17.3,M,0000,0000*6E
$GPVTG,290.49,T,,M,0.00,N,0.01,K,D*3F
$GPGGA,002135.000,4739.3111,N,12219.2961,W,2,09,1.09,33.2,M,-17.3,M,0000,0000*6D
$GPVTG,152.22,T,,M,0.00,N,0.01,K,D*3F
$GPGGA,002135.250,4739.3111,N,12219.2961,W,2,09,1.09,33.2,M,-17.3,M,0000,0000*6A
$GPVTG,250.65,T,,M,0.01,N,0.01,K,D*3C
$GPGGA,002135.500,4739.3111,N,12219.2961,W,2,09,1.09,33.2,M,-17.3,M,0000,0000*68
$GPRMC,002135.500,A,4739.3111,N,12219.2961,W,0.00,324.48,160822,,,D*71
$GPVTG,324.48,T,,M,0.00,N,0.01,K,D*30
$GPGGA,002135.750,4739.3111,N,12219.2961,W,2,09,1.09,33.2,M,-17.3,M,0000,0000*6F
$GPVTG,191.22,T,,M,0.01,N,0.02,K,D*32
$GPGGA,002136.000,4739.3111,N,12219.2961,W,2,09,1.09,33.2,M,-17.3,M,0000,0000*6E
$GPVTG,0.00,T,,M,0.00,N,0.00,K,D*38
$GPGGA,002136.250,4739.3111,N,12219.2961,W,2,09,1.09,33.2,M,-17.3,M,0000,0000*69
$GPVTG,288.79,T,,M,0.01,N,0.02,K,D*37
$GPGGA,002136.500,4739.3111,N,12219.2961,W,2,09,1.09,33.2,M,-17.3,M,0000,0000*6B
$GPRMC,002136.500,A,4739.3111,N,12219.2961,W,0.01,157.42,160822,,,D*7F
$GPVTG,157.42,T,,M,0.01,N,0.01,K,D*3D
$GPGGA,002136.750,4739.3111,N,12219.2961,W,2,09,1.09,33.2,M,-17.3,M,0000,0000*6C
$GPVTG,175.31,T,,M,0.00,N,0.01,K,D*38
$GPGGA,002137.000,4739.3111,N,12219.2961,W,2,09,1.09,33.2,M,-17.3,M,0000,0000*6F
$GPVTG,163.15,T,,M,0.01,N,0.01,K,D*38
$GPGGA,002137.250,4739.3111,N,12219.2961,W,2,09,1.09,33.2,M,-17.3,M,0000,0000*68
$GPVTG,177.92,T,,M,0.01,N,0.01,K,D*32
$GPGGA,002137.500,4739.3111,N,12219.2961,W,2,09,1.09,33.2,M,-17.3,M,0000,0000*6A
$GPRMC,002137.500,A,4739.3111,N,12219.2961,W,0.00,197.15,160822,,,D*71
$GPVTG,197.15,T,,M,0.00,N,0.01,K,D*32
$GPGGA,002137.750,4739.3111,N,12219.2961,W,2,09,1.09,33.2,M,-17.3,M,0000,0000*6D
$GPVTG,232.25,T,,M,0.01,N,0.02,K,D*3F
$GPGGA,002138.000,4739.3111,N,12219.2961,W,2,09,1.09,33.2,M,-17.3,M,0000,0000*60
$GPVTG,114.13,T,,M,0.01,N,0.01,K,D*3E
$GPGGA,002138.250,4739.3111,N,12219.2961,W,2,09,1.09,33.2,M,-17.3,M,0000,0000*67
$GPVTG,7.15,T,,M,0.00,N,0.01,K,D*3A
$GPGGA,002138.500,4739.3111,N,12219.2961,W,2,09,1.09,33.2,M,-17.3,M,0000,0000*65
$GPRMC,002138.500,A,4739.3111,N,12219.2961,W,0.01,195.47,160822,,,D*7A
$GPVTG,195.47,T,,M,0.01,N,0.01,K,D*36
$GPGGA,002138.750,4739.3111,N,12219.2961,W,2,09,1.09,33.2,M,-17.3,M,0000,0000*62
$GPVTG,119.32,T,,M,0.01,N,0.01,K,D*30
$GPGGA,002139.000,4739.3111,N,12219.2961,W,2,09,1.09,33.2,M,-17.3,M,0000,0000*61
$GPVTG,58.18,T,,M,0.00,N,0.00,K,D*0C
$GPGGA,002139.250,4739.3111,N,12219.2961,W,2,09,1.09,33.2,M,-17.3,M,0000,0000*66
$GPVTG,154.79,T,,M,0.01,N,0.02,K,D*35
$GPGGA,002139.500,4739.3111,N,12219.2961,W,2,09,1.09,33.2,M,-17.3,M,0000,0000*64
$GPRMC,002139.500,A,4739.3111,N,12219.2961,W,0.00,205.31,160822,,,D*71
$GPVTG,205.31,T,,M,0.00,N,0.00,K,D*3D
$GPGGA,002139.750,4739.3111,N,12219.2961,W,2,09,1.09,33.2,M,-17.3,M,0000,0000*63
$GPVTG,121.85,T,,M,0.01,N,0.01,K,D*37
$GPGGA,002140.000,4739.3111,N,12219.2961,W,2,09,1.09,33.2,M,-17.3,M,0000,0000*6F
$GPVTG,180.92,T,,M,0.01,N,0.01,K,D*3A
$GPGGA,002140.250,4739.3111,N,12219.2961,W,2,09,1.09,33.2,M,-17.3,M,0000,0000*68
$GPVTG,0.00,T,,M,0.00,N,0.00,K,D*38
$GPGGA,002140.500,4739.3111,N,12219.2961,W,2,09,1.09,33.2,M,-17.3,M,0000,0000*6A
$GPRMC,002140.500,A,4739.3111,N,12219.2961,W,0.00,197.71,160822,,,D*73
$GPVTG,197.71,T,,M,0.00,N,0.01,K,D*30
$GPGGA,002140.750,4739.3111,N,12219.2961,W,2,09,1.09,33.2,M,-17.3,M,0000,0000*6D
$GPVTG,321.22,T,,M,0.00,N,0.00,K,D*38
$GPGGA,002141.000,4739.3111,N,12219.2961,W,2,09,1.09,33.2,M,-17.3,M,0000,0000*6E
$GPVTG,121.10,T,,M,0.01,N,0.02,K,D*38
$GPGGA,002141.250,4739.3111,N,12219.2961,W,2,09,1.09,33.2,M,-17.3,M,0000,0000*69
$GPVTG,0.00,T,,M,0.00,N,0.00,K,D*38
$GPGGA,002141.500,4739.3111,N,12219.2961,W,2,09,1.09,33.2,M,-17.3,M,0000,0000*6B
$GPRMC,002141.500,A,4739.3111,N,12219.2961,W,0.00,208.31,160822,,,D*73
$GPVTG,208.31,T,,M,0.00,N,0.01,K,D*31
$GPGGA,002141.750,4739.3111,N,12219.2961,W,2,09,1.09,33.2,M,-17.3,M,0000,0000*6C
$GPVTG,257.04,T,,M,0.00,N,0.01,K,D*3D
$GPGGA,002142.000,4739.3111,N,12219.2961,W,2,09,1.09,33.2,M,-17.3,M,0000,0000*6D
$GPVTG,42.16,T,,M,0.00,N,0.01,K,D*08
$GPGGA,002142.250,4739.3111,N,12219.2961,W,2,09,1.09,33.2,M,-17.3,M,0000,0000*6A
$GPVTG,205.23,T,,M,0.01,N,0.01,K,D*3E
$GPGGA,002142.500,4739.3111,N,12219.2961,W,2,09,1.09,33.2,M,-17.3,M,0000,0000*68
$GPRMC,002142.500,A,4739.3111,N,12219.2961,W,0.01,355.93,160822,,,D*70
$GPVTG,355.93,T,,M,0.01,N,0.01,K,D*31
$GPGGA,002142.750,4739.3111,N,12219.2961,W,2,09,1.09,33.2,M,-17.3,M,0000,0000*6F
$GPVTG,165.33,T,,M,0.01,N,0.01,K,D*3A
$GPGGA,002143.000,4739.3111,N,12219.2961,W,2,09,1.09,33.2,M,-17.3,M,0000,0000*6C
$GPVTG,190.02,T,,M,0.00,N,0.01,K,D*33
$GPGGA,002143.250,4739.3111,N,12219.2961,W,2,09,1.09,33.2,M,-17.3,M,0000,0000*6B
$GPVTG,327.86,T,,M,0.00,N,0.01,K,D*31
$GPGGA,002143.500,4739.3111,N,12219.2961,W,2,09,1.09,33.2,M,-17.3,M,0000,0000*69
$GPRMC,002143.500,A,4739.3111,N,12219.2961,W,0.01,114.55,160822,,,D*7C
$GPVTG,114.55,T,,M,0.01,N,0.02,K,D*3F
$GPGGA,002143.750,4739.3111,N,12219.2961,W,2,09,1.09,33.2,M,-17.3,M,0000,0000*6E
$GPVTG,329.73,T,,M,0.01,N,0.02,K,D*37
$GPGGA,002144.000,4739.3111,N,12219.2961,W,2,09,1.09,33.2,M,-17.3,M,0000,0000*6B
$GPVTG,134.05,T,,M,0.01,N,0.01,K,D*3B
$GPGGA,002144.250,4739.3111,N,12219.2961,W,2,09,1.09,33.2,M,-17.3,M,0000,0000*6C
$GPVTG,48.49,T,,M,0.00,N,0.01,K,D*08
$GPGGA,002144.500,4739.3111,N,12219.2961,W,2,09,1.09,33.2,M,-17.3,M,0000,0000*6E
$GPRMC,002144.500,A,4739.3111,N,12219.2961,W,0.00,106.94,160822,,,D*74
$GPVTG,106.94,T,,M,0.00,N,0.00,K,D*32
$GPGGA,002144.750,4739.3111,N,12219.2961,W,2,09,1.09,33.2,M,-17.3,M,0000,0000*69
$GPVTG,245.15,T,,M,0.00,N,0.01,K,D*3E
$GPGGA,002145.000,4739.3111,N,12219.2961,W,2,09,1.09,33.2,M,-17.3,M,0000,0000*6A
$GPVTG,335.89,T,,M,0.01,N,0.01,K,D*3C
$GPGGA,002145.250,4739.3111,N,12219.2961,W,2,09,1.09,33.2,M,-17.3,M,0000,0000*6D
$GPVTG,244.53,T,,M,0.01,N,0.01,K,D*3C
$GPGGA,002145.500,4739.3111,N,12219.2961,W,2,09,1.09,33.2,M,-17.3,M,0000,0000*6F
$GPRMC,002145.500,A,4739.3111,N,12219.2961,W,0.00,215.17,160822,,,D*7F
$GPVTG,215.17,T,,M,0.00,N,0.01,K,D*39
$GPGGA,002145.750,4739.3111,N,12219.2961,W,2,09,1.09,33.2,M,-17.3,M,0000,0000*68
$GPVTG,2.98,T,,M,0.00,N,0.00,K,D*3B
$GPGGA,002146.000,4739.3111,N,12219.2961,W,2,09,1.09,33.2,M,-17.3,M,0000,0000*69
$GPVTG,92.44,T,,M,0.00,N,0.01,K,D*02
$GPGGA,002146.250,4739.3111,N,12219.2961,W,2,09,1.09,33.2,M,-17.3,M,0000,0000*6E
$GPVTG,229.49,T,,M,0.00,N,0.01,K,D*3D
$GPGGA,002146.500,4739.3111,N,12219.2961,W,2,09,1.09,33.2,M,-17.3,M,0000,0000*6C
$GPRMC,002146.500,A,4739.3111,N,12219.2961,W,0.00,0.00,160822,,,D*7C
$GPVTG,0.00,T,,M,0.00,N,0.00,K,D*38
$GPGGA,002146.750,4739.3111,N,12219.2961,W,2,09,1.09,33.2,M,-17.3,M,0000,0000*6B
$GPVTG,245.97,T,,M,0.00,N,0.01,K,D*34
$GPGGA,002147.000,4739.3111,N,12219.2961,W,2,09,1.09,33.2,M,-17.3,M,0000,0000*68
$GPVTG,33.60,T,,M,0.00,N,0.01,K,D*0F
$GPGGA,002147.250,4739.3111,N,12219.2961,W,2,09,1.09,33.2,M,-17.3,M,0000,0000*6F
$GPVTG,173.74,T,,M,0.00,N,0.01,K,D*3F
$GPGGA,002147.500,4739.3111,N,12219.2961,W,2,09,1.09,33.2,M,-17.3,M,0000,0000*6D
$GPRMC,002147.500,A,4739.3111,N,12219.2961,W,0.00,311.23,160822,,,D*7F
$GPVTG,311.23,T,,M,0.00,N,0.01,K,D*3B
$GPGGA,002147.750,4739.3111,N,12219.2961,W,2,09,1.09,33.2,M,-17.3,M,0000,0000*6A
$GPVTG,139.60,T,,M,0.01,N,0.01,K,D*35
$GPGGA,002148.000,4739.3111,N,12219.2961,W,2,09,1.09,33.2,M,-17.3,M,0000,0000*67
$GPVTG,267.40,T,,M,0.00,N,0.00,K,D*3F
$GPGGA,002148.250,4739.3111,N,12219.2961,W,2,09,1.09,33.2,M,-17.3,M,0000,0000*60
$GPVTG,350.48,T,,M,0.00,N,0.00,K,D*32
$GPGGA,002148.500,4739.3111,N,12219.2961,W,2,09,1.09,33.2,M,-17.3,M,0000,0000*62
$GPRMC,002148.500,A,4739.3111,N,12219.2961,W,0.00,238.32,160822,,,D*7A
$GPVTG,238.32,T,,M,0.00,N,0.01,K,D*31
$GPGGA,002148.750,4739.3111,N,12219.2961,W,2,09,1.09,33.2,M,-17.3,M,0000,0000*65
$GPVTG,152.75,T,,M,0.00,N,0.00,K,D*3C
$GPGGA,002149.000,4739.3111,N,12219.2961,W,2,09,1.09,33.2,M,-17.3,M,0000,0000*66
$GPVTG,128.98,T,,M,0.01,N,0.01,K,D*32
$GPGGA,002149.250,4739.3111,N,12219.2961,W,2,09,1.09,33.2,M,-17.3,M,0000,0000*61
$GPVTG,268.06,T,,M,0.00,N,0.00,K,D*32
$GPGGA,002149.500,4739.3111,N,12219.2961,W,2,09,1.09,33.2,M,-17.3,M,0000,0000*63
$GPRMC,002149.500,A,4739.3111,N,12219.2961,W,0.00,359.84,160822,,,D*70
$GPVTG,359.84,T,,M,0.00,N,0.00,K,D*3B
$GPGGA,002149.750,4739.3111,N,12219.2961,W,2,09,1.09,33.2,M,-17.3,M,0000,0000*64
$GPVTG,250.47,T,,M,0.00,N,0.00,K,D*3C
$GPGGA,002150.000,4739.3111,N,12219.2961,W,2,09,1.09,33.2,M,-17.3,M,0000,0000*6E
$GPVTG,355.90,T,,M,0.00,N,0.00,K,D*32
$GPGGA,002150.250,4739.3111,N,12219.2961,W,2,09,1.09,33.2,M,-17.3,M,0000,0000*69
$GPVTG,101.82,T,,M,0.00,N,0.00,K,D*32
$GPGGA,002150.500,4739.3111,N,12219.2961,W,2,09,1.09,33.2,M,-17.3,M,0000,0000*6B
$GPRMC,002150.500,A,4739.3111,N,12219.2961,W,0.00,139.31,160822,,,D*72
$GPVTG,139.31,T,,M,0.00,N,0.00,K,D*31
$GPGGA,002150.750,4739.3111,N,12219.2961,W,2,09,1.09,33.2,M,-17.3,M,0000,0000*6C
$GPVTG,0.00,T,,M,0.00,N,0.00,K,D*38
$GPGGA,002151.000,4739.3111,N,12219.2961,W,2,09,1.09,33.2,M,-17.3,M,0000,0000*6F
$GPVTG,47.12,T,,M,0.00,N,0.01,K,D*09
$GPGGA,002151.250,4739.3111,N,12219.2961,W,2,09,1.09,33.2,M,-17.3,M,0000,0000*68
$GPVTG,59.92,T,,M,0.01,N,0.01,K,D*0F
$GPGGA,002151.500,4739.3111,N,12219.2961,W,2,09,1.09,33.2,M,-17.3,M,0000,0000*6A
$GPRMC,002151.500,A,4739.3111,N,12219.2961,W,0.00,54.95,160822,,,D*47
$GPVTG,54.95,T,,M,0.00,N,0.00,K,D*05
$GPGGA,002151.750,4739.3111,N,12219.2961,W,2,09,1.09,33.2,M,-17.3,M,0000,0000*6D
$GPVTG,52.33,T,,M,0.01,N,0.02,K,D*0C
$GPGGA,002152.000,4739.3111,N,12219.2961,W,2,09,1.09,33.2,M,-17.3,M,0000,0000*6C
$GPVTG,290.96,T,,M,0.00,N,0.00,K,D*3C
$GPGGA,002152.250,4739.3111,N,12219.2961,W,2,09,1.09,33.2,M,-17.3,M,0000,0000*6B
$GPVTG,155.44,T,,M,0.00,N,0.01,K,D*38
$GPGGA,002152.500,4739.3111,N,12219.2961,W,2,09,1.09,33.2,M,-17.3,M,0000,0000*69
$GPRMC,002152.500,A,4739.3111,N,12219.2961,W,0.00,45.22,160822,,,D*48
$GPVTG,45.22,T,,M,0.00,N,0.00,K,D*09
$GPGGA,002152.750,4739.3111,N,12219.2961,W,2,09,1.09,33.2,M,-17.3,M,0000,0000*6E
$GPVTG,91.52,T,,M,0.01,N,0.02,K,D*04
$GPGGA,002153.000,4739.3111,N,12219.2961,W,2,09,1.09,33.2,M,-17.3,M,0000,0000*6D
$GPVTG,326.65,T,,M,0.00,N,0.01,K,D*3D
$GPGGA,002153.250,4739.3111,N,12219.2961,W,2,09,1.09,33.2,M,-17.3,M,0000,0000*6A
$GPVTG,0.00,T,,M,0.00,N,0.00,K,D*38
$GPGGA,002153.500,4739.3111,N,12219.2961,W,2,09,1.09,33.2,M,-17.3,M,0000,0000*68
$GPRMC,002153.500,A,4739.3111,N,12219.2961,W,0.00,56.33,160822,,,D*4B
$GPVTG,56.33,T,,M,0.00,N,0.01,K,D*0A
$GPGGA,002153.750,4739.3111,N,12219.2961,W,2,09,1.09,33.2,M,-17.3,M,0000,0000*6F
$GPVTG,53.25,T,,M,0.01,N,0.01,K,D*09
$GPGGA,002154.000,4739.3111,N,12219.2961,W,2,09,1.09,33.2,M,-17.3,M,0000,0000*6A
$GPVTG,82.80,T,,M,0.00,N,0.01,K,D*0B
$GPGGA,002154.250,4739.3111,N,12219.2961,W,2,09,1.09,33.3,M,-17.3,M,0000,0000*6C
$GPVTG,11.88,T,,M,0.01,N,0.01,K,D*08
$GPGGA,002154.500,4739.3111,N,12219.2961,W,2,09,1.09,33.3,M,-17.3,M,0000,0000*6E
$GPRMC,002154.500,A,4739.3111,N,12219.2961,W,0.00,247.56,160822,,,D*7D
$GPVTG,247.56,T,,M,0.00,N,0.00,K,D*3A
$GPGGA,002154.750,4739.3111,N,12219.2961,W,2,09,1.09,33.3,M,-17.3,M,0000,0000*69
$GPVTG,298.17,T,,M,0.01,N,0.02,K,D*3E
$GPGGA,002155.000,4739.3111,N,12219.2961,W,2,09,1.09,33.3,M,-17.3,M,0000,0000*6A
$GPVTG,48.89,T,,M,0.01,N,0.02,K,D*06
$GPGGA,002155.250,4739.3111,N,12219.2961,W,2,09,1.09,33.3,M,-17.3,M,0000,0000*6D
$GPVTG,354.71,T,,M,0.00,N,0.00,K,D*3C
$GPGGA,002155.500,4739.3111,N,12219.2961,W,2,09,1.09,33.3,M,-17.3,M,0000,0000*6F
$GPRMC,002155.500,A,4739.3111,N,12219.2961,W,0.00,321.11,160822,,,D*7E
$GPVTG,321.11,T,,M,0.00,N,0.00,K,D*38
$GPGGA,002155.750,4739.3111,N,12219.2961,W,2,09,1.09,33.3,M,-17.3,M,0000,0000*68
$GPVTG,93.31,T,,M,0.00,N,0.01,K,D*01
$GPGGA,002156.000,4739.3111,N,12219.2961,W,2,09,1.09,33.3,M,-17.3,M,0000,0000*69
$GPVTG,0.00,T,,M,0.00,N,0.00,K,D*38
$GPGGA,002156.250,4739.3111,N,12219.2961,W,2,09,1.09,33.3,M,-17.3,M,0000,0000*6E
$GPVTG,106.32,T,,M,0.01,N,0.01,K,D*3E
$GPGGA,002156.500,4739.3111,N,12219.2961,W,2,09,1.09,33.3,M,-17.3,M,0000,0000*6C
$GPRMC,002156.500,A,4739.3111,N,12219.2961,W,0.00,96.21,160822,,,D*41
$GPVTG,96.21,T,,M,0.00,N,0.00,K,D*04
$GPGGA,002156.750,4739.3111,N,12219.2961,W,2,09,1.09,33.3,M,-17.3,M,0000,0000*6B
$GPVTG,196.47,T,,M,0.01,N,0.01,K,D*35
$GPGGA,002157.000,4739.3111,N,12219.2961,W,2,09,1.09,33.3,M,-17.3,M,0000,0000*68
$GPVTG,344.38,T,,M,0.01,N,0.01,K,D*30
$GPGGA,002157.250,4739.3111,N,12219.2961,W,2,09,1.09,33.3,M,-17.3,M,0000,0000*6F
$GPVTG,154.35,T,,M,0.01,N,0.01,K,D*3E
$GPGGA,002157.500,4739.3111,N,12219.2961,W,2,09,1.09,33.3,M,-17.3,M,0000,0000*6D
$GPRMC,002157.500,A,4739.3111,N,12219.2961,W,0.00,286.16,160822,,,D*77
$GPVTG,286.16,T,,M,0.00,N,0.00,K,D*33
$GPGGA,002157.750,4739.3111,N,12219.2961,W,2,09,1.09,33.3,M,-17.3,M,0000,0000*6A
$GPVTG,202.85,T,,M,0.00,N,0.00,K,D*35
$GPGGA,002158.000,4739.3111,N,12219.2961,W,2,09,1.09,33.3,M,-17.3,M,0000,0000*67
$GPVTG,2.20,T,,M,0.00,N,0.00,K,D*38
$GPGGA,002158.250,4739.3111,N,12219.2961,W,2,09,1.09,33.3,M,-17.3,M,0000,0000*60
$GPVTG,168.88,T,,M,0.00,N,0.01,K,D*36
$GPGGA,002158.500,4739.3111,N,12219.2961,W,2,09,1.09,33.3,M,-17.3,M,0000,0000*62
$GPRMC,002158.500,A,4739.3111,N,12219.2961,W,0.00,285.39,160822,,,D*76
$GPVTG,285.39,T,,M,0.00,N,0.01,K,D*3C
$GPGGA,002158.750,4739.3111,N,12219.2961,W,2,09,1.09,33.3,M,-17.3,M,0000,0000*65
$GPVTG,147.29,T,,M,0.00,N,0.00,K,D*31
$GPGGA,002159.000,4739.3111,N,12219.2961,W,2,09,1.09,33.3,M,-17.3,M,0000,0000*66
$GPVTG,199.19,T,,M,0.00,N,0.01,K,D*30
$GPGGA,002159.250,4739.3111,N,12219.2961,W,2,09,1.09,33.3,M,-17.3,M,0000,0000*61
$GPVTG,243.08,T,,M,0.00,N,0.01,K,D*34
$GPGGA,002159.500,4739.3111,N,12219.2961,W,2,09,1.09,33.3,M,-17.3,M,0000,0000*63
$GPRMC,002159.500,A,4739.3111,N,12219.2961,W,0.00,152.39,160822,,,D*7E
$GPVTG,152.39,T,,M,0.00,N,0.00,K,D*34
$GPGGA,002159.750,4739.3111,N,12219.2961,W,2,09,1.09,33.3,M,-17.3,M,0000,0000*64
$GPVTG,204.43,T,,M,0.00,N,0.01,K,D*38
$GPGGA,002200.000,4739.3111,N,12219.2961,W,2,09,1.09,33.3,M,-17.3,M,0000,0000*69
$GPVTG,307.32,T,,M,0.00,N,0.01,K,D*3C
$GPGGA,002200.250,4739.3111,N,12219.2961,W,2,09,1.09,33.3,M,-17.3,M,0000,0000*6E
$GPVTG,184.03,T,,M,0.01,N,0.01,K,D*36
$GPGGA,002200.500,4739.3111,N,12219.2961,W,2,09,1.09,33.3,M,-17.3,M,0000,0000*6C
$GPRMC,002200.500,A,4739.3111,N,12219.2961,W,0.00,0.00,160822,,,D*7D
$GPVTG,0.00,T,,M,0.00,N,0.00,K,D*38
$GPGGA,002200.750,4739.3111,N,12219.2961,W,2,09,1.09,33.3,M,-17.3,M,0000,0000*6B
$GPVTG,207.06,T,,M,0.01,N,0.01,K,D*3B
$GPGGA,002201.000,4739.3111,N,12219.2961,W,2,09,1.09,33.3,M,-17.3,M,0000,0000*68
$GPVTG,67.08,T,,M,0.00,N,0.01,K,D*00
$GPGGA,002201.250,4739.3111,N,12219.2961,W,2,09,1.09,33.3,M,-17.3,M,0000,0000*6F
$GPVTG,310.36,T,,M,0.00,N,0.01,K,D*3E
$GPGGA,002201.500,4739.3111,N,12219.2961,W,2,09,1.09,33.3,M,-17.3,M,0000,0000*6D
$GPRMC,002201.500,A,4739.3111,N,12219.2961,W,0.01,187.41,160822,,,D*76
$GPVTG,187.41,T,,M,0.01,N,0.01,K,D*33
$GPGGA,002201.750,4739.3111,N,12219.2961,W,2,09,1.09,33.3,M,-17.3,M,0000,0000*6A
$GPVTG,319.19,T,,M,0.00,N,0.00,K,D*3B
$GPGGA,002202.000,4739.3111,N,12219.2961,W,2,09,1.09,33.3,M,-17.3,M,0000,0000*6B
$GPVTG,126.42,T,,M,0.00,N,0.00,K,D*3B
$GPGGA,002202.250,4739.3111,N,12219.2961,W,2,09,1.09,33.3,M,-17.3,M,0000,0000*6C
$GPVTG,34.55,T,,M,0.00,N,0.01,K,D*0E
$GPGGA,002202.500,4739.3111,N,12219.2961,W,2,09,1.09,33.3,M,-17.3,M,0000,0000*6E
$GPRMC,002202.500,A,4739.3111,N,12219.2961,W,0.01,201.55,160822,,,D*7D
$GPVTG,201.55,T,,M,0.01,N,0.01,K,D*3B
$GPGGA,002202.750,4739.3111,N,12219.2961,W,2,09,1.09,33.3,M,-17.3,M,0000,0000*69
$GPVTG,20.87,T,,M,0.00,N,0.01,K,D*04
$GPGGA,002203.000,4739.3111,N,12219.2961,W,2,09,1.09,33.3,M,-17.3,M,0000,0000*6A
$GPVTG,125.02,T,,M,0.01,N,0.01,K,D*3C
$GPGGA,002203.250,4739.3111,N,12219.2961,W,2,09,1.09,33.3,M,-17.3,M,0000,0000*6D
$GPVTG,317.69,T,,M,0.01,N,0.01,K,D*32
$GPGGA,002203.500,4739.3111,N,12219.2961,W,2,09,1.09,33.3,M,-17.3,M,0000,0000*6F
$GPRMC,002203.500,A,4739.3111,N,12219.2961,W,0.01,38.80,160822,,,D*4C
$GPVTG,38.80,T,,M,0.01,N,0.01,K,D*0B
$GPGGA,002203.750,4739.3111,N,12219.2961,W,2,09,1.09,33.3,M,-17.3,M,0000,0000*68
$GPVTG,89.50,T,,M,0.01,N,0.01,K,D*0C
$GPGGA,002204.000,4739.3111,N,12219.2961,W,2,09,1.09,33.3,M,-17.3,M,0000,0000*6D
$GPVTG,350.66,T,,M,0.00,N,0.00,K,D*3E
$GPGGA,002204.250,4739.3111,N,12219.2961,W,2,09,1.09,33.3,M,-17.3,M,0000,0000*6A
$GPVTG,4.58,T,,M,0.00,N,0.00,K,D*31
$GPGGA,002204.500,4739.3111,N,12219.2961,W,2,09,1.09,33.3,M,-17.3,M,0000,0000*68
$GPRMC,002204.500,A,4739.3111,N,12219.2961,W,0.00,293.39,160822,,,D*7B
$GPVTG,293.39,T,,M,0.00,N,0.01,K,D*3B
$GPGGA,002204.750,4739.3111,N,12219.2961,W,2,09,1.09,33.3,M,-17.3,M,0000,0000*6F
$GPVTG,67.44,T,,M,0.00,N,0.01,K,D*08
$GPGGA,002205.000,4739.3111,N,12219.2961,W,2,09,1.09,33.3,M,-17.3,M,0000,0000*6C
$GPVTG,289.00,T,,M,0.00,N,0.01,K,D*3A
$GPGGA,002205.250,4739.3111,N,12219.2961,W,2,09,1.09,33.3,M,-17.3,M,0000,0000*6B
$GPVTG,45.33,T,,M,0.00,N,0.01,K,D*08
$GPGGA,002205.500,4739.3111,N,12219.2961,W,2,09,1.09,33.3,M,-17.3,M,0000,0000*69
$GPRMC,002205.500,A,4739.3111,N,12219.2961,W,0.00,238.08,160822,,,D*79
$GPVTG,238.08,T,,M,0.00,N,0.01,K,D*38
$GPGGA,002205.750,4739.3111,N,12219.2961,W,2,09,1.09,33.3,M,-17.3,M,0000,0000*6E
$GPVTG,110.33,T,,M,0.01,N,0.01,K,D*38
$GPGGA,002206.000,4739.3111,N,12219.2961,W,2,09,1.09,33.3,M,-17.3,M,0000,0000*6F
$GPVTG,34.49,T,,M,0.01,N,0.01,K,D*02
$GPGGA,002206.250,4739.3111,N,12219.2961,W,2,09,1.09,33.3,M,-17.3,M,0000,0000*68
$GPVTG,272.94,T,,M,0.00,N,0.01,K,D*33
$GPGGA,002206.500,4739.3111,N,12219.2961,W,2,09,1.09,33.3,M,-17.3,M,0000,0000*6A
$GPRMC,002206.500,A,4739.3111,N,12219.2961,W,0.00,164.11,160822,,,D*78
$GPVTG,164.11,T,,M,0.00,N,0.00,K,D*3B
$GPGGA,002206.750,4739.3111,N,12219.2961,W,2,09,1.09,33.3,M,-17.3,M,0000,0000*6D
$GPVTG,356.55,T,,M,0.00,N,0.00,K,D*38
$GPGGA,002207.000,4739.3111,N,12219.2961,W,2,09,1.09,33.3,M,-17.3,M,0000,0000*6E
$GPVTG,79.21,T,,M,0.00,N,0.01,K,D*04
$GPGGA,002207.250,4739.3111,N,12219.2961,W,2,09,1.09,33.3,M,-17.3,M,0000,0000*69
$GPVTG,337.26,T,,M,0.00,N,0.01,K,D*3A
$GPGGA,002207.500,4739.3111,N,12219.2961,W,2,09,1.09,33.3,M,-17.3,M,0000,0000*6B
$GPRMC,002207.500,A,4739.3111,N,12219.2961,W,0.00,41.88,160822,,,D*4F
$GPVTG,41.88,T,,M,0.00,N,0.01,K,D*0C
$GPGGA,002207.750,4739.3111,N,12219.2961,W,2,09,1.09,33.3,M,-17.3,M,0000,0000*6C
$GPVTG,69.91,T,,M,0.01,N,0.01,K,D*0F
$GPGGA,002208.000,4739.3111,N,12219.2961,W,2,09,1.09,33.3,M,-17.3,M,0000,0000*61
$GPVTG,170.45,T,,M,0.01,N,0.01,K,D*3F
$GPGGA,002208.250,4739.3111,N,12219.2961,W,2,09,1.09,33.3,M,-17.3,M,0000,0000*66
$GPVTG,0.00,T,,M,0.00,N,0.00,K,D*38
$GPGGA,002208.500,4739.3111,N,12219.2961,W,2,09,1.09,33.3,M,-17.3,M,0000,0000*64
$GPRMC,002208.500,A,4739.3111,N,12219.2961,W,0.01,148.92,160822,,,D*72
$GPVTG,148.92,T,,M,0.01,N,0.01,K,D*3E
$GPGGA,002208.750,4739.3111,N,12219.2961,W,2,09,1.09,33.3,M,-17.3,M,0000,0000*63
$GPVTG,191.84,T,,M,0.00,N,0.01,K,D*3C
$GPGGA,002209.000,4739.3111,N,12219.2961,W,2,09,1.09,33.3,M,-17.3,M,0000,0000*60
$GPVTG,209.64,T,,M,0.00,N,0.00,K,D*31
$GPGGA,002209.250,4739.3111,N,12219.2961,W,2,09,1.09,33.3,M,-17.3,M,0000,0000*67
$GPVTG,151.82,T,,M,0.01,N,0.02,K,D*34
$GPGGA,002209.500,4739.3111,N,12219.2961,W,2,09,1.09,33.3,M,-17.3,M,0000,0000*65
$GPRMC,002209.500,A,4739.3111,N,12219.2961,W,0.00,215.98,160822,,,D*73
$GPVTG,215.98,T,,M,0.00,N,0.01,K,D*3E
$GPGGA,002209.750,4739.3111,N,12219.2961,W,2,09,1.09,33.3,M,-17.3,M,0000,0000*62
$GPVTG,164.55,T,,M,0.01,N,0.01,K,D*3B
$GPGGA,002210.000,4739.3111,N,12219.2961,W,2,09,1.09,33.3,M,-17.3,M,0000,0000*68
$GPVTG,0.00,T,,M,0.00,N,0.00,K,D*38
$GPGGA,002210.250,4739.3111,N,12219.2961,W,2,09,1.09,33.3,M,-17.3,M,0000,0000*6F
$GPVTG,10.55,T,,M,0.00,N,0.00,K,D*09
$GPGGA,002210.500,4739.3111,N,12219.2961,W,2,09,1.09,33.3,M,-17.3,M,0000,0000*6D
$GPRMC,002210.500,A,4739.3111,N,12219.2961,W,0.00,239.41,160822,,,D*71
$GPVTG,239.41,T,,M,0.00,N,0.01,K,D*34
$GPGGA,002210.750,4739.3111,N,12219.2961,W,2,09,1.09,33.3,M,-17.3,M,0000,0000*6A
$GPVTG,151.81,T,,M,0.01,N,0.02,K,D*37
$GPGGA,002211.000,4739.3111,N,12219.2961,W,2,09,1.09,33.3,M,-17.3,M,0000,0000*69
$GPVTG,341.69,T,,M,0.01,N,0.02,K,D*32
