$GPGGA,202001.750,4651.3300,N,12414.5202,W,2,11,0.75,-5.3,M,-19.2,M,0000,0000*71
$GPRMC,202001.750,A,4651.3300,N,12414.5202,W,0.36,120.43,120721,,,D*7D
$GPVTG,120.43,T,,M,0.36,N,0.67,K,D*38
$GPGGA,202002.000,4651.3298,N,12414.5201,W,2,11,0.75,-5.3,M,-19.2,M,0000,0000*73
$GPVTG,138.08,T,,M,0.80,N,1.48,K,D*3F
$GPGGA,202002.250,4651.3298,N,12414.5200,W,2,11,0.75,-5.3,M,-19.2,M,0000,0000*75
$GPVTG,134.14,T,,M,0.84,N,1.56,K,D*35
$GPGGA,202002.500,4651.3298,N,12414.5198,W,2,11,0.75,-5.3,M,-19.2,M,0000,0000*75
$GPVTG,124.09,T,,M,0.94,N,1.75,K,D*38
$GPGGA,202002.750,4651.3298,N,12414.5197,W,2,11,0.75,-5.3,M,-19.2,M,0000,0000*7D
$GPRMC,202002.750,A,4651.3298,N,12414.5197,W,1.07,121.80,120721,,,D*7C
$GPVTG,121.80,T,,M,1.07,N,1.99,K,D*35
$GPGGA,202003.000,4651.3297,N,12414.5196,W,2,11,0.75,-5.3,M,-19.2,M,0000,0000*70
$GPVTG,121.22,T,,M,1.17,N,2.17,K,D*39
$GPGGA,202003.250,4651.3297,N,12414.5194,W,2,11,0.75,-5.3,M,-19.2,M,0000,0000*75
$GPVTG,119.67,T,,M,1.24,N,2.31,K,D*37
$GPGGA,202003.500,4651.3296,N,12414.5193,W,2,11,0.75,-5.3,M,-19.2,M,0000,0000*71
$GPVTG,120.10,T,,M,1.16,N,2.16,K,D*39
$GPGGA,202003.750,4651.3296,N,12414.5193,W,2,11,0.75,-5.4,M,-19.2,M,0000,0000*71
$GPRMC,202003.750,A,4651.3296,N,12414.5193,W,0.99,124.58,120721,,,D*71
$GPVTG,124.58,T,,M,0.99,N,1.84,K,D*3F
$GPGGA,202004.000,4651.3296,N,12414.5192,W,2,11,0.75,-5.4,M,-19.2,M,0000,0000*75
$GPVTG,128.87,T,,M,0.79,N,1.46,K,D*31
$GPGGA,202004.250,4651.3296,N,12414.5192,W,2,11,0.75,-5.4,M,-19.2,M,0000,0000*72
$GPVTG,125.29,T,,M,0.63,N,1.16,K,D*36
$GPGGA,202004.500,4651.3296,N,12414.5191,W,2,11,0.75,-5.3,M,-19.2,M,0000,0000*74
$GPVTG,122.01,T,,M,0.61,N,1.12,K,D*3D
$GPGGA,202004.750,4651.3296,N,12414.5191,W,2,11,0.75,-5.3,M,-19.2,M,0000,0000*73
$GPRMC,202004.750,A,4651.3296,N,12414.5191,W,0.56,122.71,120721,,,D*7A
$GPVTG,122.71,T,,M,0.56,N,1.04,K,D*39
$GPGGA,202005.000,4651.3296,N,12414.5191,W,2,11,0.75,-5.3,M,-19.2,M,0000,0000*70
$GPVTG,128.27,T,,M,0.48,N,0.89,K,D*3B
$GPGGA,202005.250,4651.3295,N,12414.5190,W,2,11,0.75,-5.3,M,-19.2,M,0000,0000*75
$GPVTG,128.21,T,,M,0.53,N,0.98,K,D*37
$GPGGA,202005.500,4651.3295,N,12414.5190,W,2,11,0.75,-5.3,M,-19.2,M,0000,0000*77
$GPVTG,128.36,T,,M,0.53,N,0.98,K,D*31
$GPGGA,202005.750,4651.3295,N,12414.5189,W,2,11,0.75,-5.3,M,-19.2,M,0000,0000*78
$GPRMC,202005.750,A,4651.3295,N,12414.5189,W,0.56,131.96,120721,,,D*7A
$GPVTG,131.96,T,,M,0.56,N,1.05,K,D*33
$GPGGA,202006.000,4651.3294,N,12414.5188,W,2,11,0.75,-5.3,M,-19.2,M,0000,0000*79
$GPVTG,131.01,T,,M,0.71,N,1.32,K,D*3C
$GPGGA,202006.250,4651.3293,N,12414.5185,W,2,11,0.75,-5.3,M,-19.2,M,0000,0000*74
$GPVTG,124.59,T,,M,1.15,N,2.13,K,D*36
$GPGGA,202006.500,4651.3292,N,12414.5183,W,2,11,0.75,-5.3,M,-19.2,M,0000,0000*71
$GPVTG,122.77,T,,M,1.35,N,2.51,K,D*38
$GPGGA,202006.750,4651.3292,N,12414.5181,W,2,11,0.75,-5.3,M,-19.2,M,0000,0000*74
$GPRMC,202006.750,A,4651.3292,N,12414.5181,W,1.84,111.61,120721,,,D*72
$GPVTG,111.61,T,,M,1.84,N,3.41,K,D*35
$GPGGA,202007.000,4651.3291,N,12414.5180,W,2,11,0.75,-5.3,M,-19.2,M,0000,0000*75
$GPVTG,101.05,T,,M,1.34,N,2.49,K,D*34
$GPGGA,202007.250,4651.3291,N,12414.5179,W,2,11,0.75,-5.3,M,-19.2,M,0000,0000*74
$GPVTG,96.76,T,,M,1.02,N,1.88,K,D*04
$GPGGA,202007.500,4651.3291,N,12414.5179,W,2,11,0.75,-5.3,M,-19.2,M,0000,0000*76
$GPVTG,95.08,T,,M,0.88,N,1.63,K,D*08
$GPGGA,202007.750,4651.3291,N,12414.5178,W,2,11,0.75,-5.3,M,-19.2,M,0000,0000*70
$GPRMC,202007.750,A,4651.3291,N,12414.5178,W,0.75,95.76,120721,,,D*42
$GPVTG,95.76,T,,M,0.75,N,1.40,K,D*02
$GPGGA,202008.000,4651.3291,N,12414.5178,W,2,11,0.75,-5.4,M,-19.2,M,0000,0000*7A
$GPVTG,100.99,T,,M,0.64,N,1.18,K,D*33
$GPGGA,202008.250,4651.3290,N,12414.5178,W,2,11,0.75,-5.4,M,-19.2,M,0000,0000*7C
$GPVTG,123.09,T,,M,0.54,N,1.00,K,D*31
$GPGGA,202008.500,4651.3289,N,12414.5178,W,2,11,0.75,-5.4,M,-19.2,M,0000,0000*76
$GPVTG,141.36,T,,M,0.53,N,0.98,K,D*3E
$GPGGA,202008.750,4651.3289,N,12414.5179,W,2,11,0.75,-5.4,M,-19.2,M,0000,0000*70
$GPRMC,202008.750,A,4651.3289,N,12414.5179,W,0.50,163.30,120721,,,D*78
$GPVTG,163.30,T,,M,0.50,N,0.92,K,D*31
$GPGGA,202009.000,4651.3289,N,12414.5179,W,2,11,0.75,-5.4,M,-19.2,M,0000,0000*73
$GPVTG,169.11,T,,M,0.42,N,0.77,K,D*30
$GPGGA,202009.250,4651.3288,N,12414.5179,W,2,11,0.75,-5.4,M,-19.2,M,0000,0000*75
$GPVTG,167.68,T,,M,0.42,N,0.77,K,D*30
$GPGGA,202009.500,4651.3288,N,12414.5178,W,2,11,0.75,-5.4,M,-19.2,M,0000,0000*76
$GPVTG,159.89,T,,M,0.42,N,0.78,K,D*3D
$GPGGA,202009.750,4651.3288,N,12414.5178,W,2,11,0.75,-5.3,M,-19.2,M,0000,0000*76
$GPRMC,202009.750,A,4651.3288,N,12414.5178,W,0.44,149.00,120721,,,D*77
$GPVTG,149.00,T,,M,0.44,N,0.82,K,D*3E
$GPGGA,202010.000,4651.3288,N,12414.5177,W,2,11,0.75,-5.3,M,-19.2,M,0000,0000*73
$GPVTG,136.39,T,,M,0.49,N,0.90,K,D*32
$GPGGA,202010.250,4651.3287,N,12414.5175,W,2,11,0.75,-5.3,M,-19.2,M,0000,0000*79
$GPVTG,129.44,T,,M,0.66,N,1.22,K,D*33
$GPGGA,202010.500,4651.3287,N,12414.5174,W,2,11,0.75,-5.3,M,-19.2,M,0000,0000*7A
$GPVTG,124.35,T,,M,0.72,N,1.34,K,D*3A
$GPGGA,202010.750,4651.3287,N,12414.5173,W,2,11,0.75,-5.3,M,-19.2,M,0000,0000*7A
$GPRMC,202010.750,A,4651.3287,N,12414.5173,W,0.77,116.97,120721,,,D*7F
$GPVTG,116.97,T,,M,0.77,N,1.42,K,D*37
$GPGGA,202011.000,4651.3287,N,12414.5172,W,2,11,0.75,-5.3,M,-19.2,M,0000,0000*78
$GPVTG,111.73,T,,M,0.81,N,1.50,K,D*30
$GPGGA,202011.250,4651.3287,N,12414.5171,W,2,11,0.75,-5.3,M,-19.2,M,0000,0000*7C
$GPVTG,108.95,T,,M,0.82,N,1.53,K,D*30
$GPGGA,202011.500,4651.3287,N,12414.5170,W,2,11,0.75,-5.3,M,-19.2,M,0000,0000*7F
$GPVTG,111.42,T,,M,0.79,N,1.46,K,D*32
$GPGGA,202011.750,4651.3286,N,12414.5170,W,2,11,0.75,-5.3,M,-19.2,M,0000,0000*79
$GPRMC,202011.750,A,4651.3286,N,12414.5170,W,0.70,116.20,120721,,,D*77
$GPVTG,116.20,T,,M,0.70,N,1.29,K,D*31
$GPGGA,202012.000,4651.3286,N,12414.5170,W,2,11,0.75,-5.3,M,-19.2,M,0000,0000*78
$GPVTG,117.60,T,,M,0.66,N,1.22,K,D*38
$GPGGA,202012.250,4651.3286,N,12414.5170,W,2,11,0.75,-5.3,M,-19.2,M,0000,0000*7F
$GPVTG,107.76,T,,M,0.56,N,1.03,K,D*3E
$GPGGA,202012.500,4651.3286,N,12414.5169,W,2,11,0.75,-5.3,M,-19.2,M,0000,0000*75
$GPVTG,101.15,T,,M,0.57,N,1.06,K,D*39
$GPGGA,202012.750,4651.3286,N,12414.5168,W,2,11,0.75,-5.3,M,-19.2,M,0000,0000*73
$GPRMC,202012.750,A,4651.3286,N,12414.5168,W,0.72,104.73,120721,,,D*7A
$GPVTG,104.73,T,,M,0.72,N,1.33,K,D*3D
$GPGGA,202013.000,4651.3286,N,12414.5166,W,2,11,0.75,-5.3,M,-19.2,M,0000,0000*7E
$GPVTG,110.91,T,,M,0.90,N,1.67,K,D*39
$GPGGA,202013.250,4651.3285,N,12414.5165,W,2,11,0.75,-5.3,M,-19.2,M,0000,0000*79
$GPVTG,116.11,T,,M,1.04,N,1.92,K,D*31
$GPGGA,202013.500,4651.3284,N,12414.5164,W,2,11,0.75,-5.3,M,-19.2,M,0000,0000*7B
$GPVTG,117.17,T,,M,1.04,N,1.93,K,D*37
$GPGGA,202013.750,4651.3284,N,12414.5164,W,2,11,0.75,-5.3,M,-19.2,M,0000,0000*7C
$GPRMC,202013.750,A,4651.3284,N,12414.5164,W,0.93,114.68,120721,,,D*71
$GPVTG,114.68,T,,M,0.93,N,1.73,K,D*3D
$GPGGA,202014.000,4651.3284,N,12414.5164,W,2,11,0.75,-5.4,M,-19.2,M,0000,0000*7E
$GPVTG,112.51,T,,M,0.75,N,1.39,K,D*37
$GPGGA,202014.250,4651.3284,N,12414.5164,W,2,11,0.75,-5.4,M,-19.2,M,0000,0000*79
$GPVTG,111.94,T,,M,0.59,N,1.09,K,D*30
$GPGGA,202014.500,4651.3284,N,12414.5164,W,2,11,0.75,-5.4,M,-19.2,M,0000,0000*7B
$GPVTG,112.13,T,,M,0.49,N,0.90,K,D*3C
$GPGGA,202014.750,4651.3284,N,12414.5163,W,2,11,0.75,-5.3,M,-19.2,M,0000,0000*7C
$GPRMC,202014.750,A,4651.3284,N,12414.5163,W,0.47,113.40,120721,,,D*75
$GPVTG,113.40,T,,M,0.47,N,0.88,K,D*3C
$GPGGA,202015.000,4651.3284,N,12414.5163,W,2,11,0.75,-5.3,M,-19.2,M,0000,0000*7F
$GPVTG,116.40,T,,M,0.55,N,1.02,K,D*39
$GPGGA,202015.250,4651.3283,N,12414.5162,W,2,11,0.75,-5.4,M,-19.2,M,0000,0000*79
$GPVTG,121.87,T,,M,0.63,N,1.16,K,D*36
$GPGGA,202015.500,4651.3281,N,12414.5159,W,2,11,0.75,-5.3,M,-19.2,M,0000,0000*76
$GPVTG,125.16,T,,M,1.29,N,2.39,K,D*3B
$GPGGA,202015.750,4651.3280,N,12414.5158,W,2,11,0.75,-5.3,M,-19.2,M,0000,0000*71
$GPRMC,202015.750,A,4651.3280,N,12414.5158,W,1.88,133.76,120721,,,D*7D
$GPVTG,133.76,T,,M,1.88,N,3.48,K,D*36
$GPGGA,202016.000,4651.3279,N,12414.5157,W,2,11,0.75,-5.3,M,-19.2,M,0000,0000*79
$GPVTG,146.02,T,,M,1.54,N,2.86,K,D*35
$GPGGA,202016.250,4651.3279,N,12414.5157,W,2,11,0.75,-5.4,M,-19.2,M,0000,0000*79
$GPVTG,145.17,T,,M,1.01,N,1.87,K,D*30
$GPGGA,202016.500,4651.3279,N,12414.5157,W,2,11,0.75,-5.4,M,-19.2,M,0000,0000*7B
$GPVTG,162.32,T,,M,0.50,N,0.92,K,D*32
$GPGGA,202016.750,4651.3278,N,12414.5157,W,2,11,0.75,-5.4,M,-19.2,M,0000,0000*7D
$GPRMC,202016.750,A,4651.3278,N,12414.5157,W,0.47,181.23,120721,,,D*7D
$GPVTG,181.23,T,,M,0.47,N,0.86,K,D*3C
$GPGGA,202017.000,4651.3278,N,12414.5157,W,2,11,0.75,-5.4,M,-19.2,M,0000,0000*7E
$GPVTG,161.34,T,,M,0.52,N,0.97,K,D*30
$GPGGA,202017.250,4651.3278,N,12414.5156,W,2,11,0.75,-5.4,M,-19.2,M,0000,0000*78
$GPVTG,137.91,T,,M,0.74,N,1.38,K,D*3C
$GPGGA,202017.500,4651.3277,N,12414.5155,W,2,11,0.75,-5.3,M,-19.2,M,0000,0000*71
$GPVTG,123.04,T,,M,0.98,N,1.82,K,D*36
$GPGGA,202017.750,4651.3277,N,12414.5154,W,2,11,0.75,-5.3,M,-19.2,M,0000,0000*77
$GPRMC,202017.750,A,4651.3277,N,12414.5154,W,1.51,104.54,120721,,,D*7B
$GPVTG,104.54,T,,M,1.51,N,2.79,K,D*35
$GPGGA,202018.000,4651.3277,N,12414.5152,W,2,11,0.75,-5.3,M,-19.2,M,0000,0000*7C
$GPVTG,87.27,T,,M,1.72,N,3.19,K,D*0D
$GPGGA,202018.250,4651.3277,N,12414.5151,W,2,11,0.75,-5.3,M,-19.2,M,0000,0000*78
$GPVTG,84.20,T,,M,1.78,N,3.29,K,D*00
$GPGGA,202018.500,4651.3277,N,12414.5149,W,2,11,0.75,-5.4,M,-19.2,M,0000,0000*74
$GPVTG,79.97,T,,M,2.06,N,3.81,K,D*06
$GPGGA,202018.750,4651.3278,N,12414.5147,W,2,11,0.75,-5.4,M,-19.2,M,0000,0000*72
$GPRMC,202018.750,A,4651.3278,N,12414.5147,W,1.84,76.44,120721,,,D*44
$GPVTG,76.44,T,,M,1.84,N,3.42,K,D*01
$GPGGA,202019.000,4651.3278,N,12414.5146,W,2,11,0.75,-5.4,M,-19.2,M,0000,0000*70
$GPVTG,68.90,T,,M,1.12,N,2.08,K,D*07
$GPGGA,202019.250,4651.3278,N,12414.5145,W,2,11,0.75,-5.4,M,-19.2,M,0000,0000*74
$GPVTG,66.83,T,,M,0.74,N,1.36,K,D*04
$GPGGA,202019.500,4651.3278,N,12414.5145,W,2,11,0.75,-5.4,M,-19.2,M,0000,0000*76
$GPVTG,75.38,T,,M,0.36,N,0.66,K,D*04
$GPGGA,202019.750,4651.3279,N,12414.5145,W,2,11,0.75,-5.4,M,-19.2,M,0000,0000*70
$GPRMC,202019.750,A,4651.3279,N,12414.5145,W,0.44,4.90,120721,,,D*77
$GPVTG,4.90,T,,M,0.44,N,0.81,K,D*3C
$GPGGA,202020.000,4651.3279,N,12414.5145,W,2,11,0.76,-5.5,M,-19.2,M,0000,0000*7A
$GPVTG,337.33,T,,M,0.35,N,0.66,K,D*39
$GPGGA,202020.250,4651.3279,N,12414.5145,W,2,11,0.75,-5.5,M,-19.2,M,0000,0000*7E
$GPVTG,299.95,T,,M,0.30,N,0.56,K,D*36
$GPGGA,202020.500,4651.3278,N,12414.5146,W,2,11,0.75,-5.5,M,-19.2,M,0000,0000*7E
$GPVTG,250.51,T,,M,0.35,N,0.65,K,D*3E
$GPGGA,202020.750,4651.3278,N,12414.5147,W,2,11,0.75,-5.5,M,-19.2,M,0000,0000*78
$GPRMC,202020.750,A,4651.3278,N,12414.5147,W,0.55,242.56,120721,,,D*74
$GPVTG,242.56,T,,M,0.55,N,1.03,K,D*3D
$GPGGA,202021.000,4651.3278,N,12414.5147,W,2,11,0.75,-5.5,M,-19.2,M,0000,0000*7B
$GPVTG,235.31,T,,M,0.57,N,1.05,K,D*38
$GPGGA,202021.250,4651.3278,N,12414.5148,W,2,11,0.75,-5.5,M,-19.2,M,0000,0000*73
$GPVTG,234.65,T,,M,0.57,N,1.07,K,D*3A
$GPGGA,202021.500,4651.3277,N,12414.5148,W,2,11,0.75,-5.5,M,-19.2,M,0000,0000*7E
$GPVTG,233.85,T,,M,0.56,N,1.03,K,D*36
$GPGGA,202021.750,4651.3277,N,12414.5148,W,2,11,0.75,-5.5,M,-19.2,M,0000,0000*79
$GPRMC,202021.750,A,4651.3277,N,12414.5148,W,0.52,229.91,120721,,,D*74
$GPVTG,229.91,T,,M,0.52,N,0.96,K,D*31
$GPGGA,202022.000,4651.3277,N,12414.5149,W,2,11,0.75,-5.5,M,-19.2,M,0000,0000*79
$GPVTG,221.78,T,,M,0.46,N,0.86,K,D*3A
$GPGGA,202022.250,4651.3277,N,12414.5149,W,2,11,0.75,-5.4,M,-19.2,M,0000,0000*7F
$GPVTG,207.95,T,,M,0.41,N,0.75,K,D*36
$GPGGA,202022.500,4651.3276,N,12414.5149,W,2,11,0.75,-5.4,M,-19.2,M,0000,0000*7C
$GPVTG,199.19,T,,M,0.41,N,0.75,K,D*36
$GPGGA,202022.750,4651.3276,N,12414.5149,W,2,11,0.75,-5.4,M,-19.2,M,0000,0000*7B
$GPRMC,202022.750,A,4651.3276,N,12414.5149,W,0.47,192.68,120721,,,D*76
$GPVTG,192.68,T,,M,0.47,N,0.86,K,D*31
$GPGGA,202023.000,4651.3276,N,12414.5149,W,2,11,0.75,-5.4,M,-19.2,M,0000,0000*78
$GPVTG,187.95,T,,M,0.56,N,1.03,K,D*3B
$GPGGA,202023.250,4651.3275,N,12414.5149,W,2,11,0.75,-5.4,M,-19.2,M,0000,0000*7C
$GPVTG,180.26,T,,M,0.67,N,1.25,K,D*32
$GPGGA,202023.500,4651.3274,N,12414.5148,W,2,11,0.75,-5.4,M,-19.2,M,0000,0000*7E
$GPVTG,168.66,T,,M,0.77,N,1.43,K,D*31
$GPGGA,202023.750,4651.3273,N,12414.5147,W,2,11,0.75,-5.4,M,-19.2,M,0000,0000*71
$GPRMC,202023.750,A,4651.3273,N,12414.5147,W,1.01,152.09,120721,,,D*74
$GPVTG,152.09,T,,M,1.01,N,1.87,K,D*39
$GPGGA,202024.000,4651.3272,N,12414.5145,W,2,11,0.75,-5.4,M,-19.2,M,0000,0000*77
$GPVTG,143.82,T,,M,1.15,N,2.13,K,D*31
$GPGGA,202024.250,4651.3272,N,12414.5143,W,2,11,0.75,-5.4,M,-19.2,M,0000,0000*76
$GPVTG,135.89,T,,M,1.33,N,2.46,K,D*3F
$GPGGA,202024.500,4651.3271,N,12414.5142,W,2,11,0.75,-5.4,M,-19.2,M,0000,0000*76
$GPVTG,129.33,T,,M,1.43,N,2.65,K,D*35
$GPGGA,202024.750,4651.3270,N,12414.5141,W,2,11,0.75,-5.4,M,-19.2,M,0000,0000*73
$GPRMC,202024.750,A,4651.3270,N,12414.5141,W,1.48,134.22,120721,,,D*72
$GPVTG,134.22,T,,M,1.48,N,2.74,K,D*32
$GPGGA,202025.000,4651.3269,N,12414.5140,W,2,11,0.75,-5.4,M,-19.2,M,0000,0000*79
$GPVTG,134.44,T,,M,1.44,N,2.66,K,D*3D
$GPGGA,202025.250,4651.3269,N,12414.5139,W,2,11,0.75,-5.4,M,-19.2,M,0000,0000*70
$GPVTG,128.26,T,,M,1.40,N,2.59,K,D*3C
$GPGGA,202025.500,4651.3269,N,12414.5138,W,2,11,0.75,-5.4,M,-19.2,M,0000,0000*73
$GPVTG,123.60,T,,M,1.33,N,2.47,K,D*3E
$GPGGA,202025.750,4651.3269,N,12414.5137,W,2,11,0.75,-5.4,M,-19.2,M,0000,0000*7B
$GPRMC,202025.750,A,4651.3269,N,12414.5137,W,1.20,119.20,120721,,,D*79
$GPVTG,119.20,T,,M,1.20,N,2.22,K,D*32
$GPGGA,202026.000,4651.3269,N,12414.5136,W,2,11,0.75,-5.4,M,-19.2,M,0000,0000*7B
$GPVTG,114.30,T,,M,1.10,N,2.04,K,D*39
$GPGGA,202026.250,4651.3269,N,12414.5135,W,2,11,0.75,-5.4,M,-19.2,M,0000,0000*7F
$GPVTG,113.93,T,,M,1.03,N,1.92,K,D*39
$GPGGA,202026.500,4651.3268,N,12414.5134,W,2,11,0.75,-5.4,M,-19.2,M,0000,0000*7D
$GPVTG,114.14,T,,M,0.97,N,1.80,K,D*3E
$GPGGA,202026.750,4651.3268,N,12414.5133,W,2,11,0.75,-5.5,M,-19.2,M,0000,0000*7C
$GPRMC,202026.750,A,4651.3268,N,12414.5133,W,0.92,111.74,120721,,,D*7E
$GPVTG,111.74,T,,M,0.92,N,1.71,K,D*36
$GPGGA,202027.000,4651.3268,N,12414.5133,W,2,11,0.75,-5.5,M,-19.2,M,0000,0000*7F
$GPVTG,109.55,T,,M,0.87,N,1.61,K,D*39
$GPGGA,202027.250,4651.3268,N,12414.5133,W,2,11,0.75,-5.5,M,-19.2,M,0000,0000*78
$GPVTG,106.57,T,,M,0.71,N,1.31,K,D*38
$GPGGA,202027.500,4651.3268,N,12414.5132,W,2,11,0.75,-5.5,M,-19.2,M,0000,0000*7B
$GPVTG,103.88,T,,M,0.58,N,1.08,K,D*3E
$GPGGA,202027.750,4651.3268,N,12414.5133,W,2,11,0.75,-5.5,M,-19.2,M,0000,0000*7D
$GPRMC,202027.750,A,4651.3268,N,12414.5133,W,0.48,108.91,120721,,,D*7B
$GPVTG,108.91,T,,M,0.48,N,0.88,K,D*35
$GPGGA,202028.000,4651.3267,N,12414.5132,W,2,11,0.75,-5.5,M,-19.2,M,0000,0000*7E
$GPVTG,118.11,T,,M,0.47,N,0.87,K,D*3C
$GPGGA,202028.250,4651.3267,N,12414.5132,W,2,11,0.75,-5.5,M,-19.2,M,0000,0000*79
$GPVTG,123.87,T,,M,0.48,N,0.89,K,D*3A
$GPGGA,202028.500,4651.3267,N,12414.5132,W,2,11,0.75,-5.5,M,-19.2,M,0000,0000*7B
$GPVTG,128.47,T,,M,0.47,N,0.87,K,D*3C
$GPGGA,202028.750,4651.3266,N,12414.5131,W,2,11,0.75,-5.5,M,-19.2,M,0000,0000*7E
$GPRMC,202028.750,A,4651.3266,N,12414.5131,W,0.45,127.46,120721,,,D*72
$GPVTG,127.46,T,,M,0.45,N,0.84,K,D*33
$GPGGA,202029.000,4651.3267,N,12414.5131,W,2,11,0.75,-5.5,M,-19.2,M,0000,0000*7C
$GPVTG,112.77,T,,M,0.38,N,0.71,K,D*37
$GPGGA,202029.250,4651.3267,N,12414.5130,W,2,11,0.75,-5.5,M,-19.2,M,0000,0000*7A
$GPVTG,101.95,T,,M,0.38,N,0.70,K,D*38
$GPGGA,202029.500,4651.3267,N,12414.5129,W,2,11,0.75,-5.5,M,-19.2,M,0000,0000*70
$GPVTG,101.67,T,,M,0.50,N,0.92,K,D*37
$GPGGA,202029.750,4651.3266,N,12414.5128,W,2,11,0.75,-5.5,M,-19.2,M,0000,0000*77
$GPRMC,202029.750,A,4651.3266,N,12414.5128,W,0.68,119.51,120721,,,D*7F
$GPVTG,119.51,T,,M,0.68,N,1.25,K,D*3D
$GPGGA,202030.000,4651.3265,N,12414.5128,W,2,11,0.75,-5.5,M,-19.2,M,0000,0000*7E
$GPVTG,132.03,T,,M,0.79,N,1.46,K,D*36
$GPGGA,202030.250,4651.3264,N,12414.5128,W,2,11,0.75,-5.5,M,-19.2,M,0000,0000*78
$GPVTG,142.22,T,,M,0.81,N,1.50,K,D*32
$GPGGA,202030.500,4651.3263,N,12414.5128,W,2,11,0.75,-5.5,M,-19.2,M,0000,0000*7D
$GPVTG,146.33,T,,M,0.78,N,1.44,K,D*35
$GPGGA,202030.750,4651.3263,N,12414.5128,W,2,11,0.75,-5.5,M,-19.2,M,0000,0000*7A
$GPRMC,202030.750,A,4651.3263,N,12414.5128,W,0.74,147.32,120721,,,D*71
$GPVTG,147.32,T,,M,0.74,N,1.38,K,D*32
$GPGGA,202031.000,4651.3263,N,12414.5127,W,2,11,0.75,-5.5,M,-19.2,M,0000,0000*76
$GPVTG,141.90,T,,M,0.75,N,1.38,K,D*3D
$GPGGA,202031.250,4651.3263,N,12414.5126,W,2,11,0.75,-5.5,M,-19.2,M,0000,0000*70
$GPVTG,131.03,T,,M,0.70,N,1.29,K,D*35
$GPGGA,202031.500,4651.3263,N,12414.5126,W,2,11,0.75,-5.5,M,-19.2,M,0000,0000*72
$GPVTG,123.86,T,,M,0.68,N,1.26,K,D*3D
$GPGGA,202031.750,4651.3263,N,12414.5125,W,2,11,0.75,-5.5,M,-19.2,M,0000,0000*76
$GPRMC,202031.750,A,4651.3263,N,12414.5125,W,0.67,118.13,120721,,,D*76
$GPVTG,118.13,T,,M,0.67,N,1.24,K,D*34
$GPGGA,202032.000,4651.3263,N,12414.5124,W,2,11,0.75,-5.5,M,-19.2,M,0000,0000*76
$GPVTG,108.80,T,,M,0.69,N,1.28,K,D*3D
$GPGGA,202032.250,4651.3263,N,12414.5123,W,2,11,0.75,-5.5,M,-19.2,M,0000,0000*76
$GPVTG,110.81,T,,M,0.75,N,1.39,K,D*38
$GPGGA,202032.500,4651.3262,N,12414.5122,W,2,11,0.75,-5.5,M,-19.2,M,0000,0000*74
$GPVTG,111.79,T,,M,0.81,N,1.50,K,D*3A
$GPGGA,202032.750,4651.3262,N,12414.5121,W,2,11,0.75,-5.5,M,-19.2,M,0000,0000*70
$GPRMC,202032.750,A,4651.3262,N,12414.5121,W,0.90,115.90,120721,,,D*7E
$GPVTG,115.90,T,,M,0.90,N,1.66,K,D*3C
$GPGGA,202033.000,4651.3261,N,12414.5120,W,2,11,0.75,-5.4,M,-19.2,M,0000,0000*70
$GPVTG,120.45,T,,M,0.94,N,1.75,K,D*34
$GPGGA,202033.250,4651.3260,N,12414.5119,W,2,11,0.75,-5.4,M,-19.2,M,0000,0000*7C
$GPVTG,133.75,T,,M,1.16,N,2.14,K,D*3A
$GPGGA,202033.500,4651.3259,N,12414.5117,W,2,11,0.75,-5.4,M,-19.2,M,0000,0000*7A
$GPVTG,110.30,T,,M,1.41,N,2.61,K,D*3A
$GPGGA,202033.750,4651.3258,N,12414.5116,W,2,11,0.75,-5.4,M,-19.2,M,0000,0000*7D
$GPRMC,202033.750,A,4651.3258,N,12414.5116,W,1.48,109.38,120721,,,D*79
$GPVTG,109.38,T,,M,1.48,N,2.75,K,D*36
$GPGGA,202034.000,4651.3258,N,12414.5115,W,2,11,0.75,-5.4,M,-19.2,M,0000,0000*7B
$GPVTG,109.19,T,,M,1.36,N,2.53,K,D*38
$GPGGA,202034.250,4651.3258,N,12414.5113,W,2,11,0.75,-5.4,M,-19.2,M,0000,0000*7A
$GPVTG,105.97,T,,M,1.29,N,2.39,K,D*30
$GPGGA,202034.500,4651.3258,N,12414.5113,W,2,11,0.75,-5.4,M,-19.2,M,0000,0000*78
$GPVTG,95.81,T,,M,1.11,N,2.06,K,D*08
$GPGGA,202034.750,4651.3259,N,12414.5112,W,2,11,0.75,-5.4,M,-19.2,M,0000,0000*7F
$GPRMC,202034.750,A,4651.3259,N,12414.5112,W,1.02,84.08,120721,,,D*42
$GPVTG,84.08,T,,M,1.02,N,1.89,K,D*0F
$GPGGA,202035.000,4651.3259,N,12414.5110,W,2,11,0.75,-5.4,M,-19.2,M,0000,0000*7E
$GPVTG,114.91,T,,M,0.87,N,1.61,K,D*3D
$GPGGA,202035.250,4651.3258,N,12414.5110,W,2,11,0.75,-5.5,M,-19.2,M,0000,0000*79
$GPVTG,122.95,T,,M,0.89,N,1.66,K,D*35
$GPGGA,202035.500,4651.3258,N,12414.5109,W,2,11,0.75,-5.6,M,-19.2,M,0000,0000*70
$GPVTG,138.46,T,,M,0.97,N,1.79,K,D*31
$GPGGA,202035.750,4651.3258,N,12414.5108,W,2,11,0.75,-5.7,M,-19.2,M,0000,0000*77
$GPRMC,202035.750,A,4651.3258,N,12414.5108,W,0.98,129.28,120721,,,D*7F
$GPVTG,129.28,T,,M,0.98,N,1.81,K,D*31
$GPGGA,202036.000,4651.3257,N,12414.5107,W,2,11,0.75,-5.8,M,-19.2,M,0000,0000*79
$GPVTG,154.85,T,,M,0.73,N,1.36,K,D*35
$GPGGA,202036.250,4651.3257,N,12414.5107,W,2,11,0.75,-5.9,M,-19.2,M,0000,0000*7F
$GPVTG,236.98,T,,M,0.85,N,1.58,K,D*3F
$GPGGA,202036.500,4651.3257,N,12414.5108,W,2,11,0.75,-6.0,M,-19.2,M,0000,0000*78
$GPVTG,253.44,T,,M,1.29,N,2.40,K,D*30
$GPGGA,202036.750,4651.3256,N,12414.5109,W,2,11,0.75,-6.0,M,-19.2,M,0000,0000*7F
$GPRMC,202036.750,A,4651.3256,N,12414.5109,W,1.42,239.55,120721,,,D*7D
$GPVTG,239.55,T,,M,1.42,N,2.63,K,D*30
$GPGGA,202037.000,4651.3256,N,12414.5110,W,2,11,0.75,-6.0,M,-19.2,M,0000,0000*74
$GPVTG,208.19,T,,M,1.36,N,2.52,K,D*3B
$GPGGA,202037.250,4651.3255,N,12414.5111,W,2,11,0.75,-6.1,M,-19.2,M,0000,0000*70
$GPVTG,194.58,T,,M,1.66,N,3.07,K,D*3C
$GPGGA,202037.500,4651.3254,N,12414.5111,W,2,11,0.75,-6.1,M,-19.2,M,0000,0000*73
$GPVTG,194.05,T,,M,1.38,N,2.56,K,D*3A
$GPGGA,202037.750,4651.3253,N,12414.5111,W,2,11,0.75,-6.1,M,-19.2,M,0000,0000*73
$GPRMC,202037.750,A,4651.3253,N,12414.5111,W,0.80,175.31,120721,,,D*76
$GPVTG,175.31,T,,M,0.80,N,1.48,K,D*3C
$GPGGA,202038.000,4651.3253,N,12414.5111,W,2,11,0.75,-6.2,M,-19.2,M,0000,0000*7D
$GPVTG,154.87,T,,M,0.64,N,1.19,K,D*3C
$GPGGA,202038.250,4651.3252,N,12414.5111,W,2,11,0.75,-6.2,M,-19.2,M,0000,0000*7B
$GPVTG,154.14,T,,M,0.60,N,1.12,K,D*39
$GPGGA,202038.500,4651.3252,N,12414.5110,W,2,11,0.75,-6.2,M,-19.2,M,0000,0000*78
$GPVTG,156.37,T,,M,0.54,N,1.00,K,D*3E
$GPGGA,202038.750,4651.3252,N,12414.5110,W,2,11,0.75,-6.2,M,-19.2,M,0000,0000*7F
$GPRMC,202038.750,A,4651.3252,N,12414.5110,W,0.41,157.44,120721,,,D*76
$GPVTG,157.44,T,,M,0.41,N,0.76,K,D*3F
$GPGGA,202039.000,4651.3252,N,12414.5110,W,2,11,0.75,-6.2,M,-19.2,M,0000,0000*7C
$GPVTG,159.17,T,,M,0.26,N,0.48,K,D*3B
$GPGGA,202039.250,4651.3252,N,12414.5110,W,2,11,0.75,-6.1,M,-19.2,M,0000,0000*78
$GPVTG,150.31,T,,M,0.12,N,0.22,K,D*3D
$GPGGA,202039.500,4651.3252,N,12414.5110,W,2,11,0.75,-6.1,M,-19.2,M,0000,0000*7A
$GPVTG,136.28,T,,M,0.10,N,0.18,K,D*3E
$GPGGA,202039.750,4651.3252,N,12414.5110,W,2,11,0.75,-6.1,M,-19.2,M,0000,0000*7D
$GPRMC,202039.750,A,4651.3252,N,12414.5110,W,0.16,114.74,120721,,,D*71
$GPVTG,114.74,T,,M,0.16,N,0.29,K,D*33
$GPGGA,202040.000,4651.3252,N,12414.5109,W,2,11,0.75,-6.1,M,-19.2,M,0000,0000*79
$GPVTG,102.10,T,,M,0.39,N,0.72,K,D*35
$GPGGA,202040.250,4651.3252,N,12414.5107,W,2,11,0.75,-6.1,M,-19.2,M,0000,0000*70
$GPVTG,102.14,T,,M,0.66,N,1.23,K,D*3E
$GPGGA,202040.500,4651.3252,N,12414.5106,W,2,11,0.75,-6.1,M,-19.2,M,0000,0000*73
$GPVTG,103.47,T,,M,0.80,N,1.48,K,D*3C
$GPGGA,202040.750,4651.3251,N,12414.5104,W,2,11,0.75,-6.1,M,-19.2,M,0000,0000*75
$GPRMC,202040.750,A,4651.3251,N,12414.5104,W,1.07,109.76,120721,,,D*76
$GPVTG,109.76,T,,M,1.07,N,1.98,K,D*37
$GPGGA,202041.000,4651.3250,N,12414.5103,W,2,11,0.75,-6.1,M,-19.2,M,0000,0000*70
$GPVTG,110.58,T,,M,1.22,N,2.27,K,D*33
$GPGGA,202041.250,4651.3250,N,12414.5101,W,2,11,0.75,-6.1,M,-19.2,M,0000,0000*75
$GPVTG,113.44,T,,M,1.87,N,3.46,K,D*34
$GPGGA,202041.500,4651.3249,N,12414.5099,W,2,11,0.75,-6.1,M,-19.2,M,0000,0000*7F
$GPVTG,113.10,T,,M,2.21,N,4.09,K,D*36
$GPGGA,202041.750,4651.3248,N,12414.5097,W,2,11,0.75,-6.1,M,-19.2,M,0000,0000*77
$GPRMC,202041.750,A,4651.3248,N,12414.5097,W,2.22,115.93,120721,,,D*76
$GPVTG,115.93,T,,M,2.22,N,4.11,K,D*31
$GPGGA,202042.000,4651.3247,N,12414.5095,W,2,11,0.75,-6.1,M,-19.2,M,0000,0000*7B
$GPVTG,116.96,T,,M,1.84,N,3.41,K,D*3A
$GPGGA,202042.250,4651.3247,N,12414.5093,W,2,11,0.75,-6.2,M,-19.2,M,0000,0000*79
$GPVTG,116.49,T,,M,1.78,N,3.29,K,D*35
$GPGGA,202042.500,4651.3246,N,12414.5092,W,2,11,0.75,-6.2,M,-19.2,M,0000,0000*7B
$GPVTG,122.94,T,,M,1.59,N,2.95,K,D*37
$GPGGA,202042.750,4651.3245,N,12414.5091,W,2,11,0.75,-6.2,M,-19.2,M,0000,0000*7C
$GPRMC,202042.750,A,4651.3245,N,12414.5091,W,1.61,127.97,120721,,,D*7F
$GPVTG,127.97,T,,M,1.61,N,2.99,K,D*36
$GPGGA,202043.000,4651.3244,N,12414.5090,W,2,11,0.75,-6.2,M,-19.2,M,0000,0000*7F
$GPVTG,138.29,T,,M,1.59,N,2.94,K,D*3B
$GPGGA,202043.250,4651.3244,N,12414.5089,W,2,11,0.75,-6.3,M,-19.2,M,0000,0000*71
$GPVTG,139.44,T,,M,1.28,N,2.37,K,D*3E
$GPGGA,202043.500,4651.3243,N,12414.5089,W,2,11,0.75,-6.3,M,-19.2,M,0000,0000*74
$GPVTG,149.74,T,,M,1.17,N,2.16,K,D*35
$GPGGA,202043.750,4651.3242,N,12414.5088,W,2,11,0.75,-6.3,M,-19.2,M,0000,0000*73
$GPRMC,202043.750,A,4651.3242,N,12414.5088,W,1.07,151.88,120721,,,D*7E
$GPVTG,151.88,T,,M,1.07,N,1.98,K,D*3B
$GPGGA,202044.000,4651.3242,N,12414.5088,W,2,11,0.75,-6.4,M,-19.2,M,0000,0000*71
$GPVTG,149.65,T,,M,1.04,N,1.93,K,D*39
$GPGGA,202044.250,4651.3241,N,12414.5088,W,2,11,0.75,-6.4,M,-19.2,M,0000,0000*75
$GPVTG,152.09,T,,M,0.96,N,1.78,K,D*36
$GPGGA,202044.500,4651.3241,N,12414.5088,W,2,11,0.75,-6.5,M,-19.2,M,0000,0000*76
$GPVTG,155.65,T,,M,0.75,N,1.39,K,D*33
$GPGGA,202044.750,4651.3241,N,12414.5088,W,2,11,0.75,-6.5,M,-19.2,M,0000,0000*71
$GPRMC,202044.750,A,4651.3241,N,12414.5088,W,0.55,163.17,120721,,,D*7B
$GPVTG,163.17,T,,M,0.55,N,1.02,K,D*39
$GPGGA,202045.000,4651.3242,N,12414.5089,W,2,11,0.75,-6.5,M,-19.2,M,0000,0000*70
$GPVTG,176.34,T,,M,0.33,N,0.61,K,D*38
$GPGGA,202045.250,4651.3242,N,12414.5090,W,2,11,0.75,-6.4,M,-19.2,M,0000,0000*7E
$GPVTG,209.84,T,,M,0.28,N,0.51,K,D*31
$GPGGA,202045.500,4651.3242,N,12414.5090,W,2,11,0.75,-6.4,M,-19.2,M,0000,0000*7C
$GPVTG,230.57,T,,M,0.20,N,0.36,K,D*3C
$GPGGA,202045.750,4651.3242,N,12414.5090,W,2,11,0.75,-6.4,M,-19.2,M,0000,0000*7B
$GPRMC,202045.750,A,4651.3242,N,12414.5090,W,0.04,258.86,120721,,,D*77
$GPVTG,258.86,T,,M,0.04,N,0.08,K,D*35
$GPGGA,202046.000,4651.3243,N,12414.5089,W,2,11,0.75,-6.4,M,-19.2,M,0000,0000*73
$GPVTG,28.06,T,,M,0.16,N,0.29,K,D*08
$GPGGA,202046.250,4651.3244,N,12414.5088,W,2,11,0.75,-6.4,M,-19.2,M,0000,0000*72
$GPVTG,27.51,T,,M,0.33,N,0.62,K,D*0D
$GPGGA,202046.500,4651.3245,N,12414.5088,W,2,11,0.75,-6.4,M,-19.2,M,0000,0000*71
$GPVTG,26.04,T,,M,0.41,N,0.76,K,D*0C
$GPGGA,202046.750,4651.3245,N,12414.5088,W,2,11,0.75,-6.3,M,-19.2,M,0000,0000*71
$GPRMC,202046.750,A,4651.3245,N,12414.5088,W,0.46,23.87,120721,,,D*43
$GPVTG,23.87,T,,M,0.46,N,0.86,K,D*0A
$GPGGA,202047.000,4651.3245,N,12414.5087,W,2,11,0.75,-6.3,M,-19.2,M,0000,0000*7D
$GPVTG,28.98,T,,M,0.46,N,0.86,K,D*0F
$GPGGA,202047.250,4651.3246,N,12414.5087,W,2,11,0.75,-6.3,M,-19.2,M,0000,0000*79
$GPVTG,41.24,T,,M,0.43,N,0.80,K,D*04
$GPGGA,202047.500,4651.3246,N,12414.5086,W,2,11,0.75,-6.3,M,-19.2,M,0000,0000*7A
$GPVTG,48.27,T,,M,0.41,N,0.75,K,D*06
$GPGGA,202047.750,4651.3246,N,12414.5085,W,2,11,0.75,-6.2,M,-19.2,M,0000,0000*7F
$GPRMC,202047.750,A,4651.3246,N,12414.5085,W,0.41,68.88,120721,,,D*4B
$GPVTG,68.88,T,,M,0.41,N,0.76,K,D*02
$GPGGA,202048.000,4651.3245,N,12414.5084,W,2,11,0.75,-6.2,M,-19.2,M,0000,0000*70
$GPVTG,89.30,T,,M,0.50,N,0.92,K,D*04
$GPGGA,202048.250,4651.3245,N,12414.5084,W,2,10,0.79,-6.2,M,-19.2,M,0000,0000*7A
$GPVTG,99.17,T,,M,0.60,N,1.11,K,D*09
$GPGGA,202048.500,4651.3245,N,12414.5083,W,2,10,0.79,-6.2,M,-19.2,M,0000,0000*7F
$GPVTG,103.03,T,,M,0.66,N,1.22,K,D*38
$GPGGA,202048.750,4651.3244,N,12414.5082,W,2,10,0.79,-6.2,M,-19.2,M,0000,0000*78
$GPRMC,202048.750,A,4651.3244,N,12414.5082,W,0.72,107.09,120721,,,D*70
$GPVTG,107.09,T,,M,0.72,N,1.34,K,D*34
$GPGGA,202049.000,4651.3244,N,12414.5081,W,2,10,0.79,-6.2,M,-19.2,M,0000,0000*78
$GPVTG,109.84,T,,M,0.81,N,1.51,K,D*30
$GPGGA,202049.250,4651.3243,N,12414.5079,W,2,10,0.79,-6.2,M,-19.2,M,0000,0000*7F
$GPVTG,112.15,T,,M,0.99,N,1.83,K,D*34
$GPGGA,202049.500,4651.3243,N,12414.5078,W,2,10,0.79,-6.2,M,-19.2,M,0000,0000*7C
$GPVTG,111.48,T,,M,1.05,N,1.95,K,D*3C
$GPGGA,202049.750,4651.3242,N,12414.5076,W,2,10,0.79,-6.2,M,-19.2,M,0000,0000*74
$GPRMC,202049.750,A,4651.3242,N,12414.5076,W,1.16,113.75,120721,,,D*71
$GPVTG,113.75,T,,M,1.16,N,2.16,K,D*3A
$GPGGA,202050.000,4651.3242,N,12414.5075,W,2,10,0.79,-6.2,M,-19.2,M,0000,0000*7D
$GPVTG,115.80,T,,M,1.29,N,2.40,K,D*39
$GPGGA,202050.250,4651.3241,N,12414.5072,W,2,10,0.79,-6.2,M,-19.2,M,0000,0000*7E
$GPVTG,115.43,T,,M,1.46,N,2.71,K,D*3D
$GPGGA,202050.500,4651.3240,N,12414.5071,W,2,10,0.79,-6.2,M,-19.2,M,0000,0000*7E
$GPVTG,114.67,T,,M,1.72,N,3.20,K,D*38
$GPGGA,202050.750,4651.3240,N,12414.5069,W,2,10,0.79,-6.3,M,-19.2,M,0000,0000*71
$GPRMC,202050.750,A,4651.3240,N,12414.5069,W,2.00,116.53,120721,,,D*70
$GPVTG,116.53,T,,M,2.00,N,3.70,K,D*3E
$GPGGA,202051.000,4651.3239,N,12414.5068,W,2,10,0.79,-6.3,M,-19.2,M,0000,0000*7D
$GPVTG,128.09,T,,M,1.66,N,3.08,K,D*30
$GPGGA,202051.250,4651.3238,N,12414.5067,W,2,10,0.79,-6.3,M,-19.2,M,0000,0000*74
$GPVTG,134.75,T,,M,1.47,N,2.72,K,D*39
$GPGGA,202051.500,4651.3237,N,12414.5066,W,2,10,0.79,-6.3,M,-19.2,M,0000,0000*78
$GPVTG,150.46,T,,M,1.22,N,2.25,K,D*3A
$GPGGA,202051.750,4651.3236,N,12414.5066,W,2,10,0.79,-6.3,M,-19.2,M,0000,0000*7E
$GPRMC,202051.750,A,4651.3236,N,12414.5066,W,1.17,154.99,120721,,,D*7A
$GPVTG,154.99,T,,M,1.17,N,2.18,K,D*34
$GPGGA,202052.000,4651.3236,N,12414.5065,W,2,10,0.79,-6.3,M,-19.2,M,0000,0000*7C
$GPVTG,159.06,T,,M,1.21,N,2.24,K,D*35
$GPGGA,202052.250,4651.3235,N,12414.5065,W,2,10,0.79,-6.4,M,-19.2,M,0000,0000*7F
$GPVTG,167.48,T,,M,1.16,N,2.16,K,D*37
$GPGGA,202052.500,4651.3234,N,12414.5065,W,2,10,0.79,-6.4,M,-19.2,M,0000,0000*7C
$GPVTG,172.94,T,,M,1.04,N,1.93,K,D*3F
$GPGGA,202052.750,4651.3234,N,12414.5066,W,2,10,0.79,-6.4,M,-19.2,M,0000,0000*78
$GPRMC,202052.750,A,4651.3234,N,12414.5066,W,0.75,184.39,120721,,,D*79
$GPVTG,184.39,T,,M,0.75,N,1.39,K,D*36
$GPGGA,202053.000,4651.3234,N,12414.5066,W,2,10,0.79,-6.4,M,-19.2,M,0000,0000*7B
$GPVTG,196.01,T,,M,0.66,N,1.21,K,D*35
$GPGGA,202053.250,4651.3234,N,12414.5067,W,2,10,0.79,-6.5,M,-19.2,M,0000,0000*7C
$GPVTG,215.74,T,,M,0.60,N,1.11,K,D*3A
$GPGGA,202053.500,4651.3234,N,12414.5068,W,2,10,0.79,-6.5,M,-19.2,M,0000,0000*71
$GPVTG,227.33,T,,M,0.55,N,1.03,K,D*3D
$GPGGA,202053.750,4651.3235,N,12414.5068,W,2,10,0.79,-6.5,M,-19.2,M,0000,0000*77
$GPRMC,202053.750,A,4651.3235,N,12414.5068,W,0.51,237.50,120721,,,D*75
$GPVTG,237.50,T,,M,0.51,N,0.94,K,D*32
$GPGGA,202054.000,4651.3235,N,12414.5069,W,2,10,0.79,-6.5,M,-19.2,M,0000,0000*73
$GPVTG,252.76,T,,M,0.51,N,0.94,K,D*35
$GPGGA,202054.250,4651.3235,N,12414.5069,W,2,10,0.79,-6.4,M,-19.2,M,0000,0000*75
$GPVTG,264.61,T,,M,0.50,N,0.93,K,D*30
$GPGGA,202054.500,4651.3236,N,12414.5070,W,2,10,0.79,-6.4,M,-19.2,M,0000,0000*7C
$GPVTG,268.24,T,,M,0.44,N,0.81,K,D*3B
$GPGGA,202054.750,4651.3236,N,12414.5069,W,2,10,0.79,-6.4,M,-19.2,M,0000,0000*73
$GPRMC,202054.750,A,4651.3236,N,12414.5069,W,0.26,270.13,120721,,,D*74
$GPVTG,270.13,T,,M,0.26,N,0.48,K,D*37
$GPGGA,202055.000,4651.3235,N,12414.5068,W,2,10,0.79,-6.4,M,-19.2,M,0000,0000*72
$GPVTG,213.61,T,,M,0.07,N,0.13,K,D*3A
$GPGGA,202055.250,4651.3235,N,12414.5068,W,2,10,0.79,-6.4,M,-19.2,M,0000,0000*75
$GPVTG,143.15,T,,M,0.14,N,0.25,K,D*38
$GPGGA,202055.500,4651.3235,N,12414.5067,W,2,10,0.79,-6.4,M,-19.2,M,0000,0000*78
$GPVTG,135.66,T,,M,0.19,N,0.34,K,D*30
$GPGGA,202055.750,4651.3234,N,12414.5067,W,2,10,0.79,-6.4,M,-19.2,M,0000,0000*7E
$GPRMC,202055.750,A,4651.3234,N,12414.5067,W,0.28,134.29,120721,,,D*7D
$GPVTG,134.29,T,,M,0.28,N,0.53,K,D*39
$GPGGA,202056.000,4651.3234,N,12414.5066,W,2,10,0.79,-6.4,M,-19.2,M,0000,0000*7E
$GPVTG,131.18,T,,M,0.41,N,0.75,K,D*35
$GPGGA,202056.250,4651.3233,N,12414.5065,W,2,10,0.79,-6.4,M,-19.2,M,0000,0000*7D
$GPVTG,133.32,T,,M,0.56,N,1.03,K,D*39
$GPGGA,202056.500,4651.3232,N,12414.5065,W,2,10,0.79,-6.4,M,-19.2,M,0000,0000*7E
$GPVTG,133.91,T,,M,0.55,N,1.02,K,D*32
$GPGGA,202056.750,4651.3232,N,12414.5065,W,2,10,0.79,-6.4,M,-19.2,M,0000,0000*79
$GPRMC,202056.750,A,4651.3232,N,12414.5065,W,0.47,135.75,120721,,,D*7B
$GPVTG,135.75,T,,M,0.47,N,0.87,K,D*31
$GPGGA,202057.000,4651.3232,N,12414.5064,W,2,10,0.79,-6.4,M,-19.2,M,0000,0000*7B
$GPVTG,133.83,T,,M,0.44,N,0.82,K,D*38
$GPGGA,202057.250,4651.3232,N,12414.5064,W,2,10,0.79,-6.4,M,-19.2,M,0000,0000*7C
$GPVTG,126.84,T,,M,0.58,N,1.07,K,D*3A
$GPGGA,202057.500,4651.3232,N,12414.5063,W,2,10,0.79,-6.4,M,-19.2,M,0000,0000*79
$GPVTG,124.04,T,,M,0.73,N,1.35,K,D*38
$GPGGA,202057.750,4651.3231,N,12414.5062,W,2,10,0.79,-6.4,M,-19.2,M,0000,0000*7C
$GPRMC,202057.750,A,4651.3231,N,12414.5062,W,0.87,123.39,120721,,,D*7D
$GPVTG,123.39,T,,M,0.87,N,1.61,K,D*3B
$GPGGA,202058.000,4651.3230,N,12414.5060,W,2,10,0.79,-6.3,M,-19.2,M,0000,0000*75
$GPVTG,119.99,T,,M,1.09,N,2.01,K,D*3A
$GPGGA,202058.250,4651.3230,N,12414.5059,W,2,10,0.79,-6.3,M,-19.2,M,0000,0000*78
$GPVTG,119.75,T,,M,1.20,N,2.22,K,D*32
$GPGGA,202058.500,4651.3229,N,12414.5057,W,2,10,0.79,-6.3,M,-19.2,M,0000,0000*7C
$GPVTG,121.86,T,,M,1.23,N,2.29,K,D*3D
$GPGGA,202058.750,4651.3228,N,12414.5056,W,2,10,0.79,-6.3,M,-19.2,M,0000,0000*7B
$GPRMC,202058.750,A,4651.3228,N,12414.5056,W,1.30,124.96,120721,,,D*72
$GPVTG,124.96,T,,M,1.30,N,2.40,K,D*34
$GPGGA,202059.000,4651.3227,N,12414.5055,W,2,10,0.79,-6.3,M,-19.2,M,0000,0000*74
$GPVTG,121.82,T,,M,1.47,N,2.73,K,D*34
$GPGGA,202059.250,4651.3227,N,12414.5053,W,2,10,0.79,-6.3,M,-19.2,M,0000,0000*75
$GPVTG,121.18,T,,M,1.46,N,2.71,K,D*34
$GPGGA,202059.500,4651.3226,N,12414.5052,W,2,10,0.79,-6.3,M,-19.2,M,0000,0000*77
$GPVTG,123.07,T,,M,1.09,N,2.02,K,D*37
$GPGGA,202059.750,4651.3226,N,12414.5052,W,2,10,0.79,-6.4,M,-19.2,M,0000,0000*77
$GPRMC,202059.750,A,4651.3226,N,12414.5052,W,1.10,132.61,120721,,,D*74
$GPVTG,132.61,T,,M,1.10,N,2.05,K,D*38
$GPGGA,202100.000,4651.3225,N,12414.5051,W,2,10,0.79,-6.4,M,-19.2,M,0000,0000*78
$GPVTG,141.93,T,,M,1.15,N,2.14,K,D*34
$GPGGA,202100.250,4651.3224,N,12414.5050,W,2,10,0.79,-6.4,M,-19.2,M,0000,0000*7F
$GPVTG,140.35,T,,M,1.10,N,2.03,K,D*3A
$GPGGA,202100.500,4651.3224,N,12414.5050,W,2,10,0.79,-6.4,M,-19.2,M,0000,0000*7D
$GPVTG,138.78,T,,M,1.05,N,1.94,K,D*35
$GPGGA,202100.750,4651.3223,N,12414.5049,W,2,10,0.79,-6.4,M,-19.2,M,0000,0000*75
$GPRMC,202100.750,A,4651.3223,N,12414.5049,W,1.01,135.22,120721,,,D*76
$GPVTG,135.22,T,,M,1.01,N,1.86,K,D*30
$GPGGA,202101.000,4651.3223,N,12414.5048,W,2,10,0.79,-6.4,M,-19.2,M,0000,0000*77
$GPVTG,135.65,T,,M,0.85,N,1.57,K,D*32
$GPGGA,202101.250,4651.3223,N,12414.5048,W,2,10,0.79,-6.5,M,-19.2,M,0000,0000*71
$GPVTG,136.06,T,,M,0.67,N,1.24,K,D*3C
$GPGGA,202101.500,4651.3223,N,12414.5048,W,2,10,0.79,-6.5,M,-19.2,M,0000,0000*73
$GPVTG,134.59,T,,M,0.59,N,1.09,K,D*36
$GPGGA,202101.750,4651.3223,N,12414.5048,W,2,10,0.79,-6.5,M,-19.2,M,0000,0000*74
$GPRMC,202101.750,A,4651.3223,N,12414.5048,W,0.46,124.54,120721,,,D*75
$GPVTG,124.54,T,,M,0.46,N,0.85,K,D*31
$GPGGA,202102.000,4651.3223,N,12414.5047,W,2,10,0.79,-6.5,M,-19.2,M,0000,0000*7A
$GPVTG,112.82,T,,M,0.42,N,0.78,K,D*39
$GPGGA,202102.250,4651.3224,N,12414.5047,W,2,10,0.79,-6.5,M,-19.2,M,0000,0000*7A
$GPVTG,94.64,T,,M,0.31,N,0.58,K,D*08
$GPGGA,202102.500,4651.3224,N,12414.5047,W,2,10,0.79,-6.5,M,-19.2,M,0000,0000*78
$GPVTG,80.40,T,,M,0.23,N,0.43,K,D*02
$GPGGA,202102.750,4651.3224,N,12414.5047,W,2,10,0.79,-6.5,M,-19.2,M,0000,0000*7F
$GPRMC,202102.750,A,4651.3224,N,12414.5047,W,0.21,53.96,120721,,,D*40
$GPVTG,53.96,T,,M,0.21,N,0.39,K,D*08
$GPGGA,202103.000,4651.3224,N,12414.5046,W,2,10,0.79,-6.4,M,-19.2,M,0000,0000*7C
$GPVTG,53.38,T,,M,0.24,N,0.45,K,D*02
$GPGGA,202103.250,4651.3225,N,12414.5046,W,2,10,0.79,-6.4,M,-19.2,M,0000,0000*7A
$GPVTG,50.87,T,,M,0.26,N,0.48,K,D*0A
$GPGGA,202103.500,4651.3225,N,12414.5046,W,2,10,0.79,-6.4,M,-19.2,M,0000,0000*78
$GPVTG,43.14,T,,M,0.25,N,0.47,K,D*0E
$GPGGA,202103.750,4651.3225,N,12414.5045,W,2,10,0.79,-6.4,M,-19.2,M,0000,0000*7C
$GPRMC,202103.750,A,4651.3225,N,12414.5045,W,0.24,41.95,120721,,,D*47
$GPVTG,41.95,T,,M,0.24,N,0.44,K,D*07
$GPGGA,202104.000,4651.3225,N,12414.5045,W,2,10,0.79,-6.4,M,-19.2,M,0000,0000*79
$GPVTG,57.80,T,,M,0.21,N,0.38,K,D*0A
$GPGGA,202104.250,4651.3224,N,12414.5044,W,2,10,0.79,-6.4,M,-19.2,M,0000,0000*7E
$GPVTG,81.37,T,,M,0.22,N,0.40,K,D*01
$GPGGA,202104.500,4651.3224,N,12414.5044,W,2,10,0.79,-6.4,M,-19.2,M,0000,0000*7C
$GPVTG,102.44,T,,M,0.24,N,0.44,K,D*3D
$GPGGA,202104.750,4651.3224,N,12414.5044,W,2,10,0.79,-6.3,M,-19.2,M,0000,0000*7C
$GPRMC,202104.750,A,4651.3224,N,12414.5044,W,0.29,125.84,120721,,,D*7E
$GPVTG,125.84,T,,M,0.29,N,0.54,K,D*38
$GPGGA,202105.000,4651.3222,N,12414.5043,W,2,10,0.79,-6.3,M,-19.2,M,0000,0000*7E
$GPVTG,136.55,T,,M,0.53,N,0.99,K,D*3A
$GPGGA,202105.250,4651.3222,N,12414.5042,W,2,10,0.79,-6.3,M,-19.2,M,0000,0000*78
$GPVTG,135.72,T,,M,0.96,N,1.78,K,D*3B
$GPGGA,202105.500,4651.3221,N,12414.5040,W,2,10,0.79,-6.3,M,-19.2,M,0000,0000*7B
$GPVTG,135.89,T,,M,1.31,N,2.44,K,D*3F
$GPGGA,202105.750,4651.3219,N,12414.5038,W,2,10,0.79,-6.3,M,-19.2,M,0000,0000*78
$GPRMC,202105.750,A,4651.3219,N,12414.5038,W,2.52,129.36,120721,,,D*71
$GPVTG,129.36,T,,M,2.52,N,4.67,K,D*37
$GPGGA,202106.000,4651.3218,N,12414.5035,W,2,10,0.79,-6.3,M,-19.2,M,0000,0000*75
$GPVTG,125.48,T,,M,3.02,N,5.59,K,D*3A
$GPGGA,202106.250,4651.3217,N,12414.5033,W,2,10,0.79,-6.3,M,-19.2,M,0000,0000*7B
$GPVTG,118.64,T,,M,2.89,N,5.36,K,D*31
$GPGGA,202106.500,4651.3216,N,12414.5031,W,2,10,0.79,-6.3,M,-19.2,M,0000,0000*7A
$GPVTG,120.76,T,,M,2.35,N,4.36,K,D*3F
$GPGGA,202106.750,4651.3215,N,12414.5029,W,2,10,0.79,-6.3,M,-19.2,M,0000,0000*77
$GPRMC,202106.750,A,4651.3215,N,12414.5029,W,1.76,114.81,120721,,,D*79
$GPVTG,114.81,T,,M,1.76,N,3.26,K,D*32
$GPGGA,202107.000,4651.3215,N,12414.5028,W,2,10,0.79,-6.3,M,-19.2,M,0000,0000*75
$GPVTG,107.89,T,,M,1.36,N,2.52,K,D*3E
$GPGGA,202107.250,4651.3215,N,12414.5028,W,2,10,0.79,-6.4,M,-19.2,M,0000,0000*75
$GPVTG,93.49,T,,M,0.92,N,1.71,K,D*03
$GPGGA,202107.500,4651.3215,N,12414.5027,W,2,10,0.79,-6.4,M,-19.2,M,0000,0000*78
$GPVTG,88.74,T,,M,0.69,N,1.27,K,D*00
$GPGGA,202107.750,4651.3215,N,12414.5027,W,2,10,0.79,-6.4,M,-19.2,M,0000,0000*7F
$GPRMC,202107.750,A,4651.3215,N,12414.5027,W,0.54,90.16,120721,,,D*44
$GPVTG,90.16,T,,M,0.54,N,1.00,K,D*06
$GPGGA,202108.000,4651.3215,N,12414.5028,W,2,10,0.79,-6.4,M,-19.2,M,0000,0000*7D
$GPVTG,101.18,T,,M,0.30,N,0.56,K,D*31
$GPGGA,202108.250,4651.3215,N,12414.5028,W,2,10,0.79,-6.4,M,-19.2,M,0000,0000*7A
$GPVTG,110.03,T,,M,0.12,N,0.22,K,D*38
$GPGGA,202108.500,4651.3215,N,12414.5028,W,2,10,0.79,-6.4,M,-19.2,M,0000,0000*78
$GPVTG,76.05,T,,M,0.05,N,0.09,K,D*00
$GPGGA,202108.750,4651.3215,N,12414.5028,W,2,10,0.79,-6.4,M,-19.2,M,0000,0000*7F
$GPRMC,202108.750,A,4651.3215,N,12414.5028,W,0.06,69.27,120721,,,D*47
$GPVTG,69.27,T,,M,0.06,N,0.12,K,D*07
$GPGGA,202109.000,4651.3214,N,12414.5028,W,2,10,0.79,-6.3,M,-19.2,M,0000,0000*7A
$GPVTG,132.64,T,,M,0.06,N,0.11,K,D*3C
$GPGGA,202109.250,4651.3214,N,12414.5028,W,2,10,0.79,-6.3,M,-19.2,M,0000,0000*7D
$GPVTG,173.49,T,,M,0.17,N,0.31,K,D*34
$GPGGA,202109.500,4651.3213,N,12414.5029,W,2,10,0.79,-6.3,M,-19.2,M,0000,0000*79
$GPVTG,177.49,T,,M,0.31,N,0.58,K,D*3B
$GPGGA,202109.750,4651.3211,N,12414.5029,W,2,10,0.79,-6.4,M,-19.2,M,0000,0000*7B
$GPRMC,202109.750,A,4651.3211,N,12414.5029,W,0.52,188.12,120721,,,D*7A
$GPVTG,188.12,T,,M,0.52,N,0.96,K,D*32
$GPGGA,202110.000,4651.3210,N,12414.5030,W,2,10,0.79,-6.3,M,-19.2,M,0000,0000*7F
$GPVTG,194.46,T,,M,0.67,N,1.25,K,D*31
$GPGGA,202110.250,4651.3209,N,12414.5031,W,2,10,0.79,-6.3,M,-19.2,M,0000,0000*71
$GPVTG,197.39,T,,M,0.74,N,1.37,K,D*3B
$GPGGA,202110.500,4651.3209,N,12414.5031,W,2,10,0.79,-6.3,M,-19.2,M,0000,0000*73
$GPVTG,198.42,T,,M,0.73,N,1.35,K,D*3D
$GPGGA,202110.750,4651.3209,N,12414.5030,W,2,10,0.79,-6.3,M,-19.2,M,0000,0000*75
$GPRMC,202110.750,A,4651.3209,N,12414.5030,W,0.67,190.22,120721,,,D*7F
$GPVTG,190.22,T,,M,0.67,N,1.24,K,D*36
$GPGGA,202111.000,4651.3208,N,12414.5029,W,2,10,0.79,-6.4,M,-19.2,M,0000,0000*78
$GPVTG,166.85,T,,M,0.67,N,1.25,K,D*33
$GPGGA,202111.250,4651.3208,N,12414.5028,W,2,10,0.79,-6.4,M,-19.2,M,0000,0000*7E
$GPVTG,157.54,T,,M,0.73,N,1.35,K,D*39
$GPGGA,202111.500,4651.3207,N,12414.5027,W,2,10,0.79,-6.4,M,-19.2,M,0000,0000*7C
$GPVTG,149.25,T,,M,0.75,N,1.40,K,D*34
$GPGGA,202111.750,4651.3207,N,12414.5026,W,2,10,0.79,-6.4,M,-19.2,M,0000,0000*7A
$GPRMC,202111.750,A,4651.3207,N,12414.5026,W,0.80,136.21,120721,,,D*71
$GPVTG,136.21,T,,M,0.80,N,1.48,K,D*3A
$GPGGA,202112.000,4651.3207,N,12414.5024,W,2,10,0.79,-6.4,M,-19.2,M,0000,0000*79
$GPVTG,124.78,T,,M,0.91,N,1.69,K,D*36
$GPGGA,202112.250,4651.3207,N,12414.5023,W,2,10,0.79,-6.4,M,-19.2,M,0000,0000*79
$GPVTG,116.23,T,,M,1.02,N,1.89,K,D*3C
$GPGGA,202112.500,4651.3207,N,12414.5021,W,2,10,0.79,-6.4,M,-19.2,M,0000,0000*79
$GPVTG,114.55,T,,M,1.04,N,1.93,K,D*32
$GPGGA,202112.750,4651.3207,N,12414.5020,W,2,10,0.79,-6.4,M,-19.2,M,0000,0000*7F
$GPRMC,202112.750,A,4651.3207,N,12414.5020,W,1.03,114.63,120721,,,D*78
$GPVTG,114.63,T,,M,1.03,N,1.91,K,D*32
$GPGGA,202113.000,4651.3206,N,12414.5020,W,2,10,0.79,-6.4,M,-19.2,M,0000,0000*7D
$GPVTG,115.66,T,,M,1.00,N,1.86,K,D*33
$GPGGA,202113.250,4651.3206,N,12414.5020,W,2,10,0.79,-6.4,M,-19.2,M,0000,0000*7A
$GPVTG,125.29,T,,M,0.88,N,1.63,K,D*31
$GPGGA,202113.500,4651.3205,N,12414.5020,W,2,10,0.79,-6.4,M,-19.2,M,0000,0000*7B
$GPVTG,131.10,T,,M,0.77,N,1.43,K,D*3C
$GPGGA,202113.750,4651.3205,N,12414.5019,W,2,10,0.79,-6.4,M,-19.2,M,0000,0000*76
$GPRMC,202113.750,A,4651.3205,N,12414.5019,W,0.78,126.00,120721,,,D*78
$GPVTG,126.00,T,,M,0.78,N,1.45,K,D*32
$GPGGA,202114.000,4651.3205,N,12414.5017,W,2,10,0.79,-6.4,M,-19.2,M,0000,0000*7D
$GPVTG,116.83,T,,M,0.92,N,1.70,K,D*38
$GPGGA,202114.250,4651.3205,N,12414.5016,W,2,10,0.79,-6.3,M,-19.2,M,0000,0000*7C
$GPVTG,108.44,T,,M,1.11,N,2.05,K,D*37
$GPGGA,202114.500,4651.3205,N,12414.5015,W,2,10,0.79,-6.3,M,-19.2,M,0000,0000*7D
$GPVTG,105.12,T,,M,1.26,N,2.34,K,D*3F
$GPGGA,202114.750,4651.3205,N,12414.5013,W,2,10,0.79,-6.3,M,-19.2,M,0000,0000*7C
$GPRMC,202114.750,A,4651.3205,N,12414.5013,W,1.43,96.50,120721,,,D*43
$GPVTG,96.50,T,,M,1.43,N,2.65,K,D*05
$GPGGA,202115.000,4651.3205,N,12414.5011,W,2,10,0.79,-6.3,M,-19.2,M,0000,0000*7D
$GPVTG,100.97,T,,M,1.46,N,2.70,K,D*31
$GPGGA,202115.250,4651.3205,N,12414.5010,W,2,10,0.79,-6.3,M,-19.2,M,0000,0000*7B
$GPVTG,96.91,T,,M,1.59,N,2.94,K,D*0D
$GPGGA,202115.500,4651.3205,N,12414.5008,W,2,10,0.79,-6.4,M,-19.2,M,0000,0000*77
$GPVTG,112.35,T,,M,1.44,N,2.66,K,D*3F
$GPGGA,202115.750,4651.3204,N,12414.5007,W,2,10,0.79,-6.4,M,-19.2,M,0000,0000*7E
$GPRMC,202115.750,A,4651.3204,N,12414.5007,W,1.36,114.28,120721,,,D*70
$GPVTG,114.28,T,,M,1.36,N,2.53,K,D*36
$GPGGA,202116.000,4651.3204,N,12414.5006,W,2,10,0.79,-6.4,M,-19.2,M,0000,0000*7E
$GPVTG,117.41,T,,M,1.20,N,2.23,K,D*3A
$GPGGA,202116.250,4651.3204,N,12414.5005,W,2,10,0.79,-6.4,M,-19.2,M,0000,0000*7A
$GPVTG,121.81,T,,M,0.96,N,1.77,K,D*3D
$GPGGA,202116.500,4651.3203,N,12414.5005,W,2,10,0.79,-6.4,M,-19.2,M,0000,0000*7F
$GPVTG,133.27,T,,M,0.75,N,1.39,K,D*35
$GPGGA,202116.750,4651.3203,N,12414.5005,W,2,10,0.79,-6.4,M,-19.2,M,0000,0000*78
$GPRMC,202116.750,A,4651.3203,N,12414.5005,W,0.63,144.89,120721,,,D*79
$GPVTG,144.89,T,,M,0.63,N,1.17,K,D*3A
$GPGGA,202117.000,4651.3203,N,12414.5006,W,2,10,0.79,-6.5,M,-19.2,M,0000,0000*79
$GPVTG,172.12,T,,M,0.48,N,0.89,K,D*32
$GPGGA,202117.250,4651.3203,N,12414.5006,W,2,10,0.79,-6.5,M,-19.2,M,0000,0000*7E
$GPVTG,184.98,T,,M,0.44,N,0.81,K,D*3D
$GPGGA,202117.500,4651.3203,N,12414.5007,W,2,10,0.79,-6.5,M,-19.2,M,0000,0000*7D
$GPVTG,196.43,T,,M,0.48,N,0.89,K,D*3C
$GPGGA,202117.750,4651.3202,N,12414.5008,W,2,10,0.79,-6.5,M,-19.2,M,0000,0000*74
$GPRMC,202117.750,A,4651.3202,N,12414.5008,W,0.54,209.40,120721,,,D*7F
$GPVTG,209.40,T,,M,0.54,N,1.00,K,D*37
$GPGGA,202118.000,4651.3202,N,12414.5008,W,2,10,0.79,-6.5,M,-19.2,M,0000,0000*79
$GPVTG,212.04,T,,M,0.57,N,1.06,K,D*38
$GPGGA,202118.250,4651.3202,N,12414.5008,W,2,10,0.79,-6.5,M,-19.2,M,0000,0000*7E
$GPVTG,213.74,T,,M,0.54,N,1.00,K,D*3B
$GPGGA,202118.500,4651.3202,N,12414.5008,W,2,10,0.79,-6.5,M,-19.2,M,0000,0000*7C
$GPVTG,212.84,T,,M,0.46,N,0.85,K,D*3A
$GPGGA,202118.750,4651.3202,N,12414.5008,W,2,10,0.79,-6.5,M,-19.2,M,0000,0000*7B
$GPRMC,202118.750,A,4651.3202,N,12414.5008,W,0.40,211.75,120721,,,D*7A
$GPVTG,211.75,T,,M,0.40,N,0.74,K,D*3F
$GPGGA,202119.000,4651.3202,N,12414.5008,W,2,10,0.79,-6.5,M,-19.2,M,0000,0000*78
$GPVTG,201.02,T,,M,0.41,N,0.76,K,D*3D
$GPGGA,202119.250,4651.3201,N,12414.5007,W,2,10,0.79,-6.5,M,-19.2,M,0000,0000*73
$GPVTG,180.55,T,,M,0.51,N,0.95,K,D*39
$GPGGA,202119.500,4651.3200,N,12414.5005,W,2,10,0.79,-6.5,M,-19.2,M,0000,0000*72
$GPVTG,164.10,T,,M,0.65,N,1.20,K,D*3A
$GPGGA,202119.750,4651.3200,N,12414.5003,W,2,10,0.79,-6.5,M,-19.2,M,0000,0000*73
$GPRMC,202119.750,A,4651.3200,N,12414.5003,W,0.76,143.86,120721,,,D*7F
$GPVTG,143.86,T,,M,0.76,N,1.40,K,D*34
$GPGGA,202120.000,4651.3200,N,12414.5002,W,2,10,0.79,-6.5,M,-19.2,M,0000,0000*7A
$GPVTG,133.41,T,,M,0.84,N,1.56,K,D*32
$GPGGA,202120.250,4651.3201,N,12414.5000,W,2,10,0.79,-6.5,M,-19.2,M,0000,0000*7E
$GPVTG,120.37,T,,M,0.91,N,1.68,K,D*38
$GPGGA,202120.500,4651.3201,N,12414.4998,W,2,10,0.79,-6.5,M,-19.2,M,0000,0000*75
$GPVTG,111.75,T,,M,1.04,N,1.92,K,D*34
$GPGGA,202120.750,4651.3200,N,12414.4996,W,2,10,0.79,-6.5,M,-19.2,M,0000,0000*7D
$GPRMC,202120.750,A,4651.3200,N,12414.4996,W,1.21,114.13,120721,,,D*7C
$GPVTG,114.13,T,,M,1.21,N,2.24,K,D*38
$GPGGA,202121.000,4651.3199,N,12414.4993,W,2,10,0.79,-6.5,M,-19.2,M,0000,0000*78
$GPVTG,116.32,T,,M,1.50,N,2.79,K,D*37
$GPGGA,202121.250,4651.3198,N,12414.4991,W,2,10,0.79,-6.5,M,-19.2,M,0000,0000*7C
$GPVTG,127.09,T,,M,2.05,N,3.80,K,D*39
$GPGGA,202121.500,4651.3197,N,12414.4990,W,2,10,0.79,-6.5,M,-19.2,M,0000,0000*70
$GPVTG,130.98,T,,M,2.12,N,3.92,K,D*32
$GPGGA,202121.750,4651.3196,N,12414.4989,W,2,10,0.79,-6.5,M,-19.2,M,0000,0000*7E
$GPRMC,202121.750,A,4651.3196,N,12414.4989,W,1.87,145.41,120721,,,D*70
$GPVTG,145.41,T,,M,1.87,N,3.46,K,D*32
$GPGGA,202122.000,4651.3195,N,12414.4989,W,2,10,0.79,-6.6,M,-19.2,M,0000,0000*7F
$GPVTG,155.02,T,,M,1.49,N,2.76,K,D*34
$GPGGA,202122.250,4651.3195,N,12414.4988,W,2,10,0.79,-6.6,M,-19.2,M,0000,0000*79
$GPVTG,162.40,T,,M,1.08,N,2.00,K,D*32
$GPGGA,202122.500,4651.3194,N,12414.4988,W,2,10,0.79,-6.6,M,-19.2,M,0000,0000*7A
$GPVTG,163.43,T,,M,0.91,N,1.68,K,D*3C
$GPGGA,202122.750,4651.3194,N,12414.4988,W,2,10,0.79,-6.6,M,-19.2,M,0000,0000*7D
$GPRMC,202122.750,A,4651.3194,N,12414.4988,W,0.72,172.89,120721,,,D*7B
$GPVTG,172.89,T,,M,0.72,N,1.33,K,D*39
$GPGGA,202123.000,4651.3195,N,12414.4990,W,2,10,0.79,-6.8,M,-19.2,M,0000,0000*78
$GPVTG,275.41,T,,M,0.39,N,0.73,K,D*33
$GPGGA,202123.250,4651.3196,N,12414.4991,W,2,10,0.79,-6.8,M,-19.2,M,0000,0000*7D
$GPVTG,296.91,T,,M,0.64,N,1.18,K,D*37
$GPGGA,202123.500,4651.3196,N,12414.4992,W,2,10,0.79,-6.8,M,-19.2,M,0000,0000*7C
$GPVTG,301.58,T,,M,0.93,N,1.72,K,D*39
$GPGGA,202123.750,4651.3196,N,12414.4993,W,2,10,0.79,-6.7,M,-19.2,M,0000,0000*75
$GPRMC,202123.750,A,4651.3196,N,12414.4993,W,0.82,282.07,120721,,,D*77
$GPVTG,282.07,T,,M,0.82,N,1.51,K,D*38
$GPGGA,202124.000,4651.3197,N,12414.4994,W,2,10,0.79,-6.6,M,-19.2,M,0000,0000*77
$GPVTG,276.06,T,,M,0.73,N,1.34,K,D*3F
$GPGGA,202124.250,4651.3196,N,12414.4995,W,2,10,0.79,-6.6,M,-19.2,M,0000,0000*70
$GPVTG,222.73,T,,M,0.61,N,1.13,K,D*3A
$GPGGA,202124.500,4651.3196,N,12414.4995,W,2,10,0.79,-6.6,M,-19.2,M,0000,0000*72
$GPVTG,210.15,T,,M,0.56,N,1.03,K,D*3E
$GPGGA,202124.750,4651.3196,N,12414.4995,W,2,10,0.79,-6.6,M,-19.2,M,0000,0000*75
$GPRMC,202124.750,A,4651.3196,N,12414.4995,W,0.54,207.98,120721,,,D*76
$GPVTG,207.98,T,,M,0.54,N,1.00,K,D*3C
$GPGGA,202125.000,4651.3196,N,12414.4995,W,2,10,0.79,-6.6,M,-19.2,M,0000,0000*76
$GPVTG,200.06,T,,M,0.51,N,0.94,K,D*35
$GPGGA,202125.250,4651.3195,N,12414.4995,W,2,10,0.79,-6.5,M,-19.2,M,0000,0000*71
$GPVTG,181.14,T,,M,0.48,N,0.89,K,D*38
$GPGGA,202125.500,4651.3195,N,12414.4995,W,2,10,0.79,-6.5,M,-19.2,M,0000,0000*73
$GPVTG,162.95,T,,M,0.51,N,0.95,K,D*39
$GPGGA,202125.750,4651.3195,N,12414.4994,W,2,10,0.79,-6.5,M,-19.2,M,0000,0000*75
$GPRMC,202125.750,A,4651.3195,N,12414.4994,W,0.64,144.76,120721,,,D*72
$GPVTG,144.76,T,,M,0.64,N,1.18,K,D*32
$GPGGA,202126.000,4651.3194,N,12414.4993,W,2,10,0.79,-6.5,M,-19.2,M,0000,0000*72
$GPVTG,137.97,T,,M,0.81,N,1.51,K,D*3F
$GPGGA,202126.250,4651.3194,N,12414.4992,W,2,10,0.79,-6.5,M,-19.2,M,0000,0000*74
$GPVTG,135.04,T,,M,0.94,N,1.74,K,D*34
$GPGGA,202126.500,4651.3193,N,12414.4991,W,2,10,0.79,-6.5,M,-19.2,M,0000,0000*72
$GPVTG,130.58,T,,M,0.94,N,1.74,K,D*38
$GPGGA,202126.750,4651.3193,N,12414.4990,W,2,10,0.79,-6.5,M,-19.2,M,0000,0000*74
$GPRMC,202126.750,A,4651.3193,N,12414.4990,W,0.92,125.31,120721,,,D*7E
$GPVTG,125.31,T,,M,0.92,N,1.70,K,D*31
$GPGGA,202127.000,4651.3193,N,12414.4989,W,2,10,0.79,-6.5,M,-19.2,M,0000,0000*7F
$GPVTG,120.29,T,,M,0.93,N,1.72,K,D*3E
$GPGGA,202127.250,4651.3193,N,12414.4988,W,2,10,0.79,-6.4,M,-19.2,M,0000,0000*78
$GPVTG,113.46,T,,M,0.93,N,1.73,K,D*36
$GPGGA,202127.500,4651.3193,N,12414.4986,W,2,10,0.79,-6.4,M,-19.2,M,0000,0000*74
$GPVTG,113.34,T,,M,0.97,N,1.80,K,D*3B
$GPGGA,202127.750,4651.3193,N,12414.4985,W,2,10,0.79,-6.4,M,-19.2,M,0000,0000*70
$GPRMC,202127.750,A,4651.3193,N,12414.4985,W,1.02,115.67,120721,,,D*73
$GPVTG,115.67,T,,M,1.02,N,1.89,K,D*3F
$GPGGA,202128.000,4651.3192,N,12414.4984,W,2,10,0.79,-6.4,M,-19.2,M,0000,0000*7D
$GPVTG,116.84,T,,M,1.09,N,2.03,K,D*3B
$GPGGA,202128.250,4651.3192,N,12414.4983,W,2,10,0.79,-6.4,M,-19.2,M,0000,0000*7D
$GPVTG,114.80,T,,M,1.15,N,2.13,K,D*31
$GPGGA,202128.500,4651.3191,N,12414.4981,W,2,10,0.79,-6.4,M,-19.2,M,0000,0000*7E
$GPVTG,116.62,T,,M,1.18,N,2.19,K,D*38
$GPGGA,202128.750,4651.3190,N,12414.4980,W,2,10,0.79,-6.4,M,-19.2,M,0000,0000*79
$GPRMC,202128.750,A,4651.3190,N,12414.4980,W,1.26,122.51,120721,,,D*7D
$GPVTG,122.51,T,,M,1.26,N,2.34,K,D*3D
$GPGGA,202129.000,4651.3190,N,12414.4979,W,2,10,0.79,-6.4,M,-19.2,M,0000,0000*7C
$GPVTG,129.03,T,,M,1.38,N,2.55,K,D*39
$GPGGA,202129.250,4651.3189,N,12414.4978,W,2,10,0.79,-6.4,M,-19.2,M,0000,0000*72
$GPVTG,136.68,T,,M,1.36,N,2.52,K,D*33
$GPGGA,202129.500,4651.3188,N,12414.4977,W,2,10,0.79,-6.4,M,-19.2,M,0000,0000*7E
$GPVTG,139.52,T,,M,1.33,N,2.47,K,D*34
$GPGGA,202129.750,4651.3188,N,12414.4976,W,2,10,0.79,-6.4,M,-19.2,M,0000,0000*78
$GPRMC,202129.750,A,4651.3188,N,12414.4976,W,1.27,138.86,120721,,,D*7C
$GPVTG,138.86,T,,M,1.27,N,2.36,K,D*3F
$GPGGA,202130.000,4651.3187,N,12414.4976,W,2,10,0.79,-6.5,M,-19.2,M,0000,0000*7C
$GPVTG,140.22,T,,M,1.17,N,2.16,K,D*3F
$GPGGA,202130.250,4651.3187,N,12414.4975,W,2,10,0.79,-6.5,M,-19.2,M,0000,0000*78
$GPVTG,141.92,T,,M,1.03,N,1.92,K,D*3F
$GPGGA,202130.500,4651.3186,N,12414.4974,W,2,10,0.79,-6.5,M,-19.2,M,0000,0000*7A
$GPVTG,140.85,T,,M,0.93,N,1.73,K,D*3F
$GPGGA,202130.750,4651.3187,N,12414.4974,W,2,10,0.79,-6.5,M,-19.2,M,0000,0000*7C
$GPRMC,202130.750,A,4651.3187,N,12414.4974,W,0.73,141.05,120721,,,D*7C
$GPVTG,141.05,T,,M,0.73,N,1.34,K,D*3B
$GPGGA,202131.000,4651.3187,N,12414.4974,W,2,10,0.79,-6.5,M,-19.2,M,0000,0000*7F
$GPVTG,139.49,T,,M,0.61,N,1.13,K,D*3A
$GPGGA,202131.250,4651.3187,N,12414.4974,W,2,10,0.79,-6.5,M,-19.2,M,0000,0000*78
$GPVTG,143.56,T,,M,0.40,N,0.74,K,D*3A
$GPGGA,202131.500,4651.3187,N,12414.4974,W,2,10,0.79,-6.5,M,-19.2,M,0000,0000*7A
$GPVTG,151.64,T,,M,0.28,N,0.52,K,D*32
$GPGGA,202131.750,4651.3187,N,12414.4976,W,2,10,0.79,-6.5,M,-19.2,M,0000,0000*7F
$GPRMC,202131.750,A,4651.3187,N,12414.4976,W,0.31,265.54,120721,,,D*78
$GPVTG,265.54,T,,M,0.31,N,0.58,K,D*37
$GPGGA,202132.000,4651.3187,N,12414.4977,W,2,10,0.79,-6.5,M,-19.2,M,0000,0000*7F
$GPVTG,262.73,T,,M,0.50,N,0.93,K,D*35
$GPGGA,202132.250,4651.3187,N,12414.4978,W,2,10,0.79,-6.4,M,-19.2,M,0000,0000*76
$GPVTG,255.67,T,,M,0.60,N,1.10,K,D*3D
$GPGGA,202132.500,4651.3187,N,12414.4978,W,2,10,0.79,-6.4,M,-19.2,M,0000,0000*74
$GPVTG,248.70,T,,M,0.54,N,1.00,K,D*31
$GPGGA,202132.750,4651.3187,N,12414.4978,W,2,10,0.79,-6.3,M,-19.2,M,0000,0000*74
$GPRMC,202132.750,A,4651.3187,N,12414.4978,W,0.40,278.39,120721,,,D*74
$GPVTG,278.39,T,,M,0.40,N,0.74,K,D*38
$GPGGA,202133.000,4651.3187,N,12414.4977,W,2,10,0.79,-6.3,M,-19.2,M,0000,0000*78
$GPVTG,229.00,T,,M,0.26,N,0.48,K,D*39
$GPGGA,202133.250,4651.3188,N,12414.4974,W,2,10,0.79,-6.2,M,-19.2,M,0000,0000*72
$GPVTG,104.97,T,,M,0.65,N,1.21,K,D*32
$GPGGA,202133.500,4651.3187,N,12414.4973,W,2,10,0.79,-6.2,M,-19.2,M,0000,0000*78
$GPVTG,105.78,T,,M,1.46,N,2.71,K,D*34
$GPGGA,202133.750,4651.3187,N,12414.4971,W,2,10,0.79,-6.1,M,-19.2,M,0000,0000*7E
$GPRMC,202133.750,A,4651.3187,N,12414.4971,W,1.73,110.30,120721,,,D*79
$GPVTG,110.30,T,,M,1.73,N,3.20,K,D*3F
$GPGGA,202134.000,4651.3186,N,12414.4969,W,2,10,0.79,-6.1,M,-19.2,M,0000,0000*73
$GPVTG,111.82,T,,M,2.08,N,3.85,K,D*37
$GPGGA,202134.250,4651.3186,N,12414.4967,W,2,10,0.79,-6.1,M,-19.2,M,0000,0000*7A
$GPVTG,119.30,T,,M,2.33,N,4.32,K,D*35
$GPGGA,202134.500,4651.3185,N,12414.4965,W,2,10,0.79,-6.0,M,-19.2,M,0000,0000*78
$GPVTG,119.37,T,,M,1.96,N,3.63,K,D*3D
$GPGGA,202134.750,4651.3184,N,12414.4963,W,2,10,0.79,-6.0,M,-19.2,M,0000,0000*78
$GPRMC,202134.750,A,4651.3184,N,12414.4963,W,1.69,124.01,120721,,,D*70
$GPVTG,124.01,T,,M,1.69,N,3.13,K,D*31
$GPGGA,202135.000,4651.3184,N,12414.4962,W,2,10,0.79,-6.0,M,-19.2,M,0000,0000*7A
$GPVTG,134.92,T,,M,1.18,N,2.18,K,D*36
$GPGGA,202135.250,4651.3183,N,12414.4961,W,2,10,0.79,-6.1,M,-19.2,M,0000,0000*78
$GPVTG,128.25,T,,M,1.03,N,1.91,K,D*3F
$GPGGA,202135.500,4651.3183,N,12414.4960,W,2,10,0.79,-6.1,M,-19.2,M,0000,0000*7B
$GPVTG,136.12,T,,M,0.83,N,1.54,K,D*34
$GPGGA,202135.750,4651.3182,N,12414.4959,W,2,10,0.79,-6.0,M,-19.2,M,0000,0000*76
$GPRMC,202135.750,A,4651.3182,N,12414.4959,W,1.04,130.11,120721,,,D*71
$GPVTG,130.11,T,,M,1.04,N,1.94,K,D*33
$GPGGA,202136.000,4651.3181,N,12414.4957,W,2,10,0.79,-6.0,M,-19.2,M,0000,0000*7A
$GPVTG,126.51,T,,M,1.42,N,2.63,K,D*39
$GPGGA,202136.250,4651.3181,N,12414.4956,W,2,10,0.79,-6.0,M,-19.2,M,0000,0000*7C
$GPVTG,128.07,T,,M,1.63,N,3.02,K,D*31
$GPGGA,202136.500,4651.3180,N,12414.4954,W,2,10,0.79,-6.0,M,-19.2,M,0000,0000*7D
$GPVTG,122.84,T,,M,1.41,N,2.62,K,D*37
$GPGGA,202136.750,4651.3179,N,12414.4953,W,2,10,0.79,-6.0,M,-19.2,M,0000,0000*7B
$GPRMC,202136.750,A,4651.3179,N,12414.4953,W,1.37,127.15,120721,,,D*7E
$GPVTG,127.15,T,,M,1.37,N,2.54,K,D*3E
$GPGGA,202137.000,4651.3179,N,12414.4952,W,2,10,0.79,-6.0,M,-19.2,M,0000,0000*79
$GPVTG,138.52,T,,M,1.11,N,2.06,K,D*30
$GPGGA,202137.250,4651.3178,N,12414.4952,W,2,10,0.79,-6.0,M,-19.2,M,0000,0000*7F
$GPVTG,152.71,T,,M,1.04,N,1.93,K,D*36
$GPGGA,202137.500,4651.3177,N,12414.4951,W,2,10,0.79,-6.1,M,-19.2,M,0000,0000*70
$GPVTG,171.79,T,,M,1.03,N,1.92,K,D*39
$GPGGA,202137.750,4651.3177,N,12414.4951,W,2,10,0.79,-6.1,M,-19.2,M,0000,0000*77
$GPRMC,202137.750,A,4651.3177,N,12414.4951,W,0.91,191.66,120721,,,D*77
$GPVTG,191.66,T,,M,0.91,N,1.69,K,D*37
$GPGGA,202138.000,4651.3176,N,12414.4951,W,2,10,0.79,-6.2,M,-19.2,M,0000,0000*78
$GPVTG,216.04,T,,M,0.53,N,0.99,K,D*3F
$GPGGA,202138.250,4651.3176,N,12414.4952,W,2,10,0.79,-6.3,M,-19.2,M,0000,0000*7D
$GPVTG,273.86,T,,M,0.51,N,0.95,K,D*38
$GPGGA,202138.500,4651.3177,N,12414.4952,W,2,10,0.79,-6.4,M,-19.2,M,0000,0000*79
$GPVTG,300.58,T,,M,0.60,N,1.12,K,D*32
$GPGGA,202138.750,4651.3177,N,12414.4952,W,2,10,0.79,-6.4,M,-19.2,M,0000,0000*7E
$GPRMC,202138.750,A,4651.3177,N,12414.4952,W,0.44,327.54,120721,,,D*7D
$GPVTG,327.54,T,,M,0.44,N,0.81,K,D*36
$GPGGA,202139.000,4651.3177,N,12414.4952,W,2,10,0.79,-6.4,M,-19.2,M,0000,0000*7D
$GPVTG,2.88,T,,M,0.38,N,0.70,K,D*36
$GPGGA,202139.250,4651.3177,N,12414.4952,W,2,10,0.80,-6.4,M,-19.2,M,0000,0000*7C
$GPVTG,31.38,T,,M,0.44,N,0.81,K,D*08
$GPGGA,202139.500,4651.3178,N,12414.4952,W,2,10,0.79,-6.4,M,-19.2,M,0000,0000*77
$GPVTG,17.46,T,,M,0.43,N,0.80,K,D*03
$GPGGA,202139.750,4651.3178,N,12414.4951,W,2,10,0.79,-6.4,M,-19.2,M,0000,0000*73
$GPRMC,202139.750,A,4651.3178,N,12414.4951,W,0.44,12.26,120721,,,D*40
$GPVTG,12.26,T,,M,0.44,N,0.81,K,D*06
$GPGGA,202140.000,4651.3178,N,12414.4951,W,2,10,0.80,-6.4,M,-19.2,M,0000,0000*79
$GPVTG,0.40,T,,M,0.39,N,0.73,K,D*32
$GPGGA,202140.250,4651.3178,N,12414.4951,W,2,10,0.80,-6.4,M,-19.2,M,0000,0000*7E
$GPVTG,350.09,T,,M,0.25,N,0.47,K,D*33
$GPGGA,202140.500,4651.3178,N,12414.4951,W,2,10,0.80,-6.4,M,-19.2,M,0000,0000*7C
$GPVTG,17.69,T,,M,0.06,N,0.11,K,D*07
$GPGGA,202140.750,4651.3177,N,12414.4951,W,2,10,0.79,-6.3,M,-19.2,M,0000,0000*75
$GPRMC,202140.750,A,4651.3177,N,12414.4951,W,0.27,105.35,120721,,,D*71
$GPVTG,105.35,T,,M,0.27,N,0.51,K,D*3B
$GPGGA,202141.000,4651.3177,N,12414.4950,W,2,10,0.79,-6.3,M,-19.2,M,0000,0000*77
$GPVTG,122.02,T,,M,0.43,N,0.80,K,D*34
$GPGGA,202141.250,4651.3176,N,12414.4950,W,2,10,0.79,-6.3,M,-19.2,M,0000,0000*71
$GPVTG,132.34,T,,M,0.55,N,1.02,K,D*3C
$GPGGA,202141.500,4651.3176,N,12414.4950,W,2,10,0.79,-6.2,M,-19.2,M,0000,0000*72
$GPVTG,137.52,T,,M,0.61,N,1.14,K,D*39
$GPGGA,202141.750,4651.3175,N,12414.4949,W,2,10,0.79,-6.2,M,-19.2,M,0000,0000*7E
$GPRMC,202141.750,A,4651.3175,N,12414.4949,W,0.62,138.86,120721,,,D*7C
$GPVTG,138.86,T,,M,0.62,N,1.16,K,D*3E
$GPGGA,202142.000,4651.3175,N,12414.4949,W,2,10,0.79,-6.3,M,-19.2,M,0000,0000*7E
$GPVTG,140.87,T,,M,0.64,N,1.18,K,D*38
$GPGGA,202142.250,4651.3174,N,12414.4948,W,2,10,0.79,-6.3,M,-19.2,M,0000,0000*79
$GPVTG,140.64,T,,M,0.70,N,1.30,K,D*3A
$GPGGA,202142.500,4651.3174,N,12414.4948,W,2,10,0.79,-6.3,M,-19.2,M,0000,0000*7B
$GPVTG,140.66,T,,M,0.77,N,1.42,K,D*3A
$GPGGA,202142.750,4651.3173,N,12414.4947,W,2,10,0.79,-6.3,M,-19.2,M,0000,0000*74
$GPRMC,202142.750,A,4651.3173,N,12414.4947,W,0.89,141.00,120721,,,D*72
$GPVTG,141.00,T,,M,0.89,N,1.64,K,D*3E
$GPGGA,202143.000,4651.3172,N,12414.4946,W,2,10,0.79,-6.3,M,-19.2,M,0000,0000*77
$GPVTG,140.18,T,,M,1.02,N,1.89,K,D*37
$GPGGA,202143.250,4651.3171,N,12414.4945,W,2,10,0.79,-6.3,M,-19.2,M,0000,0000*70
$GPVTG,138.99,T,,M,1.11,N,2.06,K,D*37
$GPGGA,202143.500,4651.3170,N,12414.4944,W,2,10,0.79,-6.3,M,-19.2,M,0000,0000*72
$GPVTG,137.62,T,,M,1.18,N,2.20,K,D*31
$GPGGA,202143.750,4651.3170,N,12414.4943,W,2,10,0.79,-6.3,M,-19.2,M,0000,0000*72
$GPRMC,202143.750,A,4651.3170,N,12414.4943,W,1.26,135.87,120721,,,D*7C
$GPVTG,135.87,T,,M,1.26,N,2.33,K,D*37
$GPGGA,202144.000,4651.3169,N,12414.4941,W,2,10,0.79,-6.3,M,-19.2,M,0000,0000*7D
$GPVTG,133.66,T,,M,1.36,N,2.53,K,D*39
$GPGGA,202144.250,4651.3168,N,12414.4940,W,2,10,0.79,-6.4,M,-19.2,M,0000,0000*7D
$GPVTG,124.26,T,,M,1.79,N,3.32,K,D*36
$GPGGA,202144.500,4651.3167,N,12414.4938,W,2,10,0.79,-6.4,M,-19.2,M,0000,0000*7F
$GPVTG,119.87,T,,M,1.96,N,3.63,K,D*36
$GPGGA,202144.750,4651.3167,N,12414.4937,W,2,10,0.79,-6.4,M,-19.2,M,0000,0000*77
$GPRMC,202144.750,A,4651.3167,N,12414.4937,W,1.71,124.56,120721,,,D*70
$GPVTG,124.56,T,,M,1.71,N,3.18,K,D*31
$GPGGA,202145.000,4651.3166,N,12414.4936,W,2,10,0.79,-6.4,M,-19.2,M,0000,0000*74
$GPVTG,124.17,T,,M,1.47,N,2.72,K,D*3C
$GPGGA,202145.250,4651.3165,N,12414.4934,W,2,10,0.79,-6.4,M,-19.2,M,0000,0000*72
$GPVTG,122.41,T,,M,1.34,N,2.49,K,D*35
$GPGGA,202145.500,4651.3165,N,12414.4933,W,2,10,0.79,-6.4,M,-19.2,M,0000,0000*77
$GPVTG,118.47,T,,M,1.35,N,2.50,K,D*33
$GPGGA,202145.750,4651.3165,N,12414.4933,W,2,10,0.79,-6.5,M,-19.2,M,0000,0000*71
$GPRMC,202145.750,A,4651.3165,N,12414.4933,W,1.07,110.70,120721,,,D*75
$GPVTG,110.70,T,,M,1.07,N,1.99,K,D*38
$GPGGA,202146.000,4651.3165,N,12414.4933,W,2,10,0.79,-6.5,M,-19.2,M,0000,0000*70
$GPVTG,106.37,T,,M,0.76,N,1.41,K,D*3E
$GPGGA,202146.250,4651.3166,N,12414.4933,W,2,10,0.79,-6.5,M,-19.2,M,0000,0000*74
$GPVTG,96.52,T,,M,0.40,N,0.74,K,D*07
$GPGGA,202146.500,4651.3166,N,12414.4933,W,2,10,0.79,-6.5,M,-19.2,M,0000,0000*76
$GPVTG,100.09,T,,M,0.36,N,0.67,K,D*34
$GPGGA,202146.750,4651.3166,N,12414.4932,W,2,10,0.79,-6.5,M,-19.2,M,0000,0000*70
$GPRMC,202146.750,A,4651.3166,N,12414.4932,W,0.42,105.63,120721,,,D*72
$GPVTG,105.63,T,,M,0.42,N,0.77,K,D*3F
$GPGGA,202147.000,4651.3165,N,12414.4932,W,2,10,0.79,-6.5,M,-19.2,M,0000,0000*70
$GPVTG,112.92,T,,M,0.39,N,0.72,K,D*3E
$GPGGA,202147.250,4651.3166,N,12414.4932,W,2,10,0.79,-6.5,M,-19.2,M,0000,0000*74
$GPVTG,103.00,T,,M,0.34,N,0.63,K,D*38
$GPGGA,202147.500,4651.3166,N,12414.4932,W,2,10,0.79,-6.5,M,-19.2,M,0000,0000*76
$GPVTG,92.39,T,,M,0.32,N,0.59,K,D*04
$GPGGA,202147.750,4651.3166,N,12414.4932,W,2,10,0.79,-6.5,M,-19.2,M,0000,0000*71
$GPRMC,202147.750,A,4651.3166,N,12414.4932,W,0.16,87.82,120721,,,D*46
$GPVTG,87.82,T,,M,0.16,N,0.30,K,D*09
$GPGGA,202148.000,4651.3166,N,12414.4933,W,2,10,0.79,-6.5,M,-19.2,M,0000,0000*7D
$GPVTG,21.34,T,,M,0.07,N,0.14,K,D*0E
$GPGGA,202148.250,4651.3166,N,12414.4935,W,2,10,0.79,-6.5,M,-19.2,M,0000,0000*7C
$GPVTG,289.38,T,,M,0.34,N,0.62,K,D*33
$GPGGA,202148.500,4651.3166,N,12414.4935,W,2,10,0.79,-6.5,M,-19.2,M,0000,0000*7E
$GPVTG,291.43,T,,M,0.34,N,0.62,K,D*36
$GPGGA,202148.750,4651.3166,N,12414.4935,W,2,10,0.79,-6.4,M,-19.2,M,0000,0000*78
$GPRMC,202148.750,A,4651.3166,N,12414.4935,W,0.26,285.41,120721,,,D*72
$GPVTG,285.41,T,,M,0.26,N,0.47,K,D*35
$GPGGA,202149.000,4651.3166,N,12414.4935,W,2,10,0.79,-6.4,M,-19.2,M,0000,0000*7B
$GPVTG,246.90,T,,M,0.13,N,0.24,K,D*35
$GPGGA,202149.250,4651.3165,N,12414.4934,W,2,10,0.79,-6.4,M,-19.2,M,0000,0000*7E
$GPVTG,169.54,T,,M,0.30,N,0.56,K,D*37
$GPGGA,202149.500,4651.3164,N,12414.4934,W,2,10,0.79,-6.4,M,-19.2,M,0000,0000*7D
$GPVTG,157.87,T,,M,0.53,N,0.98,K,D*33
$GPGGA,202149.750,4651.3163,N,12414.4934,W,2,10,0.79,-6.4,M,-19.2,M,0000,0000*7D
$GPRMC,202149.750,A,4651.3163,N,12414.4934,W,0.80,143.38,120721,,,D*7C
$GPVTG,143.38,T,,M,0.80,N,1.49,K,D*31
$GPGGA,202150.000,4651.3163,N,12414.4932,W,2,10,0.79,-6.4,M,-19.2,M,0000,0000*71
$GPVTG,136.10,T,,M,0.96,N,1.79,K,D*3D
$GPGGA,202150.250,4651.3162,N,12414.4931,W,2,10,0.79,-6.4,M,-19.2,M,0000,0000*74
$GPVTG,133.28,T,,M,1.11,N,2.05,K,D*35
$GPGGA,202150.500,4651.3161,N,12414.4930,W,2,10,0.79,-6.4,M,-19.2,M,0000,0000*74
$GPVTG,134.84,T,,M,1.19,N,2.21,K,D*3A
$GPGGA,202150.750,4651.3160,N,12414.4929,W,2,10,0.79,-6.4,M,-19.2,M,0000,0000*7A
$GPRMC,202150.750,A,4651.3160,N,12414.4929,W,1.32,136.04,120721,,,D*7E
$GPVTG,136.04,T,,M,1.32,N,2.44,K,D*3A
$GPGGA,202151.000,4651.3159,N,12414.4928,W,2,10,0.79,-6.4,M,-19.2,M,0000,0000*72
$GPVTG,141.47,T,,M,1.13,N,2.09,K,D*37
$GPGGA,202151.250,4651.3159,N,12414.4928,W,2,10,0.79,-6.4,M,-19.2,M,0000,0000*75
$GPVTG,152.76,T,,M,0.92,N,1.70,K,D*32
