
$GPGSA,A,3,32,10,01,23,20,21,,,,,,,3.93,3.83,0.89*03
$GPGSV,3,1,12,32,80,090,23,21,59,288,23,10,43,086,22,01,35,310,23*79
$GPGSV,3,2,12,08,24,243,18,22,23,284,,31,18,160,21,23,13,094,21*74
$GPGSV,3,3,12,20,11,100,18,27,10,210,,24,08,034,23,03,02,279,*72
$GPRMC,183053.500,A,4739.3020,N,12219.3023,W,1.26,204.60,131120,,,A*73
$GPVTG,204.60,T,,M,1.26,N,2.33,K,A*3A
$GPGGA,183053.750,4739.3019,N,12219.3024,W,1,06,3.83,27.9,M,-17.3,M,,*64
$GPGSA,A,3,32,10,01,23,20,21,,,,,,,3.93,3.83,0.89*03
$GPRMC,183053.750,A,4739.3019,N,12219.3024,W,1.26,206.16,131120,,,A*7A
$GPVTG,206.16,T,,M,1.26,N,2.34,K,A*3E
$GPGGA,183054.000,4739.3018,N,12219.3025,W,1,06,3.83,27.9,M,-17.3,M,,*61
$GPGSA,A,3,32,10,01,23,20,21,,,,,,,3.93,3.83,0.89*03
$GPRMC,183054.000,A,4739.3018,N,12219.3025,W,1.25,207.53,131120,,,A*7C
$GPVTG,207.53,T,,M,1.25,N,2.32,K,A*3B
$GPGGA,183054.250,4739.3016,N,12219.3026,W,1,06,3.83,27.9,M,-17.3,M,,*6B
$GPGSA,A,3,32,10,01,23,20,21,,,,,,,3.93,3.83,0.89*03
$GPRMC,183054.250,A,4739.3016,N,12219.3026,W,1.22,207.94,131120,,,A*7A
$GPVTG,207.94,T,,M,1.22,N,2.27,K,A*33
$GPGGA,183054.500,4739.3016,N,12219.3026,W,1,06,3.83,27.9,M,-17.3,M,,*69
$GPGSA,A,3,32,10,01,23,20,21,,,,,,,3.93,3.83,0.89*03
$GPRMC,183054.500,A,4739.3016,N,12219.3026,W,1.17,206.16,131120,,,A*75
$GPVTG,206.16,T,,M,1.17,N,2.16,K,A*3C
$GPGGA,183054.750,4739.3015,N,12219.3027,W,1,06,3.83,27.9,M,-17.3,M,,*6C
$GPGSA,A,3,32,10,01,23,20,21,,,,,,,3.93,3.83,0.89*03
$GPGSV,3,1,12,32,80,090,21,21,59,288,21,10,43,086,21,01,35,310,18*72
$GPGSV,3,2,12,08,24,243,14,22,23,284,,31,18,160,19,23,13,094,19*78
$GPGSV,3,3,12,20,11,100,17,27,10,210,,24,08,034,20,03,02,279,*7E
$GPRMC,183054.750,A,4739.3015,N,12219.3027,W,1.12,203.76,131120,,,A*76
$GPVTG,203.76,T,,M,1.12,N,2.07,K,A*3A
$GPGGA,183055.000,4739.3014,N,12219.3027,W,1,06,3.83,27.9,M,-17.3,M,,*6E
$GPGSA,A,3,32,10,01,23,20,21,,,,,,,3.93,3.83,0.89*03
$GPRMC,183055.000,A,4739.3014,N,12219.3027,W,1.11,201.71,131120,,,A*72
$GPVTG,201.71,T,,M,1.11,N,2.06,K,A*3D
$GPGGA,183055.250,4739.3013,N,12219.3028,W,1,06,3.83,27.9,M,-17.3,M,,*61
$GPGSA,A,3,32,10,01,23,20,21,,,,,,,3.93,3.83,0.89*03
$GPRMC,183055.250,A,4739.3013,N,12219.3028,W,1.09,200.44,131120,,,A*73
$GPVTG,200.44,T,,M,1.09,N,2.03,K,A*36
$GPGGA,183055.500,4739.3012,N,12219.3028,W,1,06,3.83,28.0,M,-17.3,M,,*64
$GPGSA,A,3,32,10,01,23,20,21,,,,,,,3.93,3.83,0.89*03
$GPRMC,183055.500,A,4739.3012,N,12219.3028,W,1.10,199.86,131120,,,A*75
$GPVTG,199.86,T,,M,1.10,N,2.04,K,A*34
$GPGGA,183055.750,4739.3011,N,12219.3028,W,1,06,3.83,28.0,M,-17.3,M,,*60
$GPGSA,A,3,32,10,01,23,20,21,,,,,,,3.93,3.83,0.89*03
$GPRMC,183055.750,A,4739.3011,N,12219.3028,W,1.10,200.25,131120,,,A*7B
$GPVTG,200.25,T,,M,1.10,N,2.04,K,A*3E
$GPGGA,183056.000,4739.3011,N,12219.3029,W,1,06,3.83,28.0,M,-17.3,M,,*60
$GPGSA,A,3,32,10,01,23,20,21,,,,,,,3.93,3.83,0.89*03
$GPGSV,3,1,12,32,80,090,21,21,59,288,21,10,43,086,20,01,35,310,18*73
$GPGSV,3,2,12,08,24,243,15,22,23,284,,31,18,160,19,23,13,094,19*79
$GPGSV,3,3,12,20,11,100,17,27,10,210,,24,08,034,21,03,02,279,*7F
$GPRMC,183056.000,A,4739.3011,N,12219.3029,W,1.09,200.85,131120,,,A*79
$GPVTG,200.85,T,,M,1.09,N,2.02,K,A*3A
$GPGGA,183056.250,4739.3010,N,12219.3029,W,1,06,3.83,28.0,M,-17.3,M,,*66
$GPGSA,A,3,32,10,01,23,20,21,,,,,,,3.93,3.83,0.89*03
$GPRMC,183056.250,A,4739.3010,N,12219.3029,W,1.10,203.90,131120,,,A*70
$GPVTG,203.90,T,,M,1.10,N,2.04,K,A*33
$GPGGA,183056.500,4739.3009,N,12219.3030,W,1,06,3.83,28.0,M,-17.3,M,,*64
$GPGSA,A,3,32,10,01,23,20,21,,,,,,,3.93,3.83,0.89*03
$GPRMC,183056.500,A,4739.3009,N,12219.3030,W,1.09,205.65,131120,,,A*76
$GPVTG,205.65,T,,M,1.09,N,2.02,K,A*31
$GPGGA,183056.750,4739.3009,N,12219.3030,W,1,06,3.83,28.0,M,-17.3,M,,*63
$GPGSA,A,3,32,10,01,23,20,21,,,,,,,3.93,3.83,0.89*03
$GPRMC,183056.750,A,4739.3009,N,12219.3030,W,1.00,204.17,131120,,,A*7C
$GPVTG,204.17,T,,M,1.00,N,1.85,K,A*30
$GPGGA,183057.000,4739.3010,N,12219.3030,W,1,06,3.83,28.0,M,-17.3,M,,*68
$GPGSA,A,3,32,10,01,23,20,21,,,,,,,3.93,3.83,0.89*03
$GPRMC,183057.000,A,4739.3010,N,12219.3030,W,0.87,204.15,131120,,,A*7B
$GPVTG,204.15,T,,M,0.87,N,1.61,K,A*36
$GPGGA,183057.250,4739.3012,N,12219.3030,W,1,06,3.83,28.0,M,-17.3,M,,*6D
$GPGSA,A,3,32,10,01,23,20,21,,,,,,,3.93,3.83,0.89*03
$GPGSV,3,1,12,32,80,090,21,21,59,288,23,10,43,087,21,01,35,310,19*70
$GPGSV,3,2,12,08,24,243,16,22,23,284,,31,18,160,20,23,13,094,19*70
$GPGSV,3,3,12,20,11,100,17,27,10,210,,24,08,034,21,03,02,279,*7F
$GPRMC,183057.250,A,4739.3012,N,12219.3030,W,0.69,205.87,131120,,,A*74
$GPVTG,205.87,T,,M,0.69,N,1.28,K,A*31
$GPGGA,183057.500,4739.3012,N,12219.3030,W,1,06,3.83,28.0,M,-17.3,M,,*6F
$GPGSA,A,3,32,10,01,23,20,21,,,,,,,3.93,3.83,0.89*03
$GPRMC,183057.500,A,4739.3012,N,12219.3030,W,0.62,209.69,131120,,,A*71
$GPVTG,209.69,T,,M,0.62,N,1.15,K,A*38
$GPGGA,183057.750,4739.3011,N,12219.3031,W,1,06,3.83,28.1,M,-17.3,M,,*6B
$GPGSA,A,3,32,10,01,23,20,21,,,,,,,3.93,3.83,0.89*03
$GPRMC,183057.750,A,4739.3011,N,12219.3031,W,0.63,214.73,131120,,,A*72
$GPVTG,214.73,T,,M,0.63,N,1.17,K,A*3C
$GPGGA,183058.000,4739.3011,N,12219.3031,W,1,06,3.83,28.1,M,-17.3,M,,*66
$GPGSA,A,3,32,10,01,23,20,21,,,,,,,3.93,3.83,0.89*03
$GPRMC,183058.000,A,4739.3011,N,12219.3031,W,0.61,220.44,131120,,,A*7E
$GPVTG,220.44,T,,M,0.61,N,1.14,K,A*3E
$GPGGA,183058.250,4739.3011,N,12219.3032,W,1,06,3.83,28.1,M,-17.3,M,,*62
$GPGSA,A,3,32,10,01,23,20,21,,,,,,,3.93,3.83,0.89*03
$GPRMC,183058.250,A,4739.3011,N,12219.3032,W,0.57,231.17,131120,,,A*79
$GPVTG,231.17,T,,M,0.57,N,1.06,K,A*3E
$GPGGA,183058.500,4739.3012,N,12219.3033,W,1,06,3.83,28.1,M,-17.3,M,,*62
$GPGSA,A,3,32,10,01,23,20,21,,,,,,,3.93,3.83,0.89*03
$GPGSV,3,1,12,32,80,090,20,21,59,288,22,10,43,087,21,01,35,310,19*70
$GPGSV,3,2,12,08,24,243,16,22,23,284,,31,18,160,19,23,13,094,19*7A
$GPGSV,3,3,12,20,11,100,16,27,10,210,,24,08,034,21,03,02,279,*7E
$GPRMC,183058.500,A,4739.3012,N,12219.3033,W,0.52,243.44,131120,,,A*7F
$GPVTG,243.44,T,,M,0.52,N,0.97,K,A*31
$GPGGA,183058.750,4739.3012,N,12219.3033,W,1,06,3.83,28.1,M,-17.3,M,,*65
$GPGSA,A,3,32,10,01,23,20,21,,,,,,,3.93,3.83,0.89*03
$GPRMC,183058.750,A,4739.3012,N,12219.3033,W,0.52,244.88,131120,,,A*7F
$GPVTG,244.88,T,,M,0.52,N,0.96,K,A*37
$GPGGA,183059.000,4739.3012,N,12219.3034,W,1,06,3.83,28.1,M,-17.3,M,,*61
$GPGSA,A,3,32,10,01,23,20,21,,,,,,,3.93,3.83,0.89*03
$GPRMC,183059.000,A,4739.3012,N,12219.3034,W,0.55,247.64,131120,,,A*7D
$GPVTG,247.64,T,,M,0.55,N,1.03,K,A*3C
$GPGGA,183059.250,4739.3013,N,12219.3035,W,1,06,3.83,28.1,M,-17.3,M,,*66
$GPGSA,A,3,32,10,01,23,20,21,,,,,,,3.93,3.83,0.89*03
$GPRMC,183059.250,A,4739.3013,N,12219.3035,W,0.53,255.60,131120,,,A*7B
$GPVTG,255.60,T,,M,0.53,N,0.99,K,A*3F
$GPGGA,183059.500,4739.3014,N,12219.3035,W,1,06,3.83,28.1,M,-17.3,M,,*63
$GPGSA,A,3,32,10,01,23,20,21,,,,,,,3.93,3.83,0.89*03
$GPRMC,183059.500,A,4739.3014,N,12219.3035,W,0.48,266.24,131120,,,A*74
$GPVTG,266.24,T,,M,0.48,N,0.88,K,A*35
$GPGGA,183059.750,4739.3014,N,12219.3035,W,1,06,3.83,28.1,M,-17.3,M,,*64
$GPGSA,A,3,32,10,01,23,20,21,,,,,,,3.93,3.83,0.89*03
$GPGSV,3,1,12,32,80,090,19,21,59,288,21,10,43,087,20,01,35,310,18*79
$GPGSV,3,2,12,08,24,243,16,22,23,284,,31,18,160,19,23,13,094,18*7B
$GPGSV,3,3,12,20,11,101,16,27,10,210,,24,08,034,20,03,02,279,*7E
$GPRMC,183059.750,A,4739.3014,N,12219.3035,W,0.46,274.55,131120,,,A*78
$GPVTG,274.55,T,,M,0.46,N,0.86,K,A*30
$GPGGA,183100.000,4739.3014,N,12219.3036,W,1,06,3.83,28.1,M,-17.3,M,,*68
$GPGSA,A,3,32,10,01,23,20,21,,,,,,,3.93,3.83,0.89*03
$GPRMC,183100.000,A,4739.3014,N,12219.3036,W,0.46,278.02,131120,,,A*7A
$GPVTG,278.02,T,,M,0.46,N,0.85,K,A*3D
$GPGGA,183100.250,4739.3015,N,12219.3036,W,1,06,3.83,28.1,M,-17.3,M,,*6E
$GPGSA,A,3,32,10,01,23,20,21,,,,,,,3.94,3.83,0.89*04
$GPRMC,183100.250,A,4739.3015,N,12219.3036,W,0.45,284.81,131120,,,A*77
$GPVTG,284.81,T,,M,0.45,N,0.83,K,A*30
$GPGGA,183100.500,4739.3015,N,12219.3037,W,1,06,3.83,28.1,M,-17.3,M,,*6D
$GPGSA,A,3,32,10,01,23,20,21,,,,,,,3.93,3.83,0.89*03
$GPRMC,183100.500,A,4739.3015,N,12219.3037,W,0.47,284.96,131120,,,A*70
$GPVTG,284.96,T,,M,0.47,N,0.87,K,A*30
$GPGGA,183100.750,4739.3015,N,12219.3038,W,1,06,3.83,28.1,M,-17.3,M,,*65
$GPGSA,A,3,32,10,01,23,20,21,,,,,,,3.93,3.83,0.89*03
$GPRMC,183100.750,A,4739.3015,N,12219.3038,W,0.46,283.10,131120,,,A*70
$GPVTG,283.10,T,,M,0.46,N,0.86,K,A*39
$GPGGA,183101.000,4739.3014,N,12219.3038,W,1,06,3.83,28.1,M,-17.3,M,,*67
$GPGSA,A,3,32,10,01,23,20,21,,,,,,,3.93,3.83,0.89*03
$GPGSV,3,1,12,32,80,090,19,21,59,288,21,10,43,087,19,01,35,310,18*73
$GPGSV,3,2,12,08,24,243,15,22,23,284,,31,18,160,18,23,13,094,18*79
$GPGSV,3,3,12,20,11,101,16,27,10,210,,24,08,034,19,03,02,279,*74
$GPRMC,183101.000,A,4739.3014,N,12219.3038,W,0.44,278.25,131120,,,A*72
$GPVTG,278.25,T,,M,0.44,N,0.82,K,A*3D
$GPGGA,183101.250,4739.3014,N,12219.3039,W,1,06,3.83,28.1,M,-17.3,M,,*61
$GPGSA,A,3,32,10,01,23,20,21,,,,,,,3.93,3.83,0.89*03
$GPRMC,183101.250,A,4739.3014,N,12219.3039,W,0.43,273.63,131120,,,A*7A
$GPVTG,273.63,T,,M,0.43,N,0.80,K,A*31
$GPGGA,183101.500,4739.3013,N,12219.3039,W,1,06,3.84,28.1,M,-17.3,M,,*63
$GPGSA,A,3,32,10,01,23,20,21,,,,,,,3.94,3.84,0.89*03
$GPRMC,183101.500,A,4739.3013,N,12219.3039,W,0.40,270.29,131120,,,A*71
$GPVTG,270.29,T,,M,0.40,N,0.74,K,A*34
$GPGGA,183101.750,4739.3013,N,12219.3040,W,1,06,3.83,28.1,M,-17.3,M,,*6D
$GPGSA,A,3,32,10,01,23,20,21,,,,,,,3.94,3.83,0.89*04
$GPRMC,183101.750,A,4739.3013,N,12219.3040,W,0.35,270.21,131120,,,A*72
$GPVTG,270.21,T,,M,0.35,N,0.65,K,A*3E
$GPGGA,183102.000,4739.3013,N,12219.3040,W,1,06,3.83,28.1,M,-17.3,M,,*6C
$GPGSA,A,3,32,10,01,23,20,21,,,,,,,3.93,3.83,0.89*03
$GPRMC,183102.000,A,4739.3013,N,12219.3040,W,0.32,269.71,131120,,,A*79
$GPVTG,269.71,T,,M,0.32,N,0.60,K,A*31
$GPGGA,183102.250,4739.3013,N,12219.3041,W,1,06,3.83,28.1,M,-17.3,M,,*6A
$GPGSA,A,3,32,10,01,23,20,21,,,,,,,3.93,3.83,0.89*03
$GPGSV,3,1,12,32,80,090,18,21,59,288,20,10,43,087,19,01,35,310,18*73
$GPGSV,3,2,12,08,24,243,15,22,23,284,,31,18,160,18,23,13,094,18*79
$GPGSV,3,3,12,20,11,101,15,27,10,210,,24,08,034,19,03,02,279,*77
$GPRMC,183102.250,A,4739.3013,N,12219.3041,W,0.31,265.58,131120,,,A*7B
$GPVTG,265.58,T,,M,0.31,N,0.57,K,A*31
$GPGGA,183102.500,4739.3013,N,12219.3041,W,1,06,3.83,28.1,M,-17.3,M,,*68
$GPGSA,A,3,32,10,01,23,20,21,,,,,,,3.94,3.83,0.89*04
$GPRMC,183102.500,A,4739.3013,N,12219.3041,W,0.31,265.88,131120,,,A*74
$GPVTG,265.88,T,,M,0.31,N,0.58,K,A*33
$GPGGA,183102.750,4739.3013,N,12219.3041,W,1,06,3.84,28.1,M,-17.3,M,,*68
$GPGSA,A,3,32,10,01,23,20,21,,,,,,,3.94,3.84,0.89*03
$GPRMC,183102.750,A,4739.3013,N,12219.3041,W,0.30,266.05,131120,,,A*74
$GPVTG,266.05,T,,M,0.30,N,0.55,K,A*39
$GPGGA,183103.000,4739.3013,N,12219.3041,W,1,06,3.83,28.1,M,-17.3,M,,*6C
$GPGSA,A,3,32,10,01,23,20,21,,,,,,,3.94,3.83,0.89*04
$GPRMC,183103.000,A,4739.3013,N,12219.3041,W,0.29,272.16,131120,,,A*78
$GPVTG,272.16,T,,M,0.29,N,0.54,K,A*37
$GPGGA,183103.250,4739.3013,N,12219.3042,W,1,06,3.83,28.1,M,-17.3,M,,*68
$GPGSA,A,3,32,10,01,23,20,21,,,,,,,3.94,3.83,0.89*04
$GPRMC,183103.250,A,4739.3013,N,12219.3042,W,0.29,275.79,131120,,,A*72
$GPVTG,275.79,T,,M,0.29,N,0.53,K,A*3E
$GPGGA,183103.500,4739.3013,N,12219.3042,W,1,06,3.84,28.1,M,-17.3,M,,*6D
$GPGSA,A,3,32,10,01,23,20,21,,,,,,,3.94,3.84,0.89*03
$GPGSV,3,1,12,32,80,089,18,21,59,288,20,10,43,087,19,01,35,310,18*7B
$GPGSV,3,2,12,08,24,243,14,22,23,284,,31,18,160,18,23,13,094,18*78
$GPGSV,3,3,12,20,11,101,16,27,10,210,,24,08,034,19,03,02,279,*74
$GPRMC,183103.500,A,4739.3013,N,12219.3042,W,0.30,275.86,131120,,,A*78
$GPVTG,275.86,T,,M,0.30,N,0.56,K,A*33
$GPGGA,183103.750,4739.3013,N,12219.3042,W,1,06,3.84,28.1,M,-17.3,M,,*6A
$GPGSA,A,3,32,10,01,23,20,21,,,,,,,3.94,3.84,0.89*03
$GPRMC,183103.750,A,4739.3013,N,12219.3042,W,0.28,280.31,131120,,,A*70
$GPVTG,280.31,T,,M,0.28,N,0.52,K,A*38
$GPGGA,183104.000,4739.3013,N,12219.3043,W,1,06,3.83,28.1,M,-17.3,M,,*69
$GPGSA,A,3,32,10,01,23,20,21,,,,,,,3.94,3.83,0.89*04
$GPRMC,183104.000,A,4739.3013,N,12219.3043,W,0.29,273.48,131120,,,A*77
$GPVTG,273.48,T,,M,0.29,N,0.53,K,A*3A
$GPGGA,183104.250,4739.3013,N,12219.3043,W,1,06,3.84,28.1,M,-17.3,M,,*69
$GPGSA,A,3,32,10,01,23,20,21,,,,,,,3.94,3.84,0.89*03
$GPRMC,183104.250,A,4739.3013,N,12219.3043,W,0.27,260.49,131120,,,A*7D
$GPVTG,260.49,T,,M,0.27,N,0.51,K,A*35
$GPGGA,183104.500,4739.3013,N,12219.3043,W,1,06,3.84,28.1,M,-17.3,M,,*6B
$GPGSA,A,3,32,10,01,23,20,21,,,,,,,3.94,3.84,0.89*03
$GPRMC,183104.500,A,4739.3013,N,12219.3043,W,0.30,246.46,131120,,,A*72
$GPVTG,246.46,T,,M,0.30,N,0.55,K,A*3C
$GPGGA,183104.750,4739.3013,N,12219.3044,W,1,06,3.83,28.1,M,-17.3,M,,*6C
$GPGSA,A,3,32,10,01,23,20,21,,,,,,,3.93,3.83,0.89*03
$GPGSV,3,1,12,32,80,089,18,21,59,288,20,10,43,087,19,01,35,310,18*7B
$GPGSV,3,2,12,08,24,243,15,22,23,284,,31,18,160,18,23,13,094,18*79
$GPGSV,3,3,12,20,11,101,16,27,10,210,,24,08,034,20,03,02,279,*7E
$GPRMC,183104.750,A,4739.3013,N,12219.3044,W,0.33,236.06,131120,,,A*72
$GPVTG,236.06,T,,M,0.33,N,0.61,K,A*3B
$GPGGA,183105.000,4739.3013,N,12219.3044,W,1,06,3.84,28.1,M,-17.3,M,,*68
$GPGSA,A,3,32,10,01,23,20,21,,,,,,,3.94,3.84,0.89*03
$GPRMC,183105.000,A,4739.3013,N,12219.3044,W,0.38,229.25,131120,,,A*75
$GPVTG,229.25,T,,M,0.38,N,0.70,K,A*3F
$GPGGA,183105.250,4739.3013,N,12219.3044,W,1,06,3.83,28.1,M,-17.3,M,,*68
$GPGSA,A,3,32,10,01,23,20,21,,,,,,,3.94,3.83,0.89*04
$GPRMC,183105.250,A,4739.3013,N,12219.3044,W,0.41,228.12,131120,,,A*79
$GPVTG,228.12,T,,M,0.41,N,0.76,K,A*32
$GPGGA,183105.500,4739.3013,N,12219.3044,W,1,06,3.83,28.1,M,-17.3,M,,*6A
$GPGSA,A,3,32,10,01,23,20,21,,,,,,,3.94,3.83,0.89*04
$GPRMC,183105.500,A,4739.3013,N,12219.3044,W,0.43,225.81,131120,,,A*7E
$GPVTG,225.81,T,,M,0.43,N,0.80,K,A*3E
$GPGGA,183105.750,4739.3012,N,12219.3045,W,1,06,3.83,28.1,M,-17.3,M,,*6D
$GPGSA,A,3,32,10,01,23,20,21,,,,,,,3.94,3.83,0.89*04
$GPRMC,183105.750,A,4739.3012,N,12219.3045,W,0.44,226.79,131120,,,A*7A
$GPVTG,226.79,T,,M,0.44,N,0.82,K,A*3F
$GPGGA,183106.000,4739.3012,N,12219.3045,W,1,06,3.84,28.1,M,-17.3,M,,*6B
$GPGSA,A,3,32,10,01,23,20,21,,,,,,,3.94,3.84,0.89*03
$GPGSV,3,1,12,32,80,089,18,21,59,288,20,10,43,087,19,01,35,310,18*7B
$GPGSV,3,2,12,08,24,243,15,22,23,284,,31,18,160,18,23,13,094,18*79
$GPGSV,3,3,12,20,11,101,16,27,10,210,,24,08,034,19,03,02,279,*74
$GPRMC,183106.000,A,4739.3012,N,12219.3045,W,0.45,228.43,131120,,,A*7D
$GPVTG,228.43,T,,M,0.45,N,0.83,K,A*38
$GPGGA,183106.250,4739.3012,N,12219.3045,W,1,06,3.84,28.1,M,-17.3,M,,*6C
$GPGSA,A,3,32,10,01,23,20,21,,,,,,,3.94,3.84,0.89*03
$GPRMC,183106.250,A,4739.3012,N,12219.3045,W,0.47,230.33,131120,,,A*76
$GPVTG,230.33,T,,M,0.47,N,0.87,K,A*30
$GPGGA,183106.500,4739.3012,N,12219.3046,W,1,06,3.83,28.1,M,-17.3,M,,*6A
$GPGSA,A,3,32,10,01,23,20,21,,,,,,,3.94,3.83,0.89*04
$GPRMC,183106.500,A,4739.3012,N,12219.3046,W,0.48,229.07,131120,,,A*77
$GPVTG,229.07,T,,M,0.48,N,0.88,K,A*3F
$GPGGA,183106.750,4739.3012,N,12219.3046,W,1,06,3.84,28.1,M,-17.3,M,,*6A
$GPGSA,A,3,32,10,01,23,20,21,,,,,,,3.94,3.84,0.89*03
$GPRMC,183106.750,A,4739.3012,N,12219.3046,W,0.50,226.36,131120,,,A*74
$GPVTG,226.36,T,,M,0.50,N,0.94,K,A*36
$GPGGA,183107.000,4739.3011,N,12219.3047,W,1,06,3.84,28.1,M,-17.3,M,,*6B
$GPGSA,A,3,32,10,01,23,20,21,,,,,,,3.94,3.84,0.89*03
$GPRMC,183107.000,A,4739.3011,N,12219.3047,W,0.52,225.87,131120,,,A*7E
$GPVTG,225.87,T,,M,0.52,N,0.97,K,A*3E
$GPGGA,183107.250,4739.3011,N,12219.3047,W,1,06,3.84,28.1,M,-17.3,M,,*6C
$GPGSA,A,3,32,10,01,23,20,21,,,,,,,3.94,3.84,0.89*03
$GPGSV,3,1,12,32,80,089,19,21,59,288,20,10,43,087,19,01,35,310,18*7A
$GPGSV,3,2,12,08,24,243,15,22,23,284,,31,18,160,19,23,13,094,18*78
$GPGSV,3,3,12,20,11,101,16,27,10,210,,24,08,034,19,03,02,279,*74
$GPRMC,183107.250,A,4739.3011,N,12219.3047,W,0.53,228.03,131120,,,A*79
$GPVTG,228.03,T,,M,0.53,N,0.98,K,A*31
$GPGGA,183107.500,4739.3011,N,12219.3047,W,1,06,3.84,28.1,M,-17.3,M,,*6E
$GPGSA,A,3,32,10,01,23,20,21,,,,,,,3.94,3.84,0.89*03
$GPRMC,183107.500,A,4739.3011,N,12219.3047,W,0.52,230.02,131120,,,A*72
$GPVTG,230.02,T,,M,0.52,N,0.97,K,A*37
$GPGGA,183107.750,4739.3011,N,12219.3048,W,1,06,3.83,28.1,M,-17.3,M,,*61
$GPGSA,A,3,32,10,01,23,20,21,,,,,,,3.94,3.83,0.89*04
$GPRMC,183107.750,A,4739.3011,N,12219.3048,W,0.53,231.31,131120,,,A*7A
$GPVTG,231.31,T,,M,0.53,N,0.98,K,A*38
$GPGGA,183108.000,4739.3010,N,12219.3048,W,1,06,3.84,28.1,M,-17.3,M,,*6A
$GPGSA,A,3,32,10,01,23,20,21,,,,,,,3.94,3.84,0.89*03
$GPRMC,183108.000,A,4739.3010,N,12219.3048,W,0.55,230.98,131120,,,A*72
$GPVTG,230.98,T,,M,0.55,N,1.02,K,A*3E
$GPGGA,183108.250,4739.3010,N,12219.3049,W,1,06,3.84,28.1,M,-17.3,M,,*6C
$GPGSA,A,3,32,10,01,23,20,21,,,,,,,3.94,3.84,0.89*03
$GPRMC,183108.250,A,4739.3010,N,12219.3049,W,0.52,233.39,131120,,,A*7B
$GPVTG,233.39,T,,M,0.52,N,0.96,K,A*3D
$GPGGA,183108.500,4739.3010,N,12219.3049,W,1,06,3.84,28.1,M,-17.3,M,,*6E
$GPGSA,A,3,32,10,01,23,20,21,,,,,,,3.94,3.84,0.89*03
$GPGSV,3,1,12,32,80,089,19,21,59,288,20,10,43,087,19,01,35,310,17*75
$GPGSV,3,2,12,08,24,243,16,22,23,284,,31,18,160,18,23,13,094,18*7A
$GPGSV,3,3,12,20,11,101,16,27,10,210,,24,08,034,19,03,02,279,*74
$GPRMC,183108.500,A,4739.3010,N,12219.3049,W,0.53,240.35,131120,,,A*70
$GPVTG,240.35,T,,M,0.53,N,0.99,K,A*3B
$GPGGA,183108.750,4739.3010,N,12219.3050,W,1,06,3.84,28.1,M,-17.3,M,,*61
$GPGSA,A,3,32,10,01,23,20,21,,,,,,,3.94,3.84,0.89*03
$GPRMC,183108.750,A,4739.3010,N,12219.3050,W,0.59,244.90,131120,,,A*7E
$GPVTG,244.90,T,,M,0.59,N,1.09,K,A*32
$GPGGA,183109.000,4739.3010,N,12219.3050,W,1,06,3.84,28.1,M,-17.3,M,,*62
$GPGSA,A,3,32,10,01,23,20,21,,,,,,,3.94,3.84,0.89*03
$GPRMC,183109.000,A,4739.3010,N,12219.3050,W,0.57,247.07,131120,,,A*7E
$GPVTG,247.07,T,,M,0.57,N,1.05,K,A*3D
$GPGGA,183109.250,4739.3012,N,12219.3050,W,1,06,3.84,28.0,M,-17.3,M,,*66
$GPGSA,A,3,32,10,01,23,20,21,,,,,,,3.94,3.84,0.89*03
$GPRMC,183109.250,A,4739.3012,N,12219.3050,W,0.47,252.35,131120,,,A*7F
$GPVTG,252.35,T,,M,0.47,N,0.87,K,A*32
$GPGGA,183109.500,4739.3014,N,12219.3050,W,1,06,3.84,28.0,M,-17.3,M,,*62
$GPGSA,A,3,32,10,01,23,20,21,,,,,,,3.94,3.84,0.89*03
$GPRMC,183109.500,A,4739.3014,N,12219.3050,W,0.39,263.51,131120,,,A*72
$GPVTG,263.51,T,,M,0.39,N,0.72,K,A*31
$GPGGA,183109.750,4739.3016,N,12219.3049,W,1,06,3.84,28.0,M,-17.3,M,,*6F
$GPGSA,A,3,32,10,01,23,20,21,,,,,,,3.94,3.84,0.89*03
$GPGSV,3,1,12,32,80,089,19,21,59,288,20,10,43,087,19,01,35,310,17*75
$GPGSV,3,2,12,22,24,284,,08,24,243,16,31,18,160,18,23,13,094,18*7D
$GPGSV,3,3,12,20,11,101,16,27,10,210,,24,08,034,19,03,02,279,*74
$GPRMC,183109.750,A,4739.3016,N,12219.3049,W,0.35,277.23,131120,,,A*73
$GPVTG,277.23,T,,M,0.35,N,0.65,K,A*3B
$GPGGA,183110.000,4739.3018,N,12219.3049,W,1,06,3.84,28.0,M,-17.3,M,,*6B
$GPGSA,A,3,32,10,01,23,20,21,,,,,,,3.94,3.84,0.89*03
$GPRMC,183110.000,A,4739.3018,N,12219.3049,W,0.31,293.04,131120,,,A*7C
$GPVTG,293.04,T,,M,0.31,N,0.58,K,A*3E
$GPGGA,183110.250,4739.3019,N,12219.3048,W,1,06,3.84,28.0,M,-17.3,M,,*6C
$GPGSA,A,3,32,10,01,23,20,21,,,,,,,3.94,3.84,0.89*03
$GPRMC,183110.250,A,4739.3019,N,12219.3048,W,0.28,311.04,131120,,,A*78
$GPVTG,311.04,T,,M,0.28,N,0.51,K,A*34
$GPGGA,183110.500,4739.3020,N,12219.3048,W,1,06,3.84,28.0,M,-17.3,M,,*64
$GPGSA,A,3,32,10,01,23,20,21,,,,,,,3.94,3.84,0.89*03
$GPRMC,183110.500,A,4739.3020,N,12219.3048,W,0.28,331.55,131120,,,A*76
$GPVTG,331.55,T,,M,0.28,N,0.51,K,A*32
$GPGGA,183110.750,4739.3021,N,12219.3047,W,1,06,3.84,28.0,M,-17.3,M,,*6D
$GPGSA,A,3,32,10,01,23,20,21,,,,,,,3.94,3.84,0.89*03
$GPRMC,183110.750,A,4739.3021,N,12219.3047,W,0.28,346.75,131120,,,A*7D
$GPVTG,346.75,T,,M,0.28,N,0.52,K,A*33
$GPGGA,183111.000,4739.3022,N,12219.3046,W,1,06,4.22,28.0,M,-17.3,M,,*67
$GPGSA,A,3,32,10,01,23,20,21,,,,,,,4.64,4.22,1.92*0B
$GPGSV,3,1,12,32,80,089,19,21,59,288,20,10,43,087,19,01,35,310,17*75
$GPGSV,3,2,12,22,24,284,,08,24,243,14,31,18,160,18,23,13,094,17*70
$GPGSV,3,3,12,20,11,101,16,27,10,210,,24,08,034,19,03,02,279,*74
$GPRMC,183111.000,A,4739.3022,N,12219.3046,W,0.28,0.24,131120,,,A*79
$GPVTG,0.24,T,,M,0.28,N,0.52,K,A*36
$GPGGA,183111.250,4739.3022,N,12219.3046,W,1,06,3.84,28.0,M,-17.3,M,,*6B
$GPGSA,A,3,32,10,01,23,20,21,,,,,,,3.94,3.84,0.89*03
$GPRMC,183111.250,A,4739.3022,N,12219.3046,W,0.25,10.94,131120,,,A*49
$GPVTG,10.94,T,,M,0.25,N,0.47,K,A*05
$GPGGA,183111.500,4739.3022,N,12219.3046,W,1,06,3.84,28.0,M,-17.3,M,,*69
$GPGSA,A,3,32,10,01,23,20,21,,,,,,,3.94,3.84,0.89*03
$GPRMC,183111.500,A,4739.3022,N,12219.3046,W,0.23,24.83,131120,,,A*4C
$GPVTG,24.83,T,,M,0.23,N,0.43,K,A*06
$GPGGA,183111.750,4739.3022,N,12219.3045,W,1,06,3.84,28.0,M,-17.3,M,,*6D
$GPGSA,A,3,32,10,01,23,20,21,,,,,,,3.94,3.84,0.89*03
$GPRMC,183111.750,A,4739.3022,N,12219.3045,W,0.22,38.06,131120,,,A*49
$GPVTG,38.06,T,,M,0.22,N,0.41,K,A*05
$GPGGA,183112.000,4739.3022,N,12219.3045,W,1,06,3.84,28.0,M,-17.3,M,,*6C
$GPGSA,A,3,32,10,01,23,20,21,,,,,,,3.94,3.84,0.89*03
$GPRMC,183112.000,A,4739.3022,N,12219.3045,W,0.20,47.85,131120,,,A*49
$GPVTG,47.85,T,,M,0.20,N,0.38,K,A*0A
$GPGGA,183112.250,4739.3022,N,12219.3045,W,1,06,3.84,28.0,M,-17.3,M,,*6B
$GPGSA,A,3,32,10,01,23,20,21,,,,,,,3.94,3.84,0.89*03
$GPGSV,3,1,12,32,80,089,19,21,59,288,20,10,43,087,19,01,35,310,17*75
$GPGSV,3,2,12,22,24,284,,08,24,243,14,31,18,160,18,23,13,094,17*70
$GPGSV,3,3,12,20,11,101,16,27,10,210,,24,08,034,19,03,02,279,*74
$GPRMC,183112.250,A,4739.3022,N,12219.3045,W,0.17,48.73,131120,,,A*4C
$GPVTG,48.73,T,,M,0.17,N,0.31,K,A*01
$GPGGA,183112.500,4739.3022,N,12219.3045,W,1,06,3.84,28.0,M,-17.3,M,,*69
$GPGSA,A,3,32,10,01,23,20,21,,,,,,,3.94,3.84,0.89*03
$GPRMC,183112.500,A,4739.3022,N,12219.3045,W,0.10,33.68,131120,,,A*4F
$GPVTG,33.68,T,,M,0.10,N,0.19,K,A*0A
$GPGGA,183112.750,4739.3022,N,12219.3045,W,1,06,3.84,28.0,M,-17.3,M,,*6E
$GPGSA,A,3,32,10,01,23,20,21,,,,,,,3.94,3.84,0.89*03
$GPRMC,183112.750,A,4739.3022,N,12219.3045,W,0.09,7.79,131120,,,A*77
$GPVTG,7.79,T,,M,0.09,N,0.17,K,A*3B
$GPGGA,183113.000,4739.3023,N,12219.3045,W,1,06,4.22,28.0,M,-17.3,M,,*67
$GPGSA,A,3,32,10,01,23,20,21,,,,,,,4.64,4.22,1.92*0B
$GPRMC,183113.000,A,4739.3023,N,12219.3045,W,0.10,325.10,131120,,,A*71
$GPVTG,325.10,T,,M,0.10,N,0.19,K,A*31
$GPGGA,183113.250,4739.3023,N,12219.3045,W,1,06,3.84,28.0,M,-17.3,M,,*6B
$GPGSA,A,3,32,10,01,23,20,21,,,,,,,3.94,3.84,0.89*03
$GPRMC,183113.250,A,4739.3023,N,12219.3045,W,0.16,302.70,131120,,,A*73
$GPVTG,302.70,T,,M,0.16,N,0.30,K,A*3F
$GPGGA,183113.500,4739.3023,N,12219.3045,W,1,06,3.84,28.0,M,-17.3,M,,*69
$GPGSA,A,3,32,10,01,23,20,21,,,,,,,3.94,3.84,0.89*03
$GPGSV,3,1,12,32,80,089,19,21,59,288,20,10,43,087,19,01,35,310,17*75
$GPGSV,3,2,12,22,24,284,,08,24,243,14,31,18,160,18,23,13,094,17*70
$GPGSV,3,3,12,20,11,101,16,27,10,210,,24,08,034,19,03,02,279,*74
$GPRMC,183113.500,A,4739.3023,N,12219.3045,W,0.25,291.67,131120,,,A*7C
$GPVTG,291.67,T,,M,0.25,N,0.47,K,A*32
$GPGGA,183113.750,4739.3023,N,12219.3045,W,1,06,3.84,28.0,M,-17.3,M,,*6E
$GPGSA,A,3,32,10,01,23,20,21,,,,,,,3.94,3.84,0.89*03
$GPRMC,183113.750,A,4739.3023,N,12219.3045,W,0.33,293.31,131120,,,A*7D
$GPVTG,293.31,T,,M,0.33,N,0.62,K,A*33
$GPGGA,183114.000,4739.3023,N,12219.3045,W,1,06,3.84,28.0,M,-17.3,M,,*6B
$GPGSA,A,3,32,10,01,23,20,21,,,,,,,3.94,3.84,0.89*03
$GPRMC,183114.000,A,4739.3023,N,12219.3045,W,0.41,291.23,131120,,,A*7C
$GPVTG,291.23,T,,M,0.41,N,0.77,K,A*33
$GPGGA,183114.250,4739.3023,N,12219.3046,W,1,06,3.84,28.0,M,-17.3,M,,*6F
$GPGSA,A,3,32,10,01,23,20,21,,,,,,,3.94,3.84,0.89*03
$GPRMC,183114.250,A,4739.3023,N,12219.3046,W,0.48,289.77,131120,,,A*79
$GPVTG,289.77,T,,M,0.48,N,0.90,K,A*3B
$GPGGA,183114.500,4739.3023,N,12219.3046,W,1,06,3.84,28.0,M,-17.3,M,,*6D
$GPGSA,A,3,32,10,01,23,20,21,,,,,,,3.94,3.84,0.89*03
$GPRMC,183114.500,A,4739.3023,N,12219.3046,W,0.55,289.17,131120,,,A*71
$GPVTG,289.17,T,,M,0.55,N,1.02,K,A*3B
$GPGGA,183114.750,4739.3023,N,12219.3047,W,1,06,3.84,28.0,M,-17.3,M,,*6B
$GPGSA,A,3,32,10,01,23,20,21,,,,,,,3.94,3.84,0.89*03
$GPGSV,3,1,12,32,80,089,18,21,59,288,20,10,43,087,19,01,35,310,17*74
$GPGSV,3,2,12,22,24,284,,08,24,243,14,31,18,160,18,23,13,094,17*70
$GPGSV,3,3,12,20,11,101,16,27,10,210,,24,08,034,19,03,02,279,*74
$GPRMC,183114.750,A,4739.3023,N,12219.3047,W,0.63,286.69,131120,,,A*74
$GPVTG,286.69,T,,M,0.63,N,1.16,K,A*3D
$GPGGA,183115.000,4739.3024,N,12219.3048,W,1,06,3.84,28.0,M,-17.3,M,,*60
$GPGSA,A,3,32,10,01,23,20,21,,,,,,,3.94,3.84,0.89*03
$GPRMC,183115.000,A,4739.3024,N,12219.3048,W,0.67,285.04,131120,,,A*73
$GPVTG,285.04,T,,M,0.67,N,1.24,K,A*30
$GPGGA,183115.250,4739.3024,N,12219.3048,W,1,06,3.84,28.0,M,-17.3,M,,*67
$GPGSA,A,3,32,10,01,23,20,21,,,,,,,3.94,3.84,0.89*03
$GPRMC,183115.250,A,4739.3024,N,12219.3048,W,0.68,285.59,131120,,,A*73
$GPVTG,285.59,T,,M,0.68,N,1.26,K,A*35
$GPGGA,183115.500,4739.3025,N,12219.3049,W,1,06,3.84,28.0,M,-17.3,M,,*65
$GPGSA,A,3,32,10,01,23,20,21,,,,,,,3.94,3.84,0.89*03
$GPRMC,183115.500,A,4739.3025,N,12219.3049,W,0.68,286.94,131120,,,A*73
$GPVTG,286.94,T,,M,0.68,N,1.27,K,A*36
$GPGGA,183115.750,4739.3026,N,12219.3049,W,1,06,3.84,28.0,M,-17.3,M,,*61
$GPGSA,A,3,32,10,01,23,20,21,,,,,,,3.94,3.84,0.89*03
$GPRMC,183115.750,A,4739.3026,N,12219.3049,W,0.67,288.37,131120,,,A*7F
$GPVTG,288.37,T,,M,0.67,N,1.24,K,A*3D
$GPGGA,183116.000,4739.3027,N,12219.3049,W,1,06,3.84,28.0,M,-17.3,M,,*61
$GPGSA,A,3,32,10,01,23,20,21,,,,,,,3.94,3.84,0.89*03
$GPGSV,3,1,12,32,80,089,18,21,59,288,20,10,43,087,19,01,35,310,17*74
$GPGSV,3,2,12,22,24,284,,08,24,243,14,31,18,160,18,23,13,094,17*70
$GPGSV,3,3,12,20,11,101,16,27,10,210,,24,08,034,19,03,02,279,*74
$GPRMC,183116.000,A,4739.3027,N,12219.3049,W,0.61,292.62,131120,,,A*72
$GPVTG,292.62,T,,M,0.61,N,1.13,K,A*34
$GPGGA,183116.250,4739.3028,N,12219.3049,W,1,06,3.84,28.0,M,-17.3,M,,*69
$GPGSA,A,3,32,10,01,23,20,21,,,,,,,3.94,3.84,0.89*03
$GPRMC,183116.250,A,4739.3028,N,12219.3049,W,0.55,296.73,131120,,,A*79
$GPVTG,296.73,T,,M,0.55,N,1.02,K,A*37
$GPGGA,183116.500,4739.3030,N,12219.3049,W,1,06,3.84,28.0,M,-17.3,M,,*62
$GPGSA,A,3,32,10,01,23,20,21,,,,,,,3.94,3.84,0.89*03
$GPRMC,183116.500,A,4739.3030,N,12219.3049,W,0.53,302.05,131120,,,A*79
$GPVTG,302.05,T,,M,0.53,N,0.99,K,A*3F
$GPGGA,183116.750,4739.3031,N,12219.3049,W,1,06,3.84,28.0,M,-17.3,M,,*64
$GPGSA,A,3,32,10,01,23,20,21,,,,,,,3.94,3.84,0.89*03
$GPRMC,183116.750,A,4739.3031,N,12219.3049,W,0.54,304.92,131120,,,A*70
$GPVTG,304.92,T,,M,0.54,N,1.00,K,A*31
$GPGGA,183117.000,4739.3032,N,12219.3048,W,1,06,3.84,28.0,M,-17.3,M,,*65
$GPGSA,A,3,32,10,01,23,20,21,,,,,,,3.94,3.84,0.89*03
$GPRMC,183117.000,A,4739.3032,N,12219.3048,W,0.49,309.83,131120,,,A*70
$GPVTG,309.83,T,,M,0.49,N,0.91,K,A*39
$GPGGA,183117.250,4739.3034,N,12219.3048,W,1,06,3.84,28.0,M,-17.3,M,,*64
$GPGSA,A,3,32,10,01,23,20,21,,,,,,,3.94,3.84,0.89*03
$GPGSV,3,1,12,32,80,089,19,21,59,288,20,10,43,087,19,01,35,310,17*75
$GPGSV,3,2,12,22,24,284,,08,24,243,15,31,18,160,18,23,13,094,17*71
$GPGSV,3,3,12,20,11,101,15,27,10,210,,24,08,034,19,03,02,279,*77
$GPRMC,183117.250,A,4739.3034,N,12219.3048,W,0.46,316.42,131120,,,A*7D
$GPVTG,316.42,T,,M,0.46,N,0.85,K,A*30
$GPGGA,183117.500,4739.3035,N,12219.3047,W,1,06,3.84,28.0,M,-17.3,M,,*68
$GPGSA,A,3,32,10,01,23,20,21,,,,,,,3.94,3.84,0.89*03
$GPRMC,183117.500,A,4739.3035,N,12219.3047,W,0.44,321.28,131120,,,A*7B
$GPVTG,321.28,T,,M,0.44,N,0.82,K,A*3D
$GPGGA,183117.750,4739.3036,N,12219.3047,W,1,06,3.84,28.0,M,-17.3,M,,*6C
$GPGSA,A,3,32,10,01,23,20,21,,,,,,,3.94,3.84,0.89*03
$GPRMC,183117.750,A,4739.3036,N,12219.3047,W,0.40,326.19,131120,,,A*7E
$GPVTG,326.19,T,,M,0.40,N,0.75,K,A*34
$GPGGA,183118.000,4739.3038,N,12219.3047,W,1,06,3.84,28.0,M,-17.3,M,,*6F
$GPGSA,A,3,32,10,01,23,20,21,,,,,,,3.94,3.84,0.89*03
$GPRMC,183118.000,A,4739.3038,N,12219.3047,W,0.37,329.72,131120,,,A*7F
$GPVTG,329.72,T,,M,0.37,N,0.69,K,A*3B
$GPGGA,183118.250,4739.3038,N,12219.3046,W,1,06,3.84,28.0,M,-17.3,M,,*69
$GPGSA,A,3,32,10,01,23,20,21,,,,,,,3.94,3.84,0.89*03
$GPRMC,183118.250,A,4739.3038,N,12219.3046,W,0.34,332.09,131120,,,A*7C
$GPVTG,332.09,T,,M,0.34,N,0.63,K,A*34
$GPGGA,183118.500,4739.3040,N,12219.3046,W,1,06,3.84,28.0,M,-17.3,M,,*64
$GPGSA,A,3,32,10,01,23,20,21,,,,,,,3.94,3.84,0.89*03
$GPGSV,3,1,12,32,80,089,19,21,59,288,20,10,43,087,19,01,35,310,17*75
$GPGSV,3,2,12,22,24,284,,08,24,243,15,31,18,160,18,23,13,094,17*71
$GPGSV,3,3,12,20,11,101,15,27,10,210,,24,08,034,19,03,02,279,*77
$GPRMC,183118.500,A,4739.3040,N,12219.3046,W,0.32,335.19,131120,,,A*71
$GPVTG,335.19,T,,M,0.32,N,0.59,K,A*3D
$GPGGA,183118.750,4739.3045,N,12219.3045,W,1,06,3.84,28.0,M,-17.3,M,,*65
$GPGSA,A,3,32,10,01,23,20,21,,,,,,,3.94,3.84,0.89*03
$GPRMC,183118.750,A,4739.3045,N,12219.3045,W,0.34,344.26,131120,,,A*7C
$GPVTG,344.26,T,,M,0.34,N,0.64,K,A*3F
$GPGGA,183119.000,4739.3050,N,12219.3044,W,1,06,3.84,27.9,M,-17.3,M,,*65
$GPGSA,A,3,32,10,01,23,20,21,,,,,,,3.94,3.84,0.89*03
$GPRMC,183119.000,A,4739.3050,N,12219.3044,W,0.37,353.32,131120,,,A*7A
$GPVTG,353.32,T,,M,0.37,N,0.69,K,A*32
$GPGGA,183119.250,4739.3048,N,12219.3044,W,1,06,4.22,27.9,M,-17.3,M,,*60
$GPGSA,A,3,32,10,01,23,20,21,,,,,,,4.63,4.22,1.92*0C
$GPRMC,183119.250,A,4739.3048,N,12219.3044,W,0.31,359.92,131120,,,A*72
$GPVTG,359.92,T,,M,0.31,N,0.58,K,A*36
$GPGGA,183119.500,4739.3047,N,12219.3044,W,1,06,4.22,27.9,M,-17.3,M,,*6D
$GPGSA,A,3,32,10,01,23,20,21,,,,,,,4.63,4.22,1.92*0C
$GPRMC,183119.500,A,4739.3047,N,12219.3044,W,0.29,3.27,131120,,,A*74
$GPVTG,3.27,T,,M,0.29,N,0.54,K,A*31
$GPGGA,183119.750,4739.3047,N,12219.3044,W,1,06,4.21,27.9,M,-17.3,M,,*69
$GPGSA,A,3,32,10,01,23,20,21,,,,,,,4.63,4.21,1.92*0F
$GPGSV,3,1,12,32,80,089,19,21,59,288,21,10,43,087,19,01,35,310,18*7B
$GPGSV,3,2,12,22,24,284,,08,24,243,16,31,18,160,18,23,13,094,17*72
$GPGSV,3,3,12,20,11,101,17,27,10,210,,24,08,034,19,03,02,279,*75
$GPRMC,183119.750,A,4739.3047,N,12219.3044,W,0.27,353.75,131120,,,A*7C
$GPVTG,353.75,T,,M,0.27,N,0.49,K,A*32
$GPGGA,183120.000,4739.3048,N,12219.3044,W,1,06,4.22,27.9,M,-17.3,M,,*6D
$GPGSA,A,3,32,10,01,23,20,21,,,,,,,4.63,4.22,1.92*0C
$GPRMC,183120.000,A,4739.3048,N,12219.3044,W,0.25,342.31,131120,,,A*79
$GPVTG,342.31,T,,M,0.25,N,0.47,K,A*3E
$GPGGA,183120.250,4739.3048,N,12219.3044,W,1,06,3.84,27.9,M,-17.3,M,,*61
$GPGSA,A,3,32,10,01,23,20,21,,,,,,,3.94,3.84,0.89*03
$GPRMC,183120.250,A,4739.3048,N,12219.3044,W,0.19,324.68,131120,,,A*7D
$GPVTG,324.68,T,,M,0.19,N,0.36,K,A*3B
$GPGGA,183120.500,4739.3048,N,12219.3044,W,1,06,3.84,27.9,M,-17.3,M,,*63
$GPGSA,A,3,32,10,01,23,20,21,,,,,,,3.94,3.84,0.89*03
$GPRMC,183120.500,A,4739.3048,N,12219.3044,W,0.15,307.37,131120,,,A*78
$GPVTG,307.37,T,,M,0.15,N,0.28,K,A*33
$GPGGA,183120.750,4739.3048,N,12219.3044,W,1,06,3.84,28.0,M,-17.3,M,,*62
$GPGSA,A,3,32,10,01,23,20,21,,,,,,,3.94,3.84,0.89*03
$GPRMC,183120.750,A,4739.3048,N,12219.3044,W,0.20,274.64,131120,,,A*7A
$GPVTG,274.64,T,,M,0.20,N,0.36,K,A*39
$GPGGA,183121.000,4739.3048,N,12219.3044,W,1,06,3.84,28.0,M,-17.3,M,,*61
$GPGSA,A,3,32,10,01,23,20,21,,,,,,,3.94,3.84,0.89*03
$GPGSV,3,1,12,32,80,089,19,21,59,288,20,10,43,087,20,01,35,310,18*70
$GPGSV,3,2,12,22,24,284,,08,24,243,16,31,18,160,18,23,13,094,17*72
$GPGSV,3,3,12,20,11,101,17,27,10,210,,24,08,034,18,03,02,279,*74
$GPRMC,183121.000,A,4739.3048,N,12219.3044,W,0.22,261.46,131120,,,A*7F
$GPVTG,261.46,T,,M,0.22,N,0.41,K,A*3F
$GPGGA,183121.250,4739.3048,N,12219.3045,W,1,06,3.84,28.0,M,-17.3,M,,*67
$GPGSA,A,3,32,10,01,23,20,21,,,,,,,3.94,3.84,0.89*03
$GPRMC,183121.250,A,4739.3048,N,12219.3045,W,0.28,247.78,131120,,,A*7A
$GPVTG,247.78,T,,M,0.28,N,0.53,K,A*3F
$GPGGA,183121.500,4739.3048,N,12219.3045,W,1,06,3.84,28.0,M,-17.3,M,,*65
$GPGSA,A,3,32,10,01,23,20,21,,,,,,,3.94,3.84,0.89*03
$GPRMC,183121.500,A,4739.3048,N,12219.3045,W,0.37,242.02,131120,,,A*7E
$GPVTG,242.02,T,,M,0.37,N,0.68,K,A*31
$GPGGA,183121.750,4739.3048,N,12219.3045,W,1,06,3.84,28.0,M,-17.3,M,,*62
$GPGSA,A,3,32,10,01,23,20,21,,,,,,,3.94,3.84,0.89*03
$GPRMC,183121.750,A,4739.3048,N,12219.3045,W,0.43,241.39,131120,,,A*71
$GPVTG,241.39,T,,M,0.43,N,0.79,K,A*39
$GPGGA,183122.000,4739.3047,N,12219.3046,W,1,06,3.84,28.0,M,-17.3,M,,*6F
$GPGSA,A,3,32,10,01,23,20,21,,,,,,,3.95,3.84,0.89*02
$GPRMC,183122.000,A,4739.3047,N,12219.3046,W,0.48,242.07,131120,,,A*79
$GPVTG,242.07,T,,M,0.48,N,0.90,K,A*3B
$GPGGA,183122.250,4739.3047,N,12219.3046,W,1,06,3.84,28.0,M,-17.3,M,,*68
$GPGSA,A,3,32,10,01,23,20,21,,,,,,,3.94,3.84,0.89*03
$GPGSV,3,1,12,32,80,089,20,21,59,288,20,10,43,087,20,01,35,310,18*7A
$GPGSV,3,2,12,22,24,284,,08,24,243,16,31,18,160,18,23,13,094,17*72
$GPGSV,3,3,12,20,11,101,15,27,10,210,,24,08,034,18,03,02,279,*76
$GPRMC,183122.250,A,4739.3047,N,12219.3046,W,0.55,242.11,131120,,,A*75
$GPVTG,242.11,T,,M,0.55,N,1.02,K,A*3A
$GPGGA,183122.500,4739.3047,N,12219.3047,W,1,06,3.84,28.0,M,-17.3,M,,*6B
$GPGSA,A,3,32,10,01,23,20,21,,,,,,,3.95,3.84,0.89*02
$GPRMC,183122.500,A,4739.3047,N,12219.3047,W,0.57,241.98,131120,,,A*76
$GPVTG,241.98,T,,M,0.57,N,1.06,K,A*3E
$GPGGA,183122.750,4739.3047,N,12219.3047,W,1,06,3.84,28.0,M,-17.3,M,,*6C
$GPGSA,A,3,32,10,01,23,20,21,,,,,,,3.94,3.84,0.89*03
$GPRMC,183122.750,A,4739.3047,N,12219.3047,W,0.56,241.96,131120,,,A*7E
$GPVTG,241.96,T,,M,0.56,N,1.03,K,A*34
$GPGGA,183123.000,4739.3047,N,12219.3048,W,1,06,3.84,28.0,M,-17.3,M,,*60
$GPGSA,A,3,32,10,01,23,20,21,,,,,,,3.94,3.84,0.89*03
$GPRMC,183123.000,A,4739.3047,N,12219.3048,W,0.60,241.30,131120,,,A*7B
$GPVTG,241.30,T,,M,0.60,N,1.11,K,A*3E
$GPGGA,183123.250,4739.3045,N,12219.3049,W,1,06,3.84,28.0,M,-17.3,M,,*64
$GPGSA,A,3,32,10,01,23,20,21,,,,,,,3.95,3.84,0.89*02
$GPRMC,183123.250,A,4739.3045,N,12219.3049,W,0.67,241.33,131120,,,A*7B
$GPVTG,241.33,T,,M,0.67,N,1.23,K,A*3B
$GPGGA,183123.500,4739.3044,N,12219.3050,W,1,06,3.84,28.0,M,-17.3,M,,*6F
$GPGSA,A,3,32,10,01,23,20,21,,,,,,,3.95,3.84,0.89*02
$GPGSV,3,1,12,32,80,089,20,21,59,288,20,10,43,087,20,01,35,310,18*7A
$GPGSV,3,2,12,22,24,284,,08,24,243,16,31,18,160,18,23,13,094,17*72
$GPGSV,3,3,12,20,11,101,15,27,10,210,,24,08,034,18,03,02,279,*76
$GPRMC,183123.500,A,4739.3044,N,12219.3050,W,0.69,240.97,131120,,,A*71
$GPVTG,240.97,T,,M,0.69,N,1.27,K,A*3E
$GPGGA,183123.750,4739.3044,N,12219.3051,W,1,06,3.84,28.0,M,-17.3,M,,*69
$GPGSA,A,3,32,10,01,23,20,21,,,,,,,3.95,3.84,0.89*02
$GPRMC,183123.750,A,4739.3044,N,12219.3051,W,0.69,241.98,131120,,,A*79
$GPVTG,241.98,T,,M,0.69,N,1.28,K,A*3F
$GPGGA,183124.000,4739.3044,N,12219.3051,W,1,06,3.84,28.0,M,-17.3,M,,*6C
$GPGSA,A,3,32,10,01,23,20,21,,,,,,,3.94,3.84,0.89*03
$GPRMC,183124.000,A,4739.3044,N,12219.3051,W,0.66,239.00,131120,,,A*7D
$GPVTG,239.00,T,,M,0.66,N,1.22,K,A*34
$GPGGA,183124.250,4739.3043,N,12219.3051,W,1,06,3.84,28.0,M,-17.3,M,,*6C
$GPGSA,A,3,32,10,01,23,20,21,,,,,,,3.94,3.84,0.89*03
$GPRMC,183124.250,A,4739.3043,N,12219.3051,W,0.61,231.51,131120,,,A*76
$GPVTG,231.51,T,,M,0.61,N,1.13,K,A*3D
$GPGGA,183124.500,4739.3042,N,12219.3051,W,1,06,3.84,28.0,M,-17.3,M,,*6F
$GPGSA,A,3,32,10,01,23,20,21,,,,,,,3.95,3.84,0.89*02
$GPRMC,183124.500,A,4739.3042,N,12219.3051,W,0.59,220.35,131120,,,A*7C
$GPVTG,220.35,T,,M,0.59,N,1.08,K,A*3E
$GPGGA,183124.750,4739.3042,N,12219.3051,W,1,06,3.85,28.0,M,-17.3,M,,*69
$GPGSA,A,3,32,10,01,23,20,21,,,,,,,3.95,3.85,0.89*03
$GPGSV,3,1,12,32,80,089,20,21,59,288,20,10,43,087,20,01,35,310,18*7A
$GPGSV,3,2,12,22,24,284,,08,24,243,15,31,18,160,17,23,13,094,17*7E
$GPGSV,3,3,12,20,11,101,15,27,10,210,,24,08,034,18,03,02,279,*76
$GPRMC,183124.750,A,4739.3042,N,12219.3051,W,0.56,209.56,131120,,,A*7A
$GPVTG,209.56,T,,M,0.56,N,1.04,K,A*33
$GPGGA,183125.000,4739.3041,N,12219.3050,W,1,06,3.84,28.0,M,-17.3,M,,*69
$GPGSA,A,3,32,10,01,23,20,21,,,,,,,3.95,3.84,0.89*02
$GPRMC,183125.000,A,4739.3041,N,12219.3050,W,0.53,200.82,131120,,,A*7E
$GPVTG,200.82,T,,M,0.53,N,0.98,K,A*32
$GPGGA,183125.250,4739.3042,N,12219.3050,W,1,06,3.84,28.0,M,-17.3,M,,*6D
$GPGSA,A,3,32,10,01,23,20,21,,,,,,,3.95,3.84,0.89*02
$GPRMC,183125.250,A,4739.3042,N,12219.3050,W,0.46,188.40,131120,,,A*73
$GPVTG,188.40,T,,M,0.46,N,0.86,K,A*34
$GPGGA,183125.500,4739.3042,N,12219.3049,W,1,06,3.84,28.0,M,-17.3,M,,*67
$GPGSA,A,3,32,10,01,23,20,21,,,,,,,3.94,3.84,0.89*03
$GPRMC,183125.500,A,4739.3042,N,12219.3049,W,0.44,177.11,131120,,,A*7F
$GPVTG,177.11,T,,M,0.44,N,0.82,K,A*36
$GPGGA,183125.750,4739.3040,N,12219.3049,W,1,06,3.85,28.0,M,-17.3,M,,*63
$GPGSA,A,3,32,10,01,23,20,21,,,,,,,3.95,3.85,0.89*03
$GPRMC,183125.750,A,4739.3040,N,12219.3049,W,0.47,176.41,131120,,,A*7D
$GPVTG,176.41,T,,M,0.47,N,0.88,K,A*3B
$GPGGA,183126.000,4739.3038,N,12219.3049,W,1,06,3.84,28.0,M,-17.3,M,,*6C
$GPGSA,A,3,32,10,01,23,20,21,,,,,,,3.94,3.84,0.89*03
$GPGSV,3,1,12,32,80,089,19,21,59,288,20,10,43,087,19,01,35,310,18*7A
$GPGSV,3,2,12,22,24,284,,08,24,243,15,31,18,160,17,23,13,094,17*7E
$GPGSV,3,3,12,20,11,101,16,27,10,210,,24,08,034,18,03,02,279,*75
$GPRMC,183126.000,A,4739.3038,N,12219.3049,W,0.50,177.95,131120,,,A*7D
$GPVTG,177.95,T,,M,0.50,N,0.93,K,A*3F
$GPGGA,183126.250,4739.3036,N,12219.3050,W,1,06,3.85,28.0,M,-17.3,M,,*6C
$GPGSA,A,3,32,10,01,23,20,21,,,,,,,3.95,3.85,0.89*03
$GPRMC,183126.250,A,4739.3036,N,12219.3050,W,0.52,180.25,131120,,,A*7D
$GPVTG,180.25,T,,M,0.52,N,0.96,K,A*3B
$GPGGA,183126.500,4739.3035,N,12219.3050,W,1,06,3.84,28.0,M,-17.3,M,,*6C
$GPGSA,A,3,32,10,01,23,20,21,,,,,,,3.94,3.84,0.89*03
$GPRMC,183126.500,A,4739.3035,N,12219.3050,W,0.51,186.83,131120,,,A*75
$GPVTG,186.83,T,,M,0.51,N,0.95,K,A*31
$GPGGA,183126.750,4739.3034,N,12219.3050,W,1,06,3.85,28.0,M,-17.3,M,,*6B
$GPGSA,A,3,32,10,01,23,20,21,,,,,,,3.95,3.85,0.89*03
$GPRMC,183126.750,A,4739.3034,N,12219.3050,W,0.54,191.62,131120,,,A*7F
$GPVTG,191.62,T,,M,0.54,N,0.99,K,A*31
$GPGGA,183127.000,4739.3032,N,12219.3050,W,1,06,3.84,28.0,M,-17.3,M,,*6F
$GPGSA,A,3,32,10,01,23,20,21,,,,,,,3.95,3.84,0.89*02
$GPRMC,183127.000,A,4739.3032,N,12219.3050,W,0.61,194.21,131120,,,A*7E
$GPVTG,194.21,T,,M,0.61,N,1.13,K,A*36
$GPGGA,183127.250,4739.3030,N,12219.3051,W,1,06,3.84,28.0,M,-17.3,M,,*6B
$GPGSA,A,3,32,10,01,23,20,21,,,,,,,3.95,3.84,0.89*02
$GPGSV,3,1,12,32,80,089,19,21,59,288,20,10,43,087,19,01,35,310,18*7A
$GPGSV,3,2,12,22,24,284,,08,24,243,15,31,18,160,17,23,13,094,17*7E
$GPGSV,3,3,12,20,11,101,15,27,10,210,,24,08,034,18,03,02,279,*76
$GPRMC,183127.250,A,4739.3030,N,12219.3051,W,0.69,199.33,131120,,,A*7C
$GPVTG,199.33,T,,M,0.69,N,1.28,K,A*38
$GPGGA,183127.500,4739.3030,N,12219.3052,W,1,06,3.84,28.0,M,-17.3,M,,*6A
$GPGSA,A,3,32,10,01,23,20,21,,,,,,,3.95,3.84,0.89*02
$GPRMC,183127.500,A,4739.3030,N,12219.3052,W,0.75,204.17,131120,,,A*71
$GPVTG,204.17,T,,M,0.75,N,1.38,K,A*35
$GPGGA,183127.750,4739.3028,N,12219.3053,W,1,06,3.84,28.0,M,-17.3,M,,*65
$GPGSA,A,3,32,10,01,23,20,21,,,,,,,3.95,3.84,0.89*02
$GPRMC,183127.750,A,4739.3028,N,12219.3053,W,0.83,207.33,131120,,,A*72
$GPVTG,207.33,T,,M,0.83,N,1.55,K,A*32
$GPGGA,183128.000,4739.3027,N,12219.3054,W,1,06,3.84,28.0,M,-17.3,M,,*60
$GPGSA,A,3,32,10,01,23,20,21,,,,,,,3.95,3.84,0.89*02
$GPRMC,183128.000,A,4739.3027,N,12219.3054,W,0.88,207.64,131120,,,A*7E
$GPVTG,207.64,T,,M,0.88,N,1.63,K,A*3E
$GPGGA,183128.250,4739.3027,N,12219.3054,W,1,06,3.85,28.0,M,-17.3,M,,*66
$GPGSA,A,3,32,10,01,23,20,21,,,,,,,3.95,3.85,0.89*03
$GPRMC,183128.250,A,4739.3027,N,12219.3054,W,0.85,210.12,131120,,,A*73
$GPVTG,210.12,T,,M,0.85,N,1.58,K,A*3C
$GPGGA,183128.500,4739.3027,N,12219.3054,W,1,06,3.84,28.0,M,-17.3,M,,*65
$GPGSA,A,3,32,10,01,23,20,21,,,,,,,3.95,3.84,0.89*02
$GPGSV,3,1,12,32,80,089,20,21,59,288,20,10,43,087,19,01,35,310,18*70
$GPGSV,3,2,12,22,24,284,,08,24,243,14,31,18,160,17,23,13,094,17*7F
$GPGSV,3,3,12,20,11,101,16,27,10,210,,24,08,034,19,03,02,279,*74
$GPRMC,183128.500,A,4739.3027,N,12219.3054,W,0.83,212.92,131120,,,A*7D
$GPVTG,212.92,T,,M,0.83,N,1.54,K,A*3C
$GPGGA,183128.750,4739.3027,N,12219.3054,W,1,06,3.85,28.0,M,-17.3,M,,*63
$GPGSA,A,3,32,10,01,23,20,21,,,,,,,3.95,3.85,0.89*03
$GPRMC,183128.750,A,4739.3027,N,12219.3054,W,0.84,215.66,131120,,,A*71
$GPVTG,215.66,T,,M,0.84,N,1.55,K,A*36
$GPGGA,183129.000,4739.3025,N,12219.3055,W,1,06,3.85,28.0,M,-17.3,M,,*63
$GPGSA,A,3,32,10,01,23,20,21,,,,,,,3.95,3.85,0.89*03
$GPRMC,183129.000,A,4739.3025,N,12219.3055,W,0.88,217.89,131120,,,A*7E
$GPVTG,217.89,T,,M,0.88,N,1.64,K,A*3B
$GPGGA,183129.250,4739.3023,N,12219.3055,W,1,06,3.84,28.0,M,-17.3,M,,*63
$GPGSA,A,3,32,10,01,23,20,21,,,,,,,3.95,3.84,0.89*02
$GPRMC,183129.250,A,4739.3023,N,12219.3055,W,0.89,218.24,131120,,,A*76
$GPVTG,218.24,T,,M,0.89,N,1.65,K,A*33
$GPGGA,183129.500,4739.3022,N,12219.3055,W,1,06,3.84,28.0,M,-17.3,M,,*60
$GPGSA,A,3,32,10,01,23,20,21,,,,,,,3.95,3.84,0.89*02
$GPRMC,183129.500,A,4739.3022,N,12219.3055,W,0.86,217.14,131120,,,A*76
$GPVTG,217.14,T,,M,0.86,N,1.59,K,A*3F
$GPGGA,183129.750,4739.3021,N,12219.3055,W,1,06,3.85,28.0,M,-17.3,M,,*65
$GPGSA,A,3,32,10,01,23,20,21,,,,,,,3.95,3.85,0.89*03
$GPGSV,3,1,12,32,80,089,20,21,59,288,20,10,43,087,19,01,35,310,18*70
$GPGSV,3,2,12,22,24,284,,08,24,243,14,31,19,159,17,23,13,094,16*75
$GPGSV,3,3,12,20,11,101,16,27,10,210,,24,08,034,19,03,02,279,*74
$GPRMC,183129.750,A,4739.3021,N,12219.3055,W,0.82,216.91,131120,,,A*7A
$GPVTG,216.91,T,,M,0.82,N,1.53,K,A*3D
$GPGGA,183130.000,4739.3021,N,12219.3055,W,1,06,3.85,28.0,M,-17.3,M,,*6F
$GPGSA,A,3,32,10,01,23,20,21,,,,,,,3.95,3.85,0.89*03
$GPRMC,183130.000,A,4739.3021,N,12219.3055,W,0.80,218.56,131120,,,A*77
$GPVTG,218.56,T,,M,0.80,N,1.49,K,A*31
$GPGGA,183130.250,4739.3021,N,12219.3055,W,1,06,3.85,28.0,M,-17.3,M,,*68
$GPGSA,A,3,32,10,01,23,20,21,,,,,,,3.95,3.85,0.89*03
$GPRMC,183130.250,A,4739.3021,N,12219.3055,W,0.72,222.73,131120,,,A*73
$GPVTG,222.73,T,,M,0.72,N,1.33,K,A*3F
$GPGGA,183130.500,4739.3022,N,12219.3054,W,1,06,3.85,28.0,M,-17.3,M,,*68
$GPGSA,A,3,32,10,01,23,20,21,,,,,,,3.95,3.85,0.89*03
$GPRMC,183130.500,A,4739.3022,N,12219.3054,W,0.62,225.98,131120,,,A*70
$GPVTG,225.98,T,,M,0.62,N,1.16,K,A*3B
$GPGGA,183130.750,4739.3023,N,12219.3054,W,1,06,3.85,28.0,M,-17.3,M,,*6E
$GPGSA,A,3,32,10,01,23,20,21,,,,,,,3.95,3.85,0.89*03
$GPRMC,183130.750,A,4739.3023,N,12219.3054,W,0.56,227.03,131120,,,A*71
$GPVTG,227.03,T,,M,0.56,N,1.05,K,A*3E
$GPGGA,183131.000,4739.3023,N,12219.3054,W,1,06,3.85,28.0,M,-17.3,M,,*6D
$GPGSA,A,3,32,10,01,23,20,21,,,,,,,3.95,3.85,0.89*03
$GPGSV,3,1,12,32,80,089,20,21,59,288,20,10,43,087,19,01,35,310,18*70
$GPGSV,3,2,12,22,24,284,,08,24,243,16,31,19,159,18,23,13,094,16*78
$GPGSV,3,3,12,20,11,101,16,27,10,210,,24,08,034,19,03,02,279,*74
$GPRMC,183131.000,A,4739.3023,N,12219.3054,W,0.50,229.42,131120,,,A*7F
$GPVTG,229.42,T,,M,0.50,N,0.93,K,A*3D
$GPGGA,183131.250,4739.3024,N,12219.3052,W,1,06,3.85,28.0,M,-17.3,M,,*6B
$GPGSA,A,3,32,10,01,23,20,21,,,,,,,3.95,3.85,0.89*03
$GPRMC,183131.250,A,4739.3024,N,12219.3052,W,0.37,220.17,131120,,,A*71
$GPVTG,220.17,T,,M,0.37,N,0.69,K,A*30
$GPGGA,183131.500,4739.3025,N,12219.3051,W,1,06,3.85,28.0,M,-17.3,M,,*6B
$GPGSA,A,3,32,10,01,23,20,21,,,,,,,3.95,3.85,0.89*03
$GPRMC,183131.500,A,4739.3025,N,12219.3051,W,0.33,204.78,131120,,,A*7A
$GPVTG,204.78,T,,M,0.33,N,0.60,K,A*32
$GPGGA,183131.750,4739.3025,N,12219.3050,W,1,06,3.85,28.0,M,-17.3,M,,*6D
$GPGSA,A,3,32,10,01,23,20,21,,,,,,,3.95,3.85,0.89*03
$GPRMC,183131.750,A,4739.3025,N,12219.3050,W,0.32,195.74,131120,,,A*7A
$GPVTG,195.74,T,,M,0.32,N,0.59,K,A*3E
$GPGGA,183132.000,4739.3025,N,12219.3049,W,1,06,3.85,28.0,M,-17.3,M,,*64
$GPGSA,A,3,32,10,01,23,20,21,,,,,,,3.95,3.85,0.89*03
$GPRMC,183132.000,A,4739.3025,N,12219.3049,W,0.30,185.70,131120,,,A*74
$GPVTG,185.70,T,,M,0.30,N,0.55,K,A*35
$GPGGA,183132.250,4739.3027,N,12219.3047,W,1,06,3.85,28.0,M,-17.3,M,,*6F
$GPGSA,A,3,32,10,01,23,20,21,,,,,,,3.95,3.85,0.89*03
$GPGSV,3,1,12,32,80,089,20,21,59,288,20,10,43,087,20,01,35,310,18*7A
$GPGSV,3,2,12,22,24,284,,08,24,243,16,31,19,159,18,23,13,094,16*78
$GPGSV,3,3,12,20,11,101,16,27,10,210,,24,08,034,19,03,02,279,*74
$GPRMC,183132.250,A,4739.3027,N,12219.3047,W,0.25,177.96,131120,,,A*7E
$GPVTG,177.96,T,,M,0.25,N,0.46,K,A*36
$GPGGA,183132.500,4739.3028,N,12219.3046,W,1,06,3.85,28.0,M,-17.3,M,,*63
$GPGSA,A,3,32,10,01,23,20,21,,,,,,,3.95,3.85,0.89*03
$GPRMC,183132.500,A,4739.3028,N,12219.3046,W,0.21,160.51,131120,,,A*7B
$GPVTG,160.51,T,,M,0.21,N,0.39,K,A*37
$GPGGA,183132.750,4739.3030,N,12219.3045,W,1,06,3.85,28.0,M,-17.3,M,,*6E
$GPGSA,A,3,32,10,01,23,20,21,,,,,,,3.95,3.85,0.89*03
$GPRMC,183132.750,A,4739.3030,N,12219.3045,W,0.16,140.18,131120,,,A*7D
$GPVTG,140.18,T,,M,0.16,N,0.30,K,A*35
$GPGGA,183133.000,4739.3032,N,12219.3043,W,1,06,3.85,28.0,M,-17.3,M,,*69
$GPGSA,A,3,32,10,01,23,20,21,,,,,,,3.95,3.85,0.89*03
$GPRMC,183133.000,A,4739.3032,N,12219.3043,W,0.18,105.95,131120,,,A*70
$GPVTG,105.95,T,,M,0.18,N,0.33,K,A*3C
$GPGGA,183133.250,4739.3033,N,12219.3042,W,1,06,3.85,28.0,M,-17.3,M,,*6E
$GPGSA,A,3,32,10,01,23,20,21,,,,,,,3.95,3.85,0.89*03
$GPRMC,183133.250,A,4739.3033,N,12219.3042,W,0.23,84.59,131120,,,A*47
$GPVTG,84.59,T,,M,0.23,N,0.42,K,A*0A
$GPGGA,183133.500,4739.3035,N,12219.3041,W,1,06,3.85,28.0,M,-17.3,M,,*69
$GPGSA,A,3,32,10,01,23,20,21,,,,,,,3.95,3.85,0.89*03
$GPGSV,3,1,12,32,80,089,20,21,59,288,20,10,43,087,20,01,35,310,18*7A
$GPGSV,3,2,12,22,24,284,,08,24,243,15,31,19,159,18,23,13,094,16*7B
$GPGSV,3,3,12,20,11,101,15,27,10,210,,24,08,034,19,03,02,279,*77
$GPRMC,183133.500,A,4739.3035,N,12219.3041,W,0.29,72.28,131120,,,A*45
$GPVTG,72.28,T,,M,0.29,N,0.54,K,A*08
$GPGGA,183133.750,4739.3037,N,12219.3039,W,1,06,3.85,28.0,M,-17.3,M,,*63
$GPGSA,A,3,32,10,01,23,20,21,,,,,,,3.95,3.85,0.89*03
$GPRMC,183133.750,A,4739.3037,N,12219.3039,W,0.39,65.67,131120,,,A*43
$GPVTG,65.67,T,,M,0.39,N,0.72,K,A*00
$GPGGA,183134.000,4739.3038,N,12219.3038,W,1,06,3.85,28.0,M,-17.3,M,,*68
$GPGSA,A,3,32,10,01,23,20,21,,,,,,,3.95,3.85,0.89*03
$GPRMC,183134.000,A,4739.3038,N,12219.3038,W,0.43,64.55,131120,,,A*45
$GPVTG,64.55,T,,M,0.43,N,0.80,K,A*00
$GPGGA,183134.250,4739.3038,N,12219.3037,W,1,06,3.85,28.0,M,-17.3,M,,*60
$GPGSA,A,3,32,10,01,23,20,21,,,,,,,3.95,3.85,0.89*03
$GPRMC,183134.250,A,4739.3038,N,12219.3037,W,0.44,65.73,131120,,,A*4F
$GPVTG,65.73,T,,M,0.44,N,0.82,K,A*00
$GPGGA,183134.500,4739.3038,N,12219.3037,W,1,06,3.85,28.0,M,-17.3,M,,*62
$GPGSA,A,3,32,10,01,23,20,21,,,,,,,3.95,3.85,0.89*03
$GPRMC,183134.500,A,4739.3038,N,12219.3037,W,0.46,68.62,131120,,,A*42
$GPVTG,68.62,T,,M,0.46,N,0.85,K,A*08
$GPGGA,183134.750,4739.3038,N,12219.3037,W,1,06,3.85,28.0,M,-17.3,M,,*65
$GPGSA,A,3,32,10,01,23,20,21,,,,,,,3.95,3.85,0.89*03
$GPGSV,3,1,12,32,80,089,20,21,59,288,20,10,43,087,20,01,35,310,18*7A
$GPGSV,3,2,12,22,24,284,,08,24,243,14,31,19,159,18,23,13,094,16*7A
$GPGSV,3,3,12,20,10,101,15,27,10,210,,24,08,034,19,03,02,279,*76
$GPRMC,183134.750,A,4739.3038,N,12219.3037,W,0.46,69.15,131120,,,A*44
$GPVTG,69.15,T,,M,0.46,N,0.85,K,A*09
$GPGGA,183135.000,4739.3039,N,12219.3036,W,1,06,3.85,28.0,M,-17.3,M,,*66
$GPGSA,A,3,32,10,01,23,20,21,,,,,,,3.95,3.85,0.89*03
$GPRMC,183135.000,A,4739.3039,N,12219.3036,W,0.49,72.24,131120,,,A*40
$GPVTG,72.24,T,,M,0.49,N,0.91,K,A*0B
$GPGGA,183135.250,4739.3039,N,12219.3036,W,1,06,3.85,28.0,M,-17.3,M,,*61
$GPGSA,A,3,32,10,01,23,20,21,,,,,,,3.95,3.85,0.89*03
$GPRMC,183135.250,A,4739.3039,N,12219.3036,W,0.54,73.76,131120,,,A*4D
$GPVTG,73.76,T,,M,0.54,N,1.00,K,A*08
$GPGGA,183135.500,4739.3039,N,12219.3035,W,1,06,3.85,28.0,M,-17.3,M,,*60
$GPGSA,A,3,32,10,01,23,20,21,,,,,,,3.95,3.85,0.89*03
$GPRMC,183135.500,A,4739.3039,N,12219.3035,W,0.60,72.95,131120,,,A*47
$GPVTG,72.95,T,,M,0.60,N,1.11,K,A*03
$GPGGA,183135.750,4739.3041,N,12219.3033,W,1,06,3.85,28.0,M,-17.3,M,,*6E
$GPGSA,A,3,32,10,01,23,20,21,,,,,,,3.95,3.85,0.89*03
$GPRMC,183135.750,A,4739.3041,N,12219.3033,W,0.67,68.92,131120,,,A*42
$GPVTG,68.92,T,,M,0.67,N,1.24,K,A*0E
$GPGGA,183136.000,4739.3042,N,12219.3032,W,1,06,3.85,28.0,M,-17.3,M,,*6D
$GPGSA,A,3,32,10,01,23,20,21,,,,,,,3.95,3.85,0.89*03
$GPGSV,3,1,12,32,80,089,20,21,59,288,20,10,43,087,19,01,35,310,18*70
$GPGSV,3,2,12,22,24,284,,08,24,243,14,31,19,159,18,23,13,094,16*7A
$GPGSV,3,3,12,20,10,101,13,27,10,210,,24,08,034,19,03,02,279,*70
$GPRMC,183136.000,A,4739.3042,N,12219.3032,W,0.65,66.54,131120,,,A*47
$GPVTG,66.54,T,,M,0.65,N,1.21,K,A*0D
$GPGGA,183136.250,4739.3042,N,12219.3031,W,1,06,3.85,28.0,M,-17.3,M,,*69
$GPGSA,A,3,32,10,01,23,20,21,,,,,,,3.95,3.85,0.89*03
$GPRMC,183136.250,A,4739.3042,N,12219.3031,W,0.61,71.48,131120,,,A*4C
$GPVTG,71.48,T,,M,0.61,N,1.12,K,A*02
$GPGGA,183136.500,4739.3041,N,12219.3030,W,1,06,3.85,28.0,M,-17.3,M,,*69
$GPGSA,A,3,32,10,01,23,20,21,,,,,,,3.95,3.85,0.89*03
$GPRMC,183136.500,A,4739.3041,N,12219.3030,W,0.56,76.14,131120,,,A*46
$GPVTG,76.14,T,,M,0.56,N,1.04,K,A*0F
$GPGGA,183136.750,4739.3041,N,12219.3030,W,1,06,3.85,28.0,M,-17.3,M,,*6E
$GPGSA,A,3,32,10,01,23,20,21,,,,,,,3.95,3.85,0.89*03
$GPRMC,183136.750,A,4739.3041,N,12219.3030,W,0.52,79.61,131120,,,A*48
$GPVTG,79.61,T,,M,0.52,N,0.96,K,A*0C
$GPGGA,183137.000,4739.3042,N,12219.3029,W,1,06,3.85,28.0,M,-17.3,M,,*66
$GPGSA,A,3,32,10,01,23,20,21,,,,,,,3.95,3.85,0.89*03
$GPRMC,183137.000,A,4739.3042,N,12219.3029,W,0.45,81.85,131120,,,A*4B
$GPVTG,81.85,T,,M,0.45,N,0.83,K,A*03
$GPGGA,183137.250,4739.3043,N,12219.3028,W,1,06,3.85,28.0,M,-17.3,M,,*61
$GPGSA,A,3,32,10,01,23,20,21,,,,,,,3.95,3.85,0.89*03
$GPGSV,3,1,12,32,80,089,19,21,59,288,21,10,43,087,19,01,35,310,18*7B
$GPGSV,3,2,12,22,24,284,,08,24,243,14,31,19,159,18,23,13,094,16*7A
$GPGSV,3,3,12,20,10,101,15,27,10,210,,24,08,034,19,03,02,279,*76
$GPRMC,183137.250,A,4739.3043,N,12219.3028,W,0.38,85.14,131120,,,A*4A
$GPVTG,85.14,T,,M,0.38,N,0.70,K,A*09
$GPGGA,183137.500,4739.3044,N,12219.3027,W,1,06,3.85,28.0,M,-17.3,M,,*6B
$GPGSA,A,3,32,10,01,23,20,21,,,,,,,3.95,3.85,0.89*03
$GPRMC,183137.500,A,4739.3044,N,12219.3027,W,0.37,85.79,131120,,,A*44
$GPVTG,85.79,T,,M,0.37,N,0.68,K,A*04
$GPGGA,183137.750,4739.3044,N,12219.3026,W,1,06,3.85,28.0,M,-17.3,M,,*6D
$GPGSA,A,3,32,10,01,23,20,21,,,,,,,3.95,3.85,0.89*03
$GPRMC,183137.750,A,4739.3044,N,12219.3026,W,0.33,92.57,131120,,,A*4C
$GPVTG,92.57,T,,M,0.33,N,0.61,K,A*03
$GPGGA,183138.000,4739.3044,N,12219.3026,W,1,06,3.85,28.0,M,-17.3,M,,*60
$GPGSA,A,3,32,10,01,23,20,21,,,,,,,3.95,3.85,0.89*03
$GPRMC,183138.000,A,4739.3044,N,12219.3026,W,0.28,99.40,131120,,,A*46
$GPVTG,99.40,T,,M,0.28,N,0.51,K,A*07
$GPGGA,183138.250,4739.3043,N,12219.3026,W,1,06,3.85,28.0,M,-17.3,M,,*60
$GPGSA,A,3,32,10,01,23,20,21,,,,,,,3.95,3.85,0.89*03
$GPRMC,183138.250,A,4739.3043,N,12219.3026,W,0.17,126.73,131120,,,A*7F
$GPVTG,126.73,T,,M,0.17,N,0.32,K,A*3B
$GPGGA,183138.500,4739.3043,N,12219.3026,W,1,06,3.85,28.0,M,-17.3,M,,*62
$GPGSA,A,3,32,10,01,23,20,21,,,,,,,3.95,3.85,0.89*03
$GPGSV,3,1,12,32,80,088,19,21,59,288,21,10,43,087,19,01,35,310,18*7A
$GPGSV,3,2,12,22,24,284,,08,24,243,12,31,19,159,18,23,13,094,16*7C
$GPGSV,3,3,12,20,10,101,15,27,10,210,,24,08,034,19,03,02,279,*76
$GPRMC,183138.500,A,4739.3043,N,12219.3026,W,0.11,168.87,131120,,,A*7A
$GPVTG,168.87,T,,M,0.11,N,0.21,K,A*3E
$GPGGA,183138.750,4739.3044,N,12219.3026,W,1,06,3.85,28.0,M,-17.3,M,,*62
$GPGSA,A,3,32,10,01,23,20,21,,,,,,,3.95,3.85,0.89*03
$GPRMC,183138.750,A,4739.3044,N,12219.3026,W,0.12,224.25,131120,,,A*7A
$GPVTG,224.25,T,,M,0.12,N,0.22,K,A*3D
$GPGGA,183139.000,4739.3044,N,12219.3026,W,1,06,3.85,28.0,M,-17.3,M,,*61
$GPGSA,A,3,32,10,01,23,20,21,,,,,,,3.95,3.85,0.89*03
$GPRMC,183139.000,A,4739.3044,N,12219.3026,W,0.15,250.98,131120,,,A*7B
$GPVTG,250.98,T,,M,0.15,N,0.28,K,A*35
$GPGGA,183139.250,4739.3045,N,12219.3026,W,1,06,3.85,28.0,M,-17.3,M,,*67
$GPGSA,A,3,32,10,01,23,20,21,,,,,,,3.95,3.85,0.89*03
$GPRMC,183139.250,A,4739.3045,N,12219.3026,W,0.22,261.70,131120,,,A*7D
$GPVTG,261.70,T,,M,0.22,N,0.41,K,A*3A
$GPGGA,183139.500,4739.3046,N,12219.3026,W,1,06,3.85,28.0,M,-17.3,M,,*66
$GPGSA,A,3,32,10,01,23,20,21,,,,,,,3.95,3.85,0.89*03
$GPRMC,183139.500,A,4739.3046,N,12219.3026,W,0.25,265.98,131120,,,A*79
$GPVTG,265.98,T,,M,0.25,N,0.46,K,A*38
$GPGGA,183139.750,4739.3047,N,12219.3026,W,1,06,3.85,28.0,M,-17.3,M,,*60
$GPGSA,A,3,32,10,01,23,20,21,,,,,,,3.95,3.85,0.89*03
$GPGSV,3,1,12,32,80,088,19,21,59,288,19,10,43,087,19,01,35,310,18*71
$GPGSV,3,2,12,22,24,284,,08,24,243,14,31,19,159,18,23,13,094,16*7A
$GPGSV,3,3,12,20,10,101,15,27,10,210,,24,08,034,19,03,02,279,*76
$GPRMC,183139.750,A,4739.3047,N,12219.3026,W,0.23,268.56,131120,,,A*76
$GPVTG,268.56,T,,M,0.23,N,0.42,K,A*35
$GPGGA,183140.000,4739.3047,N,12219.3026,W,1,06,3.85,28.0,M,-17.3,M,,*6C
$GPGSA,A,3,32,10,01,23,20,21,,,,,,,3.95,3.85,0.89*03
$GPRMC,183140.000,A,4739.3047,N,12219.3026,W,0.22,270.15,131120,,,A*75
$GPVTG,270.15,T,,M,0.22,N,0.41,K,A*39
$GPGGA,183140.250,4739.3047,N,12219.3026,W,1,06,3.85,28.0,M,-17.3,M,,*6B
$GPGSA,A,3,32,10,01,23,20,21,,,,,,,3.95,3.85,0.89*03
$GPRMC,183140.250,A,4739.3047,N,12219.3026,W,0.24,261.64,131120,,,A*72
$GPVTG,261.64,T,,M,0.24,N,0.44,K,A*3C
$GPGGA,183140.500,4739.3047,N,12219.3027,W,1,06,3.85,28.0,M,-17.3,M,,*68
$GPGSA,A,3,32,10,01,23,20,21,,,,,,,3.95,3.85,0.89*03
$GPRMC,183140.500,A,4739.3047,N,12219.3027,W,0.22,258.07,131120,,,A*78
$GPVTG,258.07,T,,M,0.22,N,0.40,K,A*31
$GPGGA,183140.750,4739.3047,N,12219.3027,W,1,06,3.85,28.0,M,-17.3,M,,*6F
$GPGSA,A,3,32,10,01,23,20,21,,,,,,,3.95,3.85,0.89*03
$GPRMC,183140.750,A,4739.3047,N,12219.3027,W,0.18,250.31,131120,,,A*7B
$GPVTG,250.31,T,,M,0.18,N,0.33,K,A*31
$GPGGA,183141.000,4739.3047,N,12219.3027,W,1,06,3.85,28.0,M,-17.3,M,,*6C
$GPGSA,A,3,32,10,01,23,20,21,,,,,,,3.95,3.85,0.89*03
$GPGSV,3,1,12,32,80,088,19,21,59,288,20,10,43,087,19,01,35,310,18*7B
$GPGSV,3,2,12,22,24,284,,08,24,243,15,31,19,159,18,23,13,094,17*7A
$GPGSV,3,3,12,20,10,101,15,27,10,210,,24,08,034,19,03,02,279,*76
$GPRMC,183141.000,A,4739.3047,N,12219.3027,W,0.11,240.16,131120,,,A*75
$GPVTG,240.16,T,,M,0.11,N,0.20,K,A*3E
$GPGGA,183141.250,4739.3047,N,12219.3027,W,1,06,3.85,28.0,M,-17.3,M,,*6B
$GPGSA,A,3,32,10,01,23,20,21,,,,,,,3.95,3.85,0.89*03
$GPRMC,183141.250,A,4739.3047,N,12219.3027,W,0.03,258.04,131120,,,A*7B
$GPVTG,258.04,T,,M,0.03,N,0.05,K,A*30
$GPGGA,183141.500,4739.3047,N,12219.3027,W,1,06,3.85,28.0,M,-17.3,M,,*69
$GPGSA,A,3,32,10,01,23,20,21,,,,,,,3.95,3.85,0.89*03
$GPRMC,183141.500,A,4739.3047,N,12219.3027,W,0.04,358.61,131120,,,A*7C
$GPVTG,358.61,T,,M,0.04,N,0.08,K,A*38
$GPGGA,183141.750,4739.3047,N,12219.3027,W,1,06,4.21,28.0,M,-17.3,M,,*67
$GPGSA,A,3,32,10,01,23,20,21,,,,,,,4.62,4.21,1.91*0D
$GPRMC,183141.750,A,4739.3047,N,12219.3027,W,0.10,46.56,131120,,,A*46
$GPVTG,46.56,T,,M,0.10,N,0.18,K,A*04
$GPGGA,183142.000,4739.3047,N,12219.3027,W,1,06,3.85,28.0,M,-17.3,M,,*6F
$GPGSA,A,3,32,10,01,23,20,21,,,,,,,3.95,3.85,0.89*03
$GPRMC,183142.000,A,4739.3047,N,12219.3027,W,0.13,57.70,131120,,,A*40
$GPVTG,57.70,T,,M,0.13,N,0.25,K,A*0D
$GPGGA,183142.250,4739.3047,N,12219.3027,W,1,06,3.85,28.0,M,-17.3,M,,*68
$GPGSA,A,3,32,10,01,23,20,21,,,,,,,3.95,3.85,0.89*03
$GPGSV,3,1,12,32,80,088,19,21,59,288,20,10,43,087,20,01,35,310,18*71
$GPGSV,3,2,12,22,24,284,,08,24,243,15,31,19,159,18,23,13,094,17*7A
$GPGSV,3,3,12,20,10,101,15,27,10,210,,24,08,034,19,03,02,279,*76
$GPRMC,183142.250,A,4739.3047,N,12219.3027,W,0.19,62.92,131120,,,A*47
$GPVTG,62.92,T,,M,0.19,N,0.35,K,A*0C
$GPGGA,183142.500,4739.3047,N,12219.3027,W,1,06,3.85,28.0,M,-17.3,M,,*6A
$GPGSA,A,3,32,10,01,23,20,21,,,,,,,3.95,3.85,0.89*03
$GPRMC,183142.500,A,4739.3047,N,12219.3027,W,0.28,68.41,131120,,,A*43
$GPVTG,68.41,T,,M,0.28,N,0.51,K,A*08
$GPGGA,183142.750,4739.3047,N,12219.3026,W,1,06,3.85,28.0,M,-17.3,M,,*6C
$GPGSA,A,3,32,10,01,23,20,21,,,,,,,3.95,3.85,0.89*03
$GPRMC,183142.750,A,4739.3047,N,12219.3026,W,0.33,76.87,131120,,,A*4A
$GPVTG,76.87,T,,M,0.33,N,0.60,K,A*05
$GPGGA,183143.000,4739.3047,N,12219.3026,W,1,06,3.85,28.0,M,-17.3,M,,*6F
$GPGSA,A,3,32,10,01,23,20,21,,,,,,,3.95,3.85,0.89*03
$GPRMC,183143.000,A,4739.3047,N,12219.3026,W,0.39,88.67,131120,,,A*4C
$GPVTG,88.67,T,,M,0.39,N,0.72,K,A*03
$GPGGA,183143.250,4739.3047,N,12219.3025,W,1,06,3.85,28.0,M,-17.3,M,,*6B
$GPGSA,A,3,32,10,01,23,20,21,,,,,,,3.95,3.85,0.89*03
$GPRMC,183143.250,A,4739.3047,N,12219.3025,W,0.40,98.12,131120,,,A*45
$GPVTG,98.12,T,,M,0.40,N,0.74,K,A*08
$GPGGA,183143.500,4739.3047,N,12219.3025,W,1,06,3.85,28.0,M,-17.3,M,,*69
$GPGSA,A,3,32,10,01,23,20,21,,,,,,,3.95,3.85,0.89*03
$GPGSV,3,1,12,32,80,088,19,21,59,288,20,10,43,087,20,01,35,310,18*71
$GPGSV,3,2,12,22,24,284,,08,24,243,15,31,19,159,18,23,13,094,17*7A
$GPGSV,3,3,12,20,10,101,17,27,10,210,,24,08,034,19,03,02,279,*74
$GPRMC,183143.500,A,4739.3047,N,12219.3025,W,0.40,106.87,131120,,,A*7D
$GPVTG,106.87,T,,M,0.40,N,0.74,K,A*32
$GPGGA,183143.750,4739.3047,N,12219.3025,W,1,06,3.85,28.0,M,-17.3,M,,*6E
$GPGSA,A,3,32,10,01,23,20,21,,,,,,,3.95,3.85,0.89*03
$GPRMC,183143.750,A,4739.3047,N,12219.3025,W,0.40,111.26,131120,,,A*77
$GPVTG,111.26,T,,M,0.40,N,0.74,K,A*3F
$GPGGA,183144.000,4739.3047,N,12219.3024,W,1,06,3.85,28.0,M,-17.3,M,,*6A
$GPGSA,A,3,32,10,01,23,20,21,,,,,,,3.95,3.85,0.89*03
$GPRMC,183144.000,A,4739.3047,N,12219.3024,W,0.39,114.06,131120,,,A*7A
$GPVTG,114.06,T,,M,0.39,N,0.73,K,A*31
$GPGGA,183144.250,4739.3047,N,12219.3024,W,1,06,3.85,28.0,M,-17.3,M,,*6D
$GPGSA,A,3,32,10,01,23,20,21,,,,,,,3.95,3.85,0.89*03
$GPRMC,183144.250,A,4739.3047,N,12219.3024,W,0.36,110.93,131120,,,A*7A
$GPVTG,110.93,T,,M,0.36,N,0.67,K,A*33
$GPGGA,183144.500,4739.3047,N,12219.3024,W,1,06,3.85,28.0,M,-17.3,M,,*6F
$GPGSA,A,3,32,10,01,23,20,21,,,,,,,3.95,3.85,0.89*03
$GPRMC,183144.500,A,4739.3047,N,12219.3024,W,0.33,104.80,131120,,,A*7A
$GPVTG,104.80,T,,M,0.33,N,0.61,K,A*37
$GPGGA,183144.750,4739.3047,N,12219.3023,W,1,06,3.85,28.0,M,-17.3,M,,*6F
$GPGSA,A,3,32,10,01,23,20,21,,,,,,,3.95,3.85,0.89*03
$GPGSV,3,1,12,32,80,088,19,21,59,287,20,10,43,087,20,01,35,310,18*7E
$GPGSV,3,2,12,22,24,284,,08,24,243,15,31,19,159,18,23,13,094,17*7A
$GPGSV,3,3,12,20,10,101,17,27,10,210,,24,08,033,19,03,02,279,*73
$GPRMC,183144.750,A,4739.3047,N,12219.3023,W,0.31,96.77,131120,,,A*4A
$GPVTG,96.77,T,,M,0.31,N,0.58,K,A*0D
$GPGGA,183145.000,4739.3047,N,12219.3023,W,1,06,3.85,28.0,M,-17.3,M,,*6C
$GPGSA,A,3,32,10,01,23,20,21,,,,,,,3.95,3.85,0.89*03
$GPRMC,183145.000,A,4739.3047,N,12219.3023,W,0.29,84.00,131120,,,A*43
$GPVTG,84.00,T,,M,0.29,N,0.53,K,A*0C
$GPGGA,183145.250,4739.3047,N,12219.3023,W,1,06,3.85,28.0,M,-17.3,M,,*6B
$GPGSA,A,3,32,10,01,23,20,21,,,,,,,3.95,3.85,0.89*03
$GPRMC,183145.250,A,4739.3047,N,12219.3023,W,0.29,62.78,131120,,,A*43
$GPVTG,62.78,T,,M,0.29,N,0.53,K,A*0B
$GPGGA,183145.500,4739.3047,N,12219.3022,W,1,06,3.85,28.0,M,-17.3,M,,*68
$GPGSA,A,3,32,10,01,23,20,21,,,,,,,3.95,3.85,0.89*03
$GPRMC,183145.500,A,4739.3047,N,12219.3022,W,0.35,49.09,131120,,,A*42
$GPVTG,49.09,T,,M,0.35,N,0.65,K,A*0C
$GPGGA,183145.750,4739.3047,N,12219.3022,W,1,06,3.85,28.0,M,-17.3,M,,*6F
$GPGSA,A,3,32,10,01,23,20,21,,,,,,,3.95,3.85,0.89*03
$GPRMC,183145.750,A,4739.3047,N,12219.3022,W,0.42,38.29,131120,,,A*41
$GPVTG,38.29,T,,M,0.42,N,0.78,K,A*04
$GPGGA,183146.000,4739.3048,N,12219.3022,W,1,06,3.85,28.0,M,-17.3,M,,*61
$GPGSA,A,3,32,10,01,23,20,21,,,,,,,3.95,3.85,0.89*03
$GPGSV,3,1,12,32,80,088,19,21,59,287,20,10,43,087,20,01,35,310,18*7E
$GPGSV,3,2,12,22,24,284,,08,24,243,15,31,19,159,18,23,13,094,16*7B
$GPGSV,3,3,12,20,10,101,17,27,10,210,,24,08,033,19,03,02,279,*73
$GPRMC,183146.000,A,4739.3048,N,12219.3022,W,0.47,31.26,131120,,,A*4C
$GPVTG,31.26,T,,M,0.47,N,0.88,K,A*08
$GPGGA,183146.250,4739.3048,N,12219.3021,W,1,06,3.85,28.0,M,-17.3,M,,*65
$GPGSA,A,3,32,10,01,23,20,21,,,,,,,3.95,3.85,0.89*03
$GPRMC,183146.250,A,4739.3048,N,12219.3021,W,0.53,31.19,131120,,,A*41
$GPVTG,31.19,T,,M,0.53,N,0.99,K,A*01
$GPGGA,183146.500,4739.3048,N,12219.3021,W,1,06,3.85,28.0,M,-17.3,M,,*67
$GPGSA,A,3,32,10,01,23,20,21,,,,,,,3.95,3.85,0.89*03
$GPRMC,183146.500,A,4739.3048,N,12219.3021,W,0.61,32.61,131120,,,A*4E
$GPVTG,32.61,T,,M,0.61,N,1.13,K,A*0F
$GPGGA,183146.750,4739.3049,N,12219.3020,W,1,06,3.85,28.0,M,-17.3,M,,*60
$GPGSA,A,3,32,10,01,23,20,21,,,,,,,3.95,3.85,0.89*03
$GPRMC,183146.750,A,4739.3049,N,12219.3020,W,0.63,36.38,131120,,,A*43
$GPVTG,36.38,T,,M,0.63,N,1.17,K,A*01
$GPGGA,183147.000,4739.3050,N,12219.3019,W,1,06,3.85,28.0,M,-17.3,M,,*61
$GPGSA,A,3,32,10,01,23,20,21,,,,,,,3.95,3.85,0.89*03
$GPRMC,183147.000,A,4739.3050,N,12219.3019,W,0.63,38.90,131120,,,A*4E
$GPVTG,38.90,T,,M,0.63,N,1.16,K,A*0C
