
$GPVTG,278.42,T,,M,0.33,N,0.61,K,A*31
$GPGGA,215357.250,4730.1313,N,12215.7778,W,1,06,1.33,138.3,M,-17.4,M,,*55
$GPGSA,A,3,22,01,31,03,16,04,,,,,,,1.61,1.33,0.91*0E
$GPRMC,215357.250,A,4730.1313,N,12215.7778,W,0.34,267.57,101120,,,A*73
$GPVTG,267.57,T,,M,0.34,N,0.63,K,A*3E
$GPGGA,215357.500,4730.1313,N,12215.7778,W,1,06,1.33,138.3,M,-17.4,M,,*57
$GPGSA,A,3,22,01,31,03,16,04,,,,,,,1.61,1.33,0.91*0E
$GPRMC,215357.500,A,4730.1313,N,12215.7778,W,0.36,258.76,101120,,,A*7C
$GPVTG,258.76,T,,M,0.36,N,0.66,K,A*36
$GPGGA,215357.750,4730.1313,N,12215.7778,W,1,06,1.33,138.3,M,-17.4,M,,*50
$GPGSA,A,3,22,01,31,03,16,04,,,,,,,1.61,1.33,0.91*0E
$GPRMC,215357.750,A,4730.1313,N,12215.7778,W,0.35,252.43,101120,,,A*74
$GPVTG,252.43,T,,M,0.35,N,0.65,K,A*3A
$GPGGA,215358.000,4730.1313,N,12215.7779,W,1,06,1.33,138.3,M,-17.4,M,,*5C
$GPGSA,A,3,22,01,31,03,16,04,,,,,,,1.61,1.33,0.91*0E
$GPRMC,215358.000,A,4730.1313,N,12215.7779,W,0.36,250.04,101120,,,A*7A
$GPVTG,250.04,T,,M,0.36,N,0.66,K,A*3B
$GPGGA,215358.250,4730.1312,N,12215.7779,W,1,06,1.33,138.3,M,-17.4,M,,*5A
$GPGSA,A,3,22,01,31,03,16,04,,,,,,,1.61,1.33,0.91*0E
$GPGSV,2,1,08,03,78,270,25,22,69,173,27,04,50,277,18,31,43,056,29*74
$GPGSV,2,2,08,01,24,210,20,16,11,146,17,32,04,084,,46,,,30*4D
$GPRMC,215358.250,A,4730.1312,N,12215.7779,W,0.34,248.57,101120,,,A*71
$GPVTG,248.57,T,,M,0.34,N,0.63,K,A*33
$GPGGA,215358.500,4730.1312,N,12215.7779,W,1,06,1.33,138.3,M,-17.4,M,,*58
$GPGSA,A,3,22,01,31,03,16,04,,,,,,,1.61,1.33,0.91*0E
$GPRMC,215358.500,A,4730.1312,N,12215.7779,W,0.27,247.33,101120,,,A*7C
$GPVTG,247.33,T,,M,0.27,N,0.50,K,A*3C
$GPGGA,215358.750,4730.1312,N,12215.7780,W,1,06,1.33,138.3,M,-17.4,M,,*59
$GPGSA,A,3,22,01,31,03,16,04,,,,,,,1.61,1.33,0.91*0E
$GPRMC,215358.750,A,4730.1312,N,12215.7780,W,0.25,240.89,101120,,,A*79
$GPVTG,240.89,T,,M,0.25,N,0.46,K,A*3F
$GPGGA,215359.000,4730.1312,N,12215.7780,W,1,06,1.33,138.3,M,-17.4,M,,*5A
$GPGSA,A,3,22,01,31,03,16,04,,,,,,,1.61,1.33,0.91*0E
$GPRMC,215359.000,A,4730.1312,N,12215.7780,W,0.21,240.46,101120,,,A*7D
$GPVTG,240.46,T,,M,0.21,N,0.39,K,A*30
$GPGGA,215359.250,4730.1312,N,12215.7780,W,1,06,1.33,138.3,M,-17.4,M,,*5D
$GPGSA,A,3,22,01,31,03,16,04,,,,,,,1.61,1.33,0.91*0E
$GPRMC,215359.250,A,4730.1312,N,12215.7780,W,0.17,243.80,101120,,,A*76
$GPVTG,243.80,T,,M,0.17,N,0.32,K,A*37
$GPGGA,215359.500,4730.1312,N,12215.7780,W,1,06,1.33,138.3,M,-17.4,M,,*5F
$GPGSA,A,3,22,01,31,03,16,04,,,,,,,1.61,1.33,0.91*0E
$GPGSV,2,1,08,03,78,270,24,22,69,173,28,04,50,277,17,31,43,056,28*74
$GPGSV,2,2,08,01,24,210,20,16,11,146,16,32,04,084,,46,,,27*4A
$GPRMC,215359.500,A,4730.1312,N,12215.7780,W,0.15,252.88,101120,,,A*7E
$GPVTG,252.88,T,,M,0.15,N,0.28,K,A*36
$GPGGA,215359.750,4730.1312,N,12215.7780,W,1,06,1.33,138.3,M,-17.4,M,,*58
$GPGSA,A,3,22,01,31,03,16,04,,,,,,,1.61,1.33,0.91*0E
$GPRMC,215359.750,A,4730.1312,N,12215.7780,W,0.15,266.66,101120,,,A*7E
$GPVTG,266.66,T,,M,0.15,N,0.27,K,A*3E
$GPGGA,215400.000,4730.1312,N,12215.7780,W,1,06,1.33,138.3,M,-17.4,M,,*51
$GPGSA,A,3,22,01,31,03,16,04,,,,,,,1.61,1.33,0.91*0E
$GPRMC,215400.000,A,4730.1312,N,12215.7780,W,0.13,281.22,101120,,,A*78
$GPVTG,281.22,T,,M,0.13,N,0.24,K,A*32
$GPGGA,215400.250,4730.1312,N,12215.7781,W,1,06,1.33,138.3,M,-17.4,M,,*57
$GPGSA,A,3,22,01,31,03,16,04,,,,,,,1.61,1.33,0.91*0E
$GPRMC,215400.250,A,4730.1312,N,12215.7781,W,0.13,286.81,101120,,,A*70
$GPVTG,286.81,T,,M,0.13,N,0.25,K,A*3D
$GPGGA,215400.500,4730.1312,N,12215.7781,W,1,06,1.33,138.3,M,-17.4,M,,*55
$GPGSA,A,3,22,01,31,03,16,04,,,,,,,1.61,1.33,0.91*0E
$GPRMC,215400.500,A,4730.1312,N,12215.7781,W,0.14,285.90,101120,,,A*76
$GPVTG,285.90,T,,M,0.14,N,0.25,K,A*39
$GPGGA,215400.750,4730.1312,N,12215.7781,W,1,06,1.33,138.3,M,-17.4,M,,*52
$GPGSA,A,3,22,01,31,03,16,04,,,,,,,1.61,1.33,0.91*0E
$GPGSV,2,1,08,03,78,270,27,22,69,173,29,04,50,277,17,31,43,056,30*7F
$GPGSV,2,2,08,01,24,210,20,16,11,146,16,32,04,084,,46,,,31*4D
$GPRMC,215400.750,A,4730.1312,N,12215.7781,W,0.14,270.96,101120,,,A*7D
$GPVTG,270.96,T,,M,0.14,N,0.26,K,A*36
$GPGGA,215401.000,4730.1312,N,12215.7781,W,1,06,1.33,138.3,M,-17.4,M,,*51
$GPGSA,A,3,22,01,31,03,16,04,,,,,,,1.61,1.33,0.91*0E
$GPRMC,215401.000,A,4730.1312,N,12215.7781,W,0.16,260.52,101120,,,A*75
$GPVTG,260.52,T,,M,0.16,N,0.29,K,A*32
$GPGGA,215401.250,4730.1312,N,12215.7781,W,1,06,1.33,138.3,M,-17.4,M,,*56
$GPGSA,A,3,22,01,31,03,16,04,,,,,,,1.61,1.33,0.91*0E
$GPRMC,215401.250,A,4730.1312,N,12215.7781,W,0.13,263.80,101120,,,A*7B
$GPVTG,263.80,T,,M,0.13,N,0.24,K,A*36
$GPGGA,215401.500,4730.1312,N,12215.7781,W,1,06,1.33,138.3,M,-17.4,M,,*54
$GPGSA,A,3,22,01,31,03,16,04,,,,,,,1.61,1.33,0.91*0E
$GPRMC,215401.500,A,4730.1312,N,12215.7781,W,0.12,272.06,101120,,,A*76
$GPVTG,272.06,T,,M,0.12,N,0.22,K,A*3F
$GPGGA,215401.750,4730.1312,N,12215.7781,W,1,06,1.33,138.3,M,-17.4,M,,*53
$GPGSA,A,3,22,01,31,03,16,04,,,,,,,1.61,1.33,0.91*0E
$GPRMC,215401.750,A,4730.1312,N,12215.7781,W,0.08,302.04,101120,,,A*7E
$GPVTG,302.04,T,,M,0.08,N,0.15,K,A*34
$GPGGA,215402.000,4730.1312,N,12215.7781,W,1,06,1.33,138.3,M,-17.4,M,,*52
$GPGSA,A,3,22,01,31,03,16,04,,,,,,,1.61,1.33,0.91*0E
$GPGSV,2,1,08,03,78,270,27,22,69,173,29,04,50,277,18,31,43,056,31*71
$GPGSV,2,2,08,01,24,210,20,16,11,146,16,32,04,084,,46,,,32*4E
$GPRMC,215402.000,A,4730.1312,N,12215.7781,W,0.09,341.63,101120,,,A*78
$GPVTG,341.63,T,,M,0.09,N,0.16,K,A*30
$GPGGA,215402.250,4730.1312,N,12215.7781,W,1,06,1.33,138.3,M,-17.4,M,,*55
$GPGSA,A,3,22,01,31,03,16,04,,,,,,,1.61,1.33,0.91*0E
$GPRMC,215402.250,A,4730.1312,N,12215.7781,W,0.15,3.89,101120,,,A*73
$GPVTG,3.89,T,,M,0.15,N,0.27,K,A*3E
$GPGGA,215402.500,4730.1312,N,12215.7781,W,1,06,1.63,138.3,M,-17.4,M,,*52
$GPGSA,A,3,22,01,31,03,16,04,,,,,,,2.72,1.63,2.18*09
$GPRMC,215402.500,A,4730.1312,N,12215.7781,W,0.20,14.76,101120,,,A*41
$GPVTG,14.76,T,,M,0.20,N,0.37,K,A*0F
$GPGGA,215402.750,4730.1312,N,12215.7781,W,1,06,1.62,138.3,M,-17.4,M,,*54
$GPGSA,A,3,22,01,31,03,16,04,,,,,,,2.72,1.62,2.18*08
$GPRMC,215402.750,A,4730.1312,N,12215.7781,W,0.22,19.96,101120,,,A*47
$GPVTG,19.96,T,,M,0.22,N,0.41,K,A*0F
$GPGGA,215403.000,4730.1313,N,12215.7781,W,1,06,1.33,138.3,M,-17.4,M,,*52
$GPGSA,A,3,22,01,31,03,16,04,,,,,,,1.61,1.33,0.91*0E
$GPRMC,215403.000,A,4730.1313,N,12215.7781,W,0.23,22.42,101120,,,A*45
$GPVTG,22.42,T,,M,0.23,N,0.42,K,A*0C
$GPGGA,215403.250,4730.1313,N,12215.7781,W,1,06,1.33,138.3,M,-17.4,M,,*55
$GPGSA,A,3,22,01,31,03,16,04,,,,,,,1.61,1.33,0.91*0E
$GPGSV,2,1,08,03,78,270,25,22,69,173,29,04,50,277,18,31,43,056,28*7B
$GPGSV,2,2,08,01,24,210,20,16,11,146,16,32,04,084,,46,,,29*44
$GPRMC,215403.250,A,4730.1313,N,12215.7781,W,0.21,24.06,101120,,,A*46
$GPVTG,24.06,T,,M,0.21,N,0.40,K,A*0A
$GPGGA,215403.500,4730.1313,N,12215.7781,W,1,06,1.33,138.3,M,-17.4,M,,*57
$GPGSA,A,3,22,01,31,03,16,04,,,,,,,1.61,1.33,0.91*0E
$GPRMC,215403.500,A,4730.1313,N,12215.7781,W,0.19,29.80,101120,,,A*4C
$GPVTG,29.80,T,,M,0.19,N,0.35,K,A*00
$GPGGA,215403.750,4730.1313,N,12215.7781,W,1,06,1.33,138.3,M,-17.4,M,,*50
$GPGSA,A,3,22,01,31,03,16,04,,,,,,,1.61,1.33,0.91*0E
$GPRMC,215403.750,A,4730.1313,N,12215.7781,W,0.18,38.37,101120,,,A*46
$GPVTG,38.37,T,,M,0.18,N,0.33,K,A*0B
$GPGGA,215404.000,4730.1313,N,12215.7781,W,1,06,1.33,138.3,M,-17.4,M,,*55
$GPGSA,A,3,22,01,31,03,16,04,,,,,,,1.61,1.33,0.91*0E
$GPRMC,215404.000,A,4730.1313,N,12215.7781,W,0.17,42.05,101120,,,A*40
$GPVTG,42.05,T,,M,0.17,N,0.31,K,A*0A
$GPGGA,215404.250,4730.1313,N,12215.7781,W,1,06,1.33,138.3,M,-17.4,M,,*52
$GPGSA,A,3,22,01,31,03,16,04,,,,,,,1.61,1.33,0.91*0E
$GPRMC,215404.250,A,4730.1313,N,12215.7781,W,0.16,44.29,101120,,,A*4E
$GPVTG,44.29,T,,M,0.16,N,0.29,K,A*0A
$GPGGA,215404.500,4730.1313,N,12215.7781,W,1,06,1.33,138.3,M,-17.4,M,,*50
$GPGSA,A,3,22,01,31,03,16,04,,,,,,,1.61,1.33,0.91*0E
$GPGSV,2,1,08,03,78,270,24,22,69,173,26,04,50,277,17,31,43,056,28*7A
$GPGSV,2,2,08,01,24,210,19,16,11,146,16,32,04,084,,46,,,29*4E
$GPRMC,215404.500,A,4730.1313,N,12215.7781,W,0.12,46.37,101120,,,A*45
$GPVTG,46.37,T,,M,0.12,N,0.22,K,A*08
$GPGGA,215404.750,4730.1313,N,12215.7781,W,1,06,1.33,138.3,M,-17.4,M,,*57
$GPGSA,A,3,22,01,31,03,16,04,,,,,,,1.61,1.33,0.91*0E
$GPRMC,215404.750,A,4730.1313,N,12215.7781,W,0.06,44.41,101120,,,A*44
$GPVTG,44.41,T,,M,0.06,N,0.12,K,A*0D
$GPGGA,215405.000,4730.1313,N,12215.7781,W,1,06,1.33,138.3,M,-17.4,M,,*54
$GPGSA,A,3,22,01,31,03,16,04,,,,,,,1.61,1.33,0.91*0E
$GPRMC,215405.000,A,4730.1313,N,12215.7781,W,0.05,49.13,101120,,,A*4E
$GPVTG,49.13,T,,M,0.05,N,0.10,K,A*06
$GPGGA,215405.250,4730.1313,N,12215.7781,W,1,06,1.33,138.3,M,-17.4,M,,*53
$GPGSA,A,3,22,01,31,03,16,04,,,,,,,1.61,1.33,0.91*0E
$GPRMC,215405.250,A,4730.1313,N,12215.7781,W,0.02,53.38,101120,,,A*4C
$GPVTG,53.38,T,,M,0.02,N,0.04,K,A*06
$GPGGA,215405.500,4730.1313,N,12215.7781,W,1,06,1.33,138.3,M,-17.4,M,,*51
$GPGSA,A,3,22,01,31,03,16,04,,,,,,,1.61,1.33,0.91*0E
$GPRMC,215405.500,A,4730.1313,N,12215.7781,W,0.01,217.29,101120,,,A*7F
$GPVTG,217.29,T,,M,0.01,N,0.02,K,A*31
$GPGGA,215405.750,4730.1313,N,12215.7781,W,1,06,1.33,138.3,M,-17.4,M,,*56
$GPGSA,A,3,22,01,31,03,16,04,,,,,,,1.61,1.33,0.91*0E
$GPGSV,2,1,08,03,78,270,24,22,69,173,26,04,50,277,17,31,43,056,28*7A
$GPGSV,2,2,08,01,24,210,19,16,11,146,15,32,04,084,,46,,,29*4D
$GPRMC,215405.750,A,4730.1313,N,12215.7781,W,0.04,206.54,101120,,,A*77
$GPVTG,206.54,T,,M,0.04,N,0.08,K,A*34
$GPGGA,215406.000,4730.1313,N,12215.7781,W,1,06,1.33,138.3,M,-17.4,M,,*57
$GPGSA,A,3,22,01,31,03,16,04,,,,,,,1.61,1.33,0.91*0E
$GPRMC,215406.000,A,4730.1313,N,12215.7781,W,0.03,181.34,101120,,,A*7B
$GPVTG,181.34,T,,M,0.03,N,0.05,K,A*34
$GPGGA,215406.250,4730.1313,N,12215.7781,W,1,06,1.33,138.3,M,-17.4,M,,*50
$GPGSA,A,3,22,01,31,03,16,04,,,,,,,1.61,1.33,0.91*0E
$GPRMC,215406.250,A,4730.1313,N,12215.7781,W,0.03,62.09,101120,,,A*4E
$GPVTG,62.09,T,,M,0.03,N,0.06,K,A*05
$GPGGA,215406.500,4730.1313,N,12215.7781,W,1,06,1.33,138.3,M,-17.4,M,,*52
$GPGSA,A,3,22,01,31,03,16,04,,,,,,,1.61,1.33,0.91*0E
$GPRMC,215406.500,A,4730.1313,N,12215.7781,W,0.07,51.33,101120,,,A*41
$GPVTG,51.33,T,,M,0.07,N,0.12,K,A*0D
$GPGGA,215406.750,4730.1313,N,12215.7781,W,1,06,1.33,138.3,M,-17.4,M,,*55
$GPGSA,A,3,22,01,31,03,16,04,,,,,,,1.61,1.33,0.91*0E
$GPRMC,215406.750,A,4730.1313,N,12215.7781,W,0.08,57.17,101120,,,A*49
$GPVTG,57.17,T,,M,0.08,N,0.14,K,A*04
$GPGGA,215407.000,4730.1313,N,12215.7780,W,1,06,1.33,138.3,M,-17.4,M,,*57
$GPGSA,A,3,22,01,31,03,16,04,,,,,,,1.61,1.33,0.91*0E
$GPGSV,2,1,08,03,78,270,24,22,69,173,27,04,50,277,17,31,43,056,28*7B
$GPGSV,2,2,08,01,24,210,19,16,11,146,15,32,04,084,,46,,,29*4D
$GPRMC,215407.000,A,4730.1313,N,12215.7780,W,0.09,54.05,101120,,,A*4A
$GPVTG,54.05,T,,M,0.09,N,0.16,K,A*07
$GPGGA,215407.250,4730.1313,N,12215.7780,W,1,06,1.33,138.3,M,-17.4,M,,*50
$GPGSA,A,3,22,01,31,03,16,04,,,,,,,1.61,1.33,0.91*0E
$GPRMC,215407.250,A,4730.1313,N,12215.7780,W,0.11,45.87,101120,,,A*4E
$GPVTG,45.87,T,,M,0.11,N,0.21,K,A*00
$GPGGA,215407.500,4730.1313,N,12215.7780,W,1,06,1.32,138.3,M,-17.4,M,,*53
$GPGSA,A,3,22,01,31,03,16,04,,,,,,,1.61,1.32,0.91*0F
$GPRMC,215407.500,A,4730.1313,N,12215.7780,W,0.14,42.75,101120,,,A*43
$GPVTG,42.75,T,,M,0.14,N,0.27,K,A*09
$GPGGA,215407.750,4730.1314,N,12215.7780,W,1,06,1.33,138.3,M,-17.4,M,,*52
$GPGSA,A,3,22,01,31,03,16,04,,,,,,,1.61,1.33,0.91*0E
$GPRMC,215407.750,A,4730.1314,N,12215.7780,W,0.14,43.68,101120,,,A*4E
$GPVTG,43.68,T,,M,0.14,N,0.26,K,A*05
$GPGGA,215408.000,4730.1314,N,12215.7780,W,1,06,1.33,138.3,M,-17.4,M,,*5F
$GPGSA,A,3,22,01,31,03,16,04,,,,,,,1.61,1.33,0.91*0E
$GPRMC,215408.000,A,4730.1314,N,12215.7780,W,0.12,43.32,101120,,,A*4A
$GPVTG,43.32,T,,M,0.12,N,0.23,K,A*09
$GPGGA,215408.250,4730.1314,N,12215.7780,W,1,06,1.33,138.3,M,-17.4,M,,*58
$GPGSA,A,3,22,01,31,03,16,04,,,,,,,1.61,1.33,0.91*0E
$GPGSV,2,1,08,03,78,270,24,22,69,173,28,04,50,277,17,31,43,056,28*74
$GPGSV,2,2,08,01,24,210,19,16,11,146,14,32,04,084,,46,,,29*4C
$GPRMC,215408.250,A,4730.1314,N,12215.7780,W,0.11,36.45,101120,,,A*4C
$GPVTG,36.45,T,,M,0.11,N,0.20,K,A*0B
$GPGGA,215408.500,4730.1314,N,12215.7780,W,1,06,1.33,138.3,M,-17.4,M,,*5A
$GPGSA,A,3,22,01,31,03,16,04,,,,,,,1.61,1.33,0.91*0E
$GPRMC,215408.500,A,4730.1314,N,12215.7780,W,0.09,24.50,101120,,,A*40
$GPVTG,24.50,T,,M,0.09,N,0.17,K,A*01
$GPGGA,215408.750,4730.1314,N,12215.7780,W,1,06,1.33,138.3,M,-17.4,M,,*5D
$GPGSA,A,3,22,01,31,03,16,04,,,,,,,1.61,1.33,0.91*0E
$GPRMC,215408.750,A,4730.1314,N,12215.7780,W,0.10,15.16,101120,,,A*4F
$GPVTG,15.16,T,,M,0.10,N,0.19,K,A*07
$GPGGA,215409.000,4730.1314,N,12215.7780,W,1,06,1.33,138.3,M,-17.4,M,,*5E
$GPGSA,A,3,22,01,31,03,16,04,,,,,,,1.61,1.33,0.91*0E
$GPRMC,215409.000,A,4730.1314,N,12215.7780,W,0.12,8.48,101120,,,A*79
$GPVTG,8.48,T,,M,0.12,N,0.23,K,A*3B
$GPGGA,215409.250,4730.1314,N,12215.7780,W,1,06,1.62,138.3,M,-17.4,M,,*5D
$GPGSA,A,3,22,01,31,03,16,04,,,,,,,2.72,1.62,2.18*08
$GPRMC,215409.250,A,4730.1314,N,12215.7780,W,0.12,358.37,101120,,,A*70
$GPVTG,358.37,T,,M,0.12,N,0.22,K,A*34
$GPGGA,215409.500,4730.1314,N,12215.7780,W,1,06,1.62,138.3,M,-17.4,M,,*5F
$GPGSA,A,3,22,01,31,03,16,04,,,,,,,2.72,1.62,2.18*08
$GPGSV,2,1,08,03,78,270,24,22,69,173,28,04,50,277,17,31,43,056,28*74
$GPGSV,2,2,08,01,24,210,19,16,11,146,14,32,04,084,,46,,,29*4C
$GPRMC,215409.500,A,4730.1314,N,12215.7780,W,0.12,350.33,101120,,,A*7E
$GPVTG,350.33,T,,M,0.12,N,0.21,K,A*3B
$GPGGA,215409.750,4730.1314,N,12215.7780,W,1,06,1.62,138.3,M,-17.4,M,,*58
$GPGSA,A,3,22,01,31,03,16,04,,,,,,,2.72,1.62,2.18*08
$GPRMC,215409.750,A,4730.1314,N,12215.7780,W,0.12,351.63,101120,,,A*7D
$GPVTG,351.63,T,,M,0.12,N,0.23,K,A*3D
$GPGGA,215410.000,4730.1314,N,12215.7780,W,1,06,1.62,138.3,M,-17.4,M,,*52
$GPGSA,A,3,22,01,31,03,16,04,,,,,,,2.72,1.62,2.18*08
$GPRMC,215410.000,A,4730.1314,N,12215.7780,W,0.12,356.06,101120,,,A*73
$GPVTG,356.06,T,,M,0.12,N,0.22,K,A*38
$GPGGA,215410.250,4730.1314,N,12215.7780,W,1,06,1.62,138.3,M,-17.4,M,,*55
$GPGSA,A,3,22,01,31,03,16,04,,,,,,,2.72,1.62,2.18*08
$GPRMC,215410.250,A,4730.1314,N,12215.7780,W,0.10,357.38,101120,,,A*7A
$GPVTG,357.38,T,,M,0.10,N,0.19,K,A*3E
$GPGGA,215410.500,4730.1314,N,12215.7780,W,1,06,1.62,138.3,M,-17.4,M,,*57
$GPGSA,A,3,22,01,31,03,16,04,,,,,,,2.72,1.62,2.18*08
$GPRMC,215410.500,A,4730.1314,N,12215.7780,W,0.07,334.27,101120,,,A*75
$GPVTG,334.27,T,,M,0.07,N,0.13,K,A*39
$GPGGA,215410.750,4730.1314,N,12215.7780,W,1,06,1.33,138.3,M,-17.4,M,,*54
$GPGSA,A,3,22,01,31,03,16,04,,,,,,,1.61,1.33,0.91*0E
$GPGSV,2,1,08,03,78,270,24,22,69,173,27,04,50,277,17,31,43,056,29*7A
$GPGSV,2,2,08,01,24,210,20,16,11,146,15,32,04,084,,46,,,29*47
$GPRMC,215410.750,A,4730.1314,N,12215.7780,W,0.07,329.86,101120,,,A*75
$GPVTG,329.86,T,,M,0.07,N,0.13,K,A*3E
$GPGGA,215411.000,4730.1314,N,12215.7780,W,1,06,1.33,138.3,M,-17.4,M,,*57
$GPGSA,A,3,22,01,31,03,16,04,,,,,,,1.61,1.33,0.91*0E
$GPRMC,215411.000,A,4730.1314,N,12215.7780,W,0.07,308.46,101120,,,A*79
$GPVTG,308.46,T,,M,0.07,N,0.13,K,A*31
$GPGGA,215411.250,4730.1314,N,12215.7780,W,1,06,1.32,138.3,M,-17.4,M,,*51
$GPGSA,A,3,22,01,31,03,16,04,,,,,,,1.61,1.32,0.91*0F
$GPRMC,215411.250,A,4730.1314,N,12215.7780,W,0.10,275.93,101120,,,A*7B
$GPVTG,275.93,T,,M,0.10,N,0.18,K,A*3F
$GPGGA,215411.500,4730.1314,N,12215.7780,W,1,06,1.32,138.3,M,-17.4,M,,*53
$GPGSA,A,3,22,01,31,03,16,04,,,,,,,1.61,1.32,0.91*0F
$GPRMC,215411.500,A,4730.1314,N,12215.7780,W,0.12,266.43,101120,,,A*74
$GPVTG,266.43,T,,M,0.12,N,0.22,K,A*3B
$GPGGA,215411.750,4730.1314,N,12215.7780,W,1,06,1.33,138.3,M,-17.4,M,,*55
$GPGSA,A,3,22,01,31,03,16,04,,,,,,,1.61,1.33,0.91*0E
$GPRMC,215411.750,A,4730.1314,N,12215.7780,W,0.13,263.10,101120,,,A*71
$GPVTG,263.10,T,,M,0.13,N,0.23,K,A*38
$GPGGA,215412.000,4730.1314,N,12215.7781,W,1,06,1.32,138.3,M,-17.4,M,,*54
$GPGSA,A,3,22,01,31,03,16,04,,,,,,,1.61,1.32,0.91*0F
$GPGSV,2,1,08,03,78,270,23,22,69,173,27,04,50,277,17,31,43,056,29*7D
$GPGSV,2,2,08,01,24,210,20,16,11,146,13,32,04,084,,46,,,28*40
$GPRMC,215412.000,A,4730.1314,N,12215.7781,W,0.13,258.26,101120,,,A*7C
$GPVTG,258.26,T,,M,0.13,N,0.24,K,A*32
$GPGGA,215412.250,4730.1314,N,12215.7781,W,1,06,1.33,138.3,M,-17.4,M,,*52
$GPGSA,A,3,22,01,31,03,16,04,,,,,,,1.61,1.33,0.91*0E
$GPRMC,215412.250,A,4730.1314,N,12215.7781,W,0.12,265.93,101120,,,A*7A
$GPVTG,265.93,T,,M,0.12,N,0.22,K,A*35
$GPGGA,215412.500,4730.1314,N,12215.7781,W,1,06,1.32,138.3,M,-17.4,M,,*51
$GPGSA,A,3,22,01,31,03,16,04,,,,,,,1.61,1.32,0.91*0F
$GPRMC,215412.500,A,4730.1314,N,12215.7781,W,0.11,275.41,101120,,,A*75
$GPVTG,275.41,T,,M,0.11,N,0.20,K,A*3A
$GPGGA,215412.750,4730.1314,N,12215.7781,W,1,06,1.33,138.3,M,-17.4,M,,*57
$GPGSA,A,3,22,01,31,03,16,04,,,,,,,1.61,1.33,0.91*0E
$GPRMC,215412.750,A,4730.1314,N,12215.7781,W,0.10,282.79,101120,,,A*70
$GPVTG,282.79,T,,M,0.10,N,0.19,K,A*32
$GPGGA,215413.000,4730.1314,N,12215.7781,W,1,06,1.32,138.3,M,-17.4,M,,*55
$GPGSA,A,3,22,01,31,03,16,04,,,,,,,1.61,1.32,0.91*0F
$GPRMC,215413.000,A,4730.1314,N,12215.7781,W,0.11,285.62,101120,,,A*7F
$GPVTG,285.62,T,,M,0.11,N,0.21,K,A*35
$GPGGA,215413.250,4730.1314,N,12215.7781,W,1,06,1.32,138.3,M,-17.4,M,,*52
$GPGSA,A,3,22,01,31,03,16,04,,,,,,,1.61,1.32,0.91*0F
$GPGSV,2,1,08,03,78,270,23,22,69,173,27,04,50,277,17,31,43,056,28*7C
$GPGSV,2,2,08,01,24,210,20,16,11,146,14,32,04,084,,46,,,28*47
$GPRMC,215413.250,A,4730.1314,N,12215.7781,W,0.14,294.85,101120,,,A*74
$GPVTG,294.85,T,,M,0.14,N,0.25,K,A*3D
$GPGGA,215413.500,4730.1315,N,12215.7781,W,1,06,1.33,138.3,M,-17.4,M,,*50
$GPGSA,A,3,22,01,31,03,16,04,,,,,,,1.61,1.33,0.91*0E
$GPRMC,215413.500,A,4730.1315,N,12215.7781,W,0.15,305.85,101120,,,A*7F
$GPVTG,305.85,T,,M,0.15,N,0.28,K,A*38
$GPGGA,215413.750,4730.1315,N,12215.7781,W,1,06,1.32,138.3,M,-17.4,M,,*56
$GPGSA,A,3,22,01,31,03,16,04,,,,,,,1.61,1.32,0.91*0F
$GPRMC,215413.750,A,4730.1315,N,12215.7781,W,0.15,317.52,101120,,,A*71
$GPVTG,317.52,T,,M,0.15,N,0.28,K,A*31
$GPGGA,215414.000,4730.1315,N,12215.7782,W,1,06,1.33,138.3,M,-17.4,M,,*51
$GPGSA,A,3,22,01,31,03,16,04,,,,,,,1.61,1.33,0.91*0E
$GPRMC,215414.000,A,4730.1315,N,12215.7782,W,0.15,315.20,101120,,,A*70
$GPVTG,315.20,T,,M,0.15,N,0.28,K,A*36
$GPGGA,215414.250,4730.1315,N,12215.7782,W,1,06,1.33,138.3,M,-17.4,M,,*56
$GPGSA,A,3,22,01,31,03,16,04,,,,,,,1.61,1.33,0.91*0E
$GPRMC,215414.250,A,4730.1315,N,12215.7782,W,0.14,300.46,101120,,,A*72
$GPVTG,300.46,T,,M,0.14,N,0.26,K,A*3D
$GPGGA,215414.500,4730.1315,N,12215.7782,W,1,06,1.33,138.3,M,-17.4,M,,*54
$GPGSA,A,3,22,01,31,03,16,04,,,,,,,1.61,1.33,0.91*0E
$GPGSV,2,1,08,03,78,270,24,22,69,173,28,04,51,278,16,31,43,056,28*7B
$GPGSV,2,2,08,01,24,210,20,16,11,146,14,32,04,084,,46,,,28*47
$GPRMC,215414.500,A,4730.1315,N,12215.7782,W,0.15,286.61,101120,,,A*7B
$GPVTG,286.61,T,,M,0.15,N,0.28,K,A*38
$GPGGA,215414.750,4730.1315,N,12215.7782,W,1,06,1.33,138.3,M,-17.4,M,,*53
$GPGSA,A,3,22,01,31,03,16,04,,,,,,,1.61,1.33,0.91*0E
$GPRMC,215414.750,A,4730.1315,N,12215.7782,W,0.16,290.21,101120,,,A*7C
$GPVTG,290.21,T,,M,0.16,N,0.29,K,A*39
$GPGGA,215415.000,4730.1315,N,12215.7782,W,1,06,1.33,138.3,M,-17.4,M,,*50
$GPGSA,A,3,22,01,31,03,16,04,,,,,,,1.61,1.33,0.91*0E
$GPRMC,215415.000,A,4730.1315,N,12215.7782,W,0.18,296.95,101120,,,A*78
$GPVTG,296.95,T,,M,0.18,N,0.33,K,A*35
$GPGGA,215415.250,4730.1315,N,12215.7782,W,1,06,1.32,138.3,M,-17.4,M,,*56
$GPGSA,A,3,22,01,31,03,16,04,,,,,,,1.61,1.32,0.91*0F
$GPRMC,215415.250,A,4730.1315,N,12215.7782,W,0.21,303.76,101120,,,A*75
$GPVTG,303.76,T,,M,0.21,N,0.39,K,A*35
$GPGGA,215415.500,4730.1315,N,12215.7783,W,1,06,1.32,138.3,M,-17.4,M,,*55
$GPGSA,A,3,22,01,31,03,16,04,,,,,,,1.61,1.32,0.91*0F
$GPRMC,215415.500,A,4730.1315,N,12215.7783,W,0.24,297.15,101120,,,A*7A
$GPVTG,297.15,T,,M,0.24,N,0.45,K,A*32
$GPGGA,215415.750,4730.1315,N,12215.7783,W,1,06,1.32,138.3,M,-17.4,M,,*52
$GPGSA,A,3,22,01,31,03,16,04,,,,,,,1.61,1.32,0.91*0F
$GPGSV,2,1,08,03,78,270,24,22,69,173,28,04,51,278,16,31,43,056,28*7B
$GPGSV,2,2,08,01,24,210,20,16,11,146,15,32,04,084,,46,,,29*47
$GPRMC,215415.750,A,4730.1315,N,12215.7783,W,0.27,293.94,101120,,,A*73
$GPVTG,293.94,T,,M,0.27,N,0.49,K,A*30
$GPGGA,215416.000,4730.1315,N,12215.7783,W,1,06,1.33,138.3,M,-17.4,M,,*52
$GPGSA,A,3,22,01,31,03,16,04,,,,,,,1.61,1.33,0.91*0E
$GPRMC,215416.000,A,4730.1315,N,12215.7783,W,0.28,295.83,101120,,,A*7D
$GPVTG,295.83,T,,M,0.28,N,0.52,K,A*35
$GPGGA,215416.250,4730.1315,N,12215.7783,W,1,06,1.33,138.3,M,-17.4,M,,*55
$GPGSA,A,3,22,01,31,03,16,04,,,,,,,1.61,1.33,0.91*0E
$GPRMC,215416.250,A,4730.1315,N,12215.7783,W,0.30,298.59,101120,,,A*79
$GPVTG,298.59,T,,M,0.30,N,0.56,K,A*32
$GPGGA,215416.500,4730.1315,N,12215.7784,W,1,06,1.32,138.3,M,-17.4,M,,*51
$GPGSA,A,3,22,01,31,03,16,04,,,,,,,1.61,1.32,0.91*0F
$GPRMC,215416.500,A,4730.1315,N,12215.7784,W,0.33,301.62,101120,,,A*76
$GPVTG,301.62,T,,M,0.33,N,0.60,K,A*3D
$GPGGA,215416.750,4730.1316,N,12215.7784,W,1,06,1.33,138.3,M,-17.4,M,,*54
$GPGSA,A,3,22,01,31,03,16,04,,,,,,,1.61,1.33,0.91*0E
$GPRMC,215416.750,A,4730.1316,N,12215.7784,W,0.36,302.24,101120,,,A*76
$GPVTG,302.24,T,,M,0.36,N,0.67,K,A*3E
$GPGGA,215417.000,4730.1316,N,12215.7784,W,1,06,1.32,138.3,M,-17.4,M,,*56
$GPGSA,A,3,22,01,31,03,16,04,,,,,,,1.61,1.32,0.91*0F
$GPGSV,2,1,08,03,78,270,24,22,69,173,29,04,51,278,16,31,43,056,28*7A
$GPGSV,2,2,08,01,24,210,20,16,11,146,13,32,04,084,,46,,,29*41
$GPRMC,215417.000,A,4730.1316,N,12215.7784,W,0.39,301.41,101120,,,A*7A
$GPVTG,301.41,T,,M,0.39,N,0.71,K,A*36
$GPGGA,215417.250,4730.1316,N,12215.7785,W,1,06,1.32,138.3,M,-17.4,M,,*50
$GPGSA,A,3,22,01,31,03,16,04,,,,,,,1.61,1.32,0.91*0F
$GPRMC,215417.250,A,4730.1316,N,12215.7785,W,0.40,305.40,101120,,,A*77
$GPVTG,305.40,T,,M,0.40,N,0.74,K,A*38
$GPGGA,215417.500,4730.1316,N,12215.7785,W,1,06,1.32,138.3,M,-17.4,M,,*52
$GPGSA,A,3,22,01,31,03,16,04,,,,,,,1.61,1.32,0.91*0F
$GPRMC,215417.500,A,4730.1316,N,12215.7785,W,0.41,310.41,101120,,,A*71
$GPVTG,310.41,T,,M,0.41,N,0.76,K,A*3E
$GPGGA,215417.750,4730.1316,N,12215.7785,W,1,06,1.33,138.3,M,-17.4,M,,*54
$GPGSA,A,3,22,01,31,03,16,04,,,,,,,1.61,1.33,0.91*0E
$GPRMC,215417.750,A,4730.1316,N,12215.7785,W,0.41,312.75,101120,,,A*73
$GPVTG,312.75,T,,M,0.41,N,0.75,K,A*38
$GPGGA,215418.000,4730.1317,N,12215.7786,W,1,06,1.33,138.3,M,-17.4,M,,*5B
$GPGSA,A,3,22,01,31,03,16,04,,,,,,,1.61,1.33,0.91*0E
$GPRMC,215418.000,A,4730.1317,N,12215.7786,W,0.39,313.28,101120,,,A*7A
$GPVTG,313.28,T,,M,0.39,N,0.73,K,A*38
$GPGGA,215418.250,4730.1317,N,12215.7786,W,1,06,1.33,138.3,M,-17.4,M,,*5C
$GPGSA,A,3,22,01,31,03,16,04,,,,,,,1.61,1.33,0.91*0E
$GPGSV,2,1,08,03,78,270,24,22,69,173,29,04,51,278,15,31,43,056,28*79
$GPGSV,2,2,08,01,24,210,20,16,11,146,14,32,04,084,,46,,,28*47
$GPRMC,215418.250,A,4730.1317,N,12215.7786,W,0.38,314.56,101120,,,A*72
$GPVTG,314.56,T,,M,0.38,N,0.71,K,A*35
$GPGGA,215418.500,4730.1317,N,12215.7786,W,1,06,1.32,138.3,M,-17.4,M,,*5F
$GPGSA,A,3,22,01,31,03,16,04,,,,,,,1.61,1.32,0.91*0F
$GPRMC,215418.500,A,4730.1317,N,12215.7786,W,0.38,316.40,101120,,,A*75
$GPVTG,316.40,T,,M,0.38,N,0.70,K,A*31
$GPGGA,215418.750,4730.1317,N,12215.7786,W,1,06,1.33,138.3,M,-17.4,M,,*59
$GPGSA,A,3,22,01,31,03,16,04,,,,,,,1.61,1.33,0.91*0E
$GPRMC,215418.750,A,4730.1317,N,12215.7786,W,0.37,314.56,101120,,,A*78
$GPVTG,314.56,T,,M,0.37,N,0.68,K,A*32
$GPGGA,215419.000,4730.1317,N,12215.7787,W,1,06,1.32,138.3,M,-17.4,M,,*5A
$GPGSA,A,3,22,01,31,03,16,04,,,,,,,1.61,1.32,0.91*0F
$GPRMC,215419.000,A,4730.1317,N,12215.7787,W,0.35,310.40,101120,,,A*7B
$GPVTG,310.40,T,,M,0.35,N,0.66,K,A*3D
$GPGGA,215419.250,4730.1317,N,12215.7787,W,1,06,1.33,138.3,M,-17.4,M,,*5C
$GPGSA,A,3,22,01,31,03,16,04,,,,,,,1.61,1.33,0.91*0E
$GPRMC,215419.250,A,4730.1317,N,12215.7787,W,0.35,302.77,101120,,,A*7B
$GPVTG,302.77,T,,M,0.35,N,0.65,K,A*39
$GPGGA,215419.500,4730.1318,N,12215.7787,W,1,06,1.33,138.3,M,-17.4,M,,*51
$GPGSA,A,3,22,01,31,03,16,04,,,,,,,1.61,1.33,0.91*0E
$GPGSV,2,1,08,03,78,270,24,22,69,173,29,04,51,278,15,31,43,056,28*79
$GPGSV,2,2,08,01,24,210,20,16,11,146,14,32,04,084,,46,,,28*47
$GPRMC,215419.500,A,4730.1318,N,12215.7787,W,0.36,298.94,101120,,,A*7A
$GPVTG,298.94,T,,M,0.36,N,0.67,K,A*37
$GPGGA,215419.750,4730.1318,N,12215.7788,W,1,06,1.32,138.3,M,-17.4,M,,*58
$GPGSA,A,3,22,01,31,03,16,04,,,,,,,1.61,1.32,0.91*0F
$GPRMC,215419.750,A,4730.1318,N,12215.7788,W,0.38,298.12,101120,,,A*72
$GPVTG,298.12,T,,M,0.38,N,0.70,K,A*31
$GPGGA,215420.000,4730.1318,N,12215.7788,W,1,06,1.33,138.3,M,-17.4,M,,*51
$GPGSA,A,3,22,01,31,03,16,04,,,,,,,1.61,1.33,0.91*0E
$GPRMC,215420.000,A,4730.1318,N,12215.7788,W,0.38,299.97,101120,,,A*76
$GPVTG,299.97,T,,M,0.38,N,0.71,K,A*3C
$GPGGA,215420.250,4730.1318,N,12215.7788,W,1,06,1.33,138.3,M,-17.4,M,,*56
$GPGSA,A,3,22,01,31,03,16,04,,,,,,,1.61,1.33,0.91*0E
$GPRMC,215420.250,A,4730.1318,N,12215.7788,W,0.37,302.75,101120,,,A*71
$GPVTG,302.75,T,,M,0.37,N,0.69,K,A*35
$GPGGA,215420.500,4730.1318,N,12215.7789,W,1,06,1.33,138.3,M,-17.4,M,,*55
$GPGSA,A,3,22,01,31,03,16,04,,,,,,,1.61,1.33,0.91*0E
$GPRMC,215420.500,A,4730.1318,N,12215.7789,W,0.37,307.62,101120,,,A*71
$GPVTG,307.62,T,,M,0.37,N,0.68,K,A*37
$GPGGA,215420.750,4730.1318,N,12215.7789,W,1,06,1.32,138.3,M,-17.4,M,,*53
$GPGSA,A,3,22,01,31,03,16,04,,,,,,,1.61,1.32,0.91*0F
$GPGSV,2,1,08,03,78,270,24,22,69,173,29,04,51,278,14,31,43,056,28*78
$GPGSV,2,2,08,01,24,210,20,16,11,146,15,32,04,084,,46,,,28*46
$GPRMC,215420.750,A,4730.1318,N,12215.7789,W,0.36,316.56,101120,,,A*70
$GPVTG,316.56,T,,M,0.36,N,0.67,K,A*3E
$GPGGA,215421.000,4730.1318,N,12215.7789,W,1,06,1.32,138.3,M,-17.4,M,,*50
$GPGSA,A,3,22,01,31,03,16,04,,,,,,,1.61,1.32,0.91*0F
$GPRMC,215421.000,A,4730.1318,N,12215.7789,W,0.36,318.47,101120,,,A*7D
$GPVTG,318.47,T,,M,0.36,N,0.67,K,A*30
$GPGGA,215421.250,4730.1319,N,12215.7789,W,1,06,1.32,138.3,M,-17.4,M,,*56
$GPGSA,A,3,22,01,31,03,16,04,,,,,,,1.61,1.32,0.91*0F
$GPRMC,215421.250,A,4730.1319,N,12215.7789,W,0.37,317.92,101120,,,A*7D
$GPVTG,317.92,T,,M,0.37,N,0.69,K,A*38
$GPGGA,215421.500,4730.1319,N,12215.7790,W,1,06,1.32,138.3,M,-17.4,M,,*5C
$GPGSA,A,3,22,01,31,03,16,04,,,,,,,1.61,1.32,0.91*0F
$GPRMC,215421.500,A,4730.1319,N,12215.7790,W,0.38,313.21,101120,,,A*74
$GPVTG,313.21,T,,M,0.38,N,0.70,K,A*33
$GPGGA,215421.750,4730.1319,N,12215.7790,W,1,06,1.32,138.3,M,-17.4,M,,*5B
$GPGSA,A,3,22,01,31,03,16,04,,,,,,,1.61,1.32,0.91*0F
$GPRMC,215421.750,A,4730.1319,N,12215.7790,W,0.39,310.69,101120,,,A*7D
$GPVTG,310.69,T,,M,0.39,N,0.73,K,A*3E
$GPGGA,215422.000,4730.1319,N,12215.7790,W,1,06,1.33,138.3,M,-17.4,M,,*5B
$GPGSA,A,3,22,01,31,03,16,04,,,,,,,1.61,1.33,0.91*0E
$GPGSV,2,1,08,03,78,270,24,22,69,173,29,04,51,278,13,31,43,056,28*7F
$GPGSV,2,2,08,01,24,210,21,16,11,146,15,32,04,084,,46,,,29*46
$GPRMC,215422.000,A,4730.1319,N,12215.7790,W,0.39,311.99,101120,,,A*72
$GPVTG,311.99,T,,M,0.39,N,0.73,K,A*30
$GPGGA,215422.250,4730.1319,N,12215.7791,W,1,06,1.32,138.3,M,-17.4,M,,*5C
$GPGSA,A,3,22,01,31,03,16,04,,,,,,,1.61,1.32,0.91*0F
$GPRMC,215422.250,A,4730.1319,N,12215.7791,W,0.41,315.21,101120,,,A*7C
$GPVTG,315.21,T,,M,0.41,N,0.77,K,A*3C
$GPGGA,215422.500,4730.1320,N,12215.7791,W,1,06,1.32,138.3,M,-17.4,M,,*54
$GPGSA,A,3,22,01,31,03,16,04,,,,,,,1.61,1.32,0.91*0F
$GPRMC,215422.500,A,4730.1320,N,12215.7791,W,0.43,314.36,101120,,,A*71
$GPVTG,314.36,T,,M,0.43,N,0.80,K,A*31
$GPGGA,215422.750,4730.1320,N,12215.7791,W,1,06,1.32,138.3,M,-17.4,M,,*53
$GPGSA,A,3,22,01,31,03,16,04,,,,,,,1.61,1.32,0.91*0F
$GPRMC,215422.750,A,4730.1320,N,12215.7791,W,0.43,308.39,101120,,,A*74
$GPVTG,308.39,T,,M,0.43,N,0.80,K,A*33
$GPGGA,215423.000,4730.1320,N,12215.7792,W,1,06,1.33,138.3,M,-17.4,M,,*52
$GPGSA,A,3,22,01,31,03,16,04,,,,,,,1.61,1.33,0.91*0E
$GPRMC,215423.000,A,4730.1320,N,12215.7792,W,0.44,306.87,101120,,,A*78
$GPVTG,306.87,T,,M,0.44,N,0.82,K,A*3D
$GPGGA,215423.250,4730.1320,N,12215.7792,W,1,06,1.33,138.3,M,-17.4,M,,*55
$GPGSA,A,3,22,01,31,03,16,04,,,,,,,1.61,1.33,0.91*0E
$GPGSV,2,1,08,03,79,270,24,22,69,173,29,04,51,278,15,31,43,056,28*78
$GPGSV,2,2,08,01,24,210,21,16,11,146,14,32,04,084,,46,,,29*47
$GPRMC,215423.250,A,4730.1320,N,12215.7792,W,0.45,306.66,101120,,,A*71
$GPVTG,306.66,T,,M,0.45,N,0.83,K,A*32
$GPGGA,215423.500,4730.1320,N,12215.7792,W,1,06,1.32,138.3,M,-17.4,M,,*56
$GPGSA,A,3,22,01,31,03,16,04,,,,,,,1.61,1.32,0.91*0F
$GPRMC,215423.500,A,4730.1320,N,12215.7792,W,0.45,308.99,101120,,,A*7D
$GPVTG,308.99,T,,M,0.45,N,0.83,K,A*3C
$GPGGA,215423.750,4730.1321,N,12215.7793,W,1,06,1.32,138.3,M,-17.4,M,,*51
$GPGSA,A,3,22,01,31,03,16,04,,,,,,,1.61,1.32,0.91*0F
$GPRMC,215423.750,A,4730.1321,N,12215.7793,W,0.44,310.64,101120,,,A*70
$GPVTG,310.64,T,,M,0.44,N,0.81,K,A*34
$GPGGA,215424.000,4730.1321,N,12215.7793,W,1,06,1.32,138.3,M,-17.4,M,,*54
$GPGSA,A,3,22,01,31,03,16,04,,,,,,,1.61,1.32,0.91*0F
$GPRMC,215424.000,A,4730.1321,N,12215.7793,W,0.44,310.75,101120,,,A*75
$GPVTG,310.75,T,,M,0.44,N,0.81,K,A*34
$GPGGA,215424.250,4730.1321,N,12215.7793,W,1,06,1.32,138.3,M,-17.4,M,,*53
$GPGSA,A,3,22,01,31,03,16,04,,,,,,,1.61,1.32,0.91*0F
$GPRMC,215424.250,A,4730.1321,N,12215.7793,W,0.45,312.28,101120,,,A*79
$GPVTG,312.28,T,,M,0.45,N,0.84,K,A*3A
$GPGGA,215424.500,4730.1321,N,12215.7794,W,1,06,1.32,138.3,M,-17.4,M,,*56
$GPGSA,A,3,22,01,31,03,16,04,,,,,,,1.61,1.32,0.91*0F
$GPGSV,2,1,08,03,79,270,24,22,69,173,29,04,51,278,15,31,43,056,28*78
$GPGSV,2,2,08,01,24,210,21,16,11,146,14,32,04,084,,46,,,28*46
$GPRMC,215424.500,A,4730.1321,N,12215.7794,W,0.45,314.65,101120,,,A*73
$GPVTG,314.65,T,,M,0.45,N,0.84,K,A*35
$GPGGA,215424.750,4730.1322,N,12215.7794,W,1,06,1.32,138.3,M,-17.4,M,,*52
$GPGSA,A,3,22,01,31,03,16,04,,,,,,,1.61,1.32,0.91*0F
$GPRMC,215424.750,A,4730.1322,N,12215.7794,W,0.45,315.43,101120,,,A*72
$GPVTG,315.43,T,,M,0.45,N,0.83,K,A*37
$GPGGA,215425.000,4730.1322,N,12215.7794,W,1,06,1.32,138.3,M,-17.4,M,,*51
$GPGSA,A,3,22,01,31,03,16,04,,,,,,,1.61,1.32,0.91*0F
$GPRMC,215425.000,A,4730.1322,N,12215.7794,W,0.46,315.64,101120,,,A*77
$GPVTG,315.64,T,,M,0.46,N,0.85,K,A*37
$GPGGA,215425.250,4730.1322,N,12215.7795,W,1,06,1.32,138.3,M,-17.4,M,,*57
$GPGSA,A,3,22,01,31,03,16,04,,,,,,,1.61,1.32,0.91*0F
$GPRMC,215425.250,A,4730.1322,N,12215.7795,W,0.47,315.43,101120,,,A*75
$GPVTG,315.43,T,,M,0.47,N,0.87,K,A*31
$GPGGA,215425.500,4730.1322,N,12215.7795,W,1,06,1.32,138.3,M,-17.4,M,,*55
$GPGSA,A,3,22,01,31,03,16,04,,,,,,,1.61,1.32,0.91*0F
$GPRMC,215425.500,A,4730.1322,N,12215.7795,W,0.44,313.34,101120,,,A*72
$GPVTG,313.34,T,,M,0.44,N,0.82,K,A*31
$GPGGA,215425.750,4730.1322,N,12215.7795,W,1,06,1.32,138.3,M,-17.4,M,,*52
$GPGSA,A,3,22,01,31,03,16,04,,,,,,,1.61,1.32,0.91*0F
$GPGSV,2,1,08,03,79,270,24,22,69,173,29,04,51,278,11,31,43,056,28*7C
$GPGSV,2,2,08,01,24,210,21,16,11,146,15,32,04,084,,46,,,28*47
$GPRMC,215425.750,A,4730.1322,N,12215.7795,W,0.42,311.34,101120,,,A*71
$GPVTG,311.34,T,,M,0.42,N,0.78,K,A*30
$GPGGA,215426.000,4730.1323,N,12215.7796,W,1,06,1.32,138.3,M,-17.4,M,,*51
$GPGSA,A,3,22,01,31,03,16,04,,,,,,,1.61,1.32,0.91*0F
$GPRMC,215426.000,A,4730.1323,N,12215.7796,W,0.42,314.05,101120,,,A*75
$GPVTG,314.05,T,,M,0.42,N,0.77,K,A*38
$GPGGA,215426.250,4730.1323,N,12215.7796,W,1,06,1.33,138.2,M,-17.4,M,,*56
$GPGSA,A,3,22,01,31,03,16,04,,,,,,,1.61,1.33,0.91*0E
$GPRMC,215426.250,A,4730.1323,N,12215.7796,W,0.41,316.95,101120,,,A*7A
$GPVTG,316.95,T,,M,0.41,N,0.76,K,A*31
$GPGGA,215426.500,4730.1323,N,12215.7796,W,1,06,1.32,138.2,M,-17.4,M,,*55
$GPGSA,A,3,22,01,31,03,16,04,,,,,,,1.61,1.32,0.91*0F
$GPRMC,215426.500,A,4730.1323,N,12215.7796,W,0.38,316.68,101120,,,A*74
$GPVTG,316.68,T,,M,0.38,N,0.70,K,A*3B
$GPGGA,215426.750,4730.1323,N,12215.7797,W,1,06,1.32,138.2,M,-17.4,M,,*53
$GPGSA,A,3,22,01,31,03,16,04,,,,,,,1.61,1.32,0.91*0F
$GPRMC,215426.750,A,4730.1323,N,12215.7797,W,0.35,316.77,101120,,,A*71
$GPVTG,316.77,T,,M,0.35,N,0.65,K,A*3C
$GPGGA,215427.000,4730.1323,N,12215.7797,W,1,06,1.32,138.2,M,-17.4,M,,*50
$GPGSA,A,3,22,01,31,03,16,04,,,,,,,1.61,1.32,0.91*0F
$GPGSV,2,1,08,03,79,270,24,22,69,173,29,04,51,278,14,31,43,056,28*79
$GPGSV,2,2,08,01,24,210,21,16,11,146,14,32,04,084,,46,,,28*46
$GPRMC,215427.000,A,4730.1323,N,12215.7797,W,0.34,316.46,101120,,,A*71
$GPVTG,316.46,T,,M,0.34,N,0.63,K,A*39
$GPGGA,215427.250,4730.1324,N,12215.7797,W,1,06,1.32,138.2,M,-17.4,M,,*50
$GPGSA,A,3,22,01,31,03,16,04,,,,,,,1.61,1.32,0.91*0F
$GPRMC,215427.250,A,4730.1324,N,12215.7797,W,0.33,317.58,101120,,,A*78
$GPVTG,317.58,T,,M,0.33,N,0.62,K,A*31
$GPGGA,215427.500,4730.1324,N,12215.7797,W,1,06,1.32,138.2,M,-17.4,M,,*52
$GPGSA,A,3,22,01,31,03,16,04,,,,,,,1.61,1.32,0.91*0F
$GPRMC,215427.500,A,4730.1324,N,12215.7797,W,0.32,312.54,101120,,,A*72
$GPVTG,312.54,T,,M,0.32,N,0.59,K,A*31
$GPGGA,215427.750,4730.1324,N,12215.7798,W,1,06,1.32,138.2,M,-17.4,M,,*5A
$GPGSA,A,3,22,01,31,03,16,04,,,,,,,1.61,1.32,0.91*0F
$GPRMC,215427.750,A,4730.1324,N,12215.7798,W,0.30,306.53,101120,,,A*7A
$GPVTG,306.53,T,,M,0.30,N,0.55,K,A*3D
$GPGGA,215428.000,4730.1324,N,12215.7798,W,1,06,1.32,138.2,M,-17.4,M,,*57
$GPGSA,A,3,22,01,31,03,16,04,,,,,,,1.61,1.32,0.91*0F
$GPRMC,215428.000,A,4730.1324,N,12215.7798,W,0.29,303.94,101120,,,A*71
$GPVTG,303.94,T,,M,0.29,N,0.53,K,A*3D
$GPGGA,215428.250,4730.1324,N,12215.7798,W,1,06,1.33,138.2,M,-17.4,M,,*51
$GPGSA,A,3,22,01,31,03,16,04,,,,,,,1.61,1.33,0.91*0E
$GPGSV,2,1,08,03,79,270,24,22,69,173,29,04,51,278,13,31,43,056,29*7F
$GPGSV,2,2,08,01,24,210,21,16,11,146,15,32,04,084,,46,,,28*47
$GPRMC,215428.250,A,4730.1324,N,12215.7798,W,0.28,303.14,101120,,,A*7F
$GPVTG,303.14,T,,M,0.28,N,0.53,K,A*34
$GPGGA,215428.500,4730.1324,N,12215.7798,W,1,06,1.32,138.2,M,-17.4,M,,*52
$GPGSA,A,3,22,01,31,03,16,04,,,,,,,1.61,1.32,0.91*0F
$GPRMC,215428.500,A,4730.1324,N,12215.7798,W,0.30,302.98,101120,,,A*71
$GPVTG,302.98,T,,M,0.30,N,0.56,K,A*3D
$GPGGA,215428.750,4730.1324,N,12215.7799,W,1,06,1.32,138.2,M,-17.4,M,,*54
$GPGSA,A,3,22,01,31,03,16,04,,,,,,,1.61,1.32,0.91*0F
$GPRMC,215428.750,A,4730.1324,N,12215.7799,W,0.31,302.78,101120,,,A*78
$GPVTG,302.78,T,,M,0.31,N,0.57,K,A*33
$GPGGA,215429.000,4730.1325,N,12215.7799,W,1,06,1.32,138.2,M,-17.4,M,,*56
$GPGSA,A,3,22,01,31,03,16,04,,,,,,,1.61,1.32,0.91*0F
$GPRMC,215429.000,A,4730.1325,N,12215.7799,W,0.33,307.86,101120,,,A*7C
$GPVTG,307.86,T,,M,0.33,N,0.61,K,A*30
$GPGGA,215429.250,4730.1325,N,12215.7799,W,1,06,1.32,138.2,M,-17.4,M,,*51
$GPGSA,A,3,22,01,31,03,16,04,,,,,,,1.61,1.32,0.91*0F
$GPRMC,215429.250,A,4730.1325,N,12215.7799,W,0.36,311.43,101120,,,A*70
$GPVTG,311.43,T,,M,0.36,N,0.66,K,A*3C
$GPGGA,215429.500,4730.1325,N,12215.7799,W,1,06,1.32,138.2,M,-17.4,M,,*53
$GPGSA,A,3,22,01,31,03,16,04,,,,,,,1.61,1.32,0.91*0F
$GPGSV,2,1,08,03,79,270,25,22,69,173,29,04,51,278,13,31,43,056,29*7E
$GPGSV,2,2,08,01,24,210,21,16,11,146,13,32,04,084,,46,,,28*41
$GPRMC,215429.500,A,4730.1325,N,12215.7799,W,0.38,314.25,101120,,,A*79
$GPVTG,314.25,T,,M,0.38,N,0.70,K,A*30
$GPGGA,215429.750,4730.1325,N,12215.7800,W,1,06,1.32,138.2,M,-17.4,M,,*5B
$GPGSA,A,3,22,01,31,03,16,04,,,,,,,1.61,1.32,0.91*0F
$GPRMC,215429.750,A,4730.1325,N,12215.7800,W,0.40,322.88,101120,,,A*7C
$GPVTG,322.88,T,,M,0.40,N,0.74,K,A*39
$GPGGA,215430.000,4730.1325,N,12215.7800,W,1,06,1.32,138.2,M,-17.4,M,,*51
$GPGSA,A,3,22,01,31,03,16,04,,,,,,,1.61,1.32,0.91*0F
$GPRMC,215430.000,A,4730.1325,N,12215.7800,W,0.42,329.35,101120,,,A*79
$GPVTG,329.35,T,,M,0.42,N,0.78,K,A*3A
$GPGGA,215430.250,4730.1326,N,12215.7800,W,1,06,1.32,138.2,M,-17.4,M,,*55
$GPGSA,A,3,22,01,31,03,16,04,,,,,,,1.61,1.32,0.91*0F
$GPRMC,215430.250,A,4730.1326,N,12215.7800,W,0.45,336.74,101120,,,A*71
$GPVTG,336.74,T,,M,0.45,N,0.83,K,A*32
$GPGGA,215430.500,4730.1326,N,12215.7800,W,1,06,1.32,138.2,M,-17.4,M,,*57
$GPGSA,A,3,22,01,31,03,16,04,,,,,,,1.61,1.32,0.91*0F
$GPRMC,215430.500,A,4730.1326,N,12215.7800,W,0.49,339.60,101120,,,A*75
$GPVTG,339.60,T,,M,0.49,N,0.91,K,A*37
$GPGGA,215430.750,4730.1326,N,12215.7801,W,1,06,1.32,138.2,M,-17.4,M,,*51
$GPGSA,A,3,22,01,31,03,16,04,,,,,,,1.61,1.32,0.91*0F
$GPGSV,2,1,08,03,79,270,24,22,69,173,29,04,51,278,12,31,43,056,28*7F
$GPGSV,2,2,08,01,23,210,21,16,11,146,12,32,04,084,,46,,,28*47
$GPRMC,215430.750,A,4730.1326,N,12215.7801,W,0.51,338.79,101120,,,A*73
$GPVTG,338.79,T,,M,0.51,N,0.94,K,A*32
$GPGGA,215431.000,4730.1327,N,12215.7801,W,1,06,1.32,138.2,M,-17.4,M,,*53
$GPGSA,A,3,22,01,31,03,16,04,,,,,,,1.61,1.32,0.91*0F
$GPRMC,215431.000,A,4730.1327,N,12215.7801,W,0.52,337.82,101120,,,A*79
$GPVTG,337.82,T,,M,0.52,N,0.96,K,A*38
$GPGGA,215431.250,4730.1327,N,12215.7801,W,1,06,1.32,138.2,M,-17.4,M,,*54
$GPGSA,A,3,22,01,31,03,16,04,,,,,,,1.61,1.32,0.91*0F
$GPRMC,215431.250,A,4730.1327,N,12215.7801,W,0.52,334.04,101120,,,A*73
$GPVTG,334.04,T,,M,0.52,N,0.96,K,A*35
$GPGGA,215431.500,4730.1327,N,12215.7801,W,1,06,1.32,138.2,M,-17.4,M,,*56
$GPGSA,A,3,22,01,31,03,16,04,,,,,,,1.61,1.32,0.91*0F
$GPRMC,215431.500,A,4730.1327,N,12215.7801,W,0.50,330.29,101120,,,A*78
$GPVTG,330.29,T,,M,0.50,N,0.93,K,A*39
$GPGGA,215431.750,4730.1328,N,12215.7801,W,1,06,1.32,138.2,M,-17.4,M,,*5E
$GPGSA,A,3,22,01,31,03,16,04,,,,,,,1.61,1.32,0.91*0F
$GPRMC,215431.750,A,4730.1328,N,12215.7801,W,0.49,329.48,101120,,,A*77
$GPVTG,329.48,T,,M,0.49,N,0.90,K,A*3D
$GPGGA,215432.000,4730.1328,N,12215.7802,W,1,06,1.32,138.2,M,-17.4,M,,*5C
$GPGSA,A,3,22,01,31,03,16,04,,,,,,,1.61,1.32,0.91*0F
$GPGSV,2,1,08,03,79,269,24,22,69,173,29,04,51,278,12,31,43,056,28*77
$GPGSV,2,2,08,01,23,210,21,16,11,146,13,32,04,084,,46,,,28*46
$GPRMC,215432.000,A,4730.1328,N,12215.7802,W,0.47,329.60,101120,,,A*71
$GPVTG,329.60,T,,M,0.47,N,0.88,K,A*30
$GPGGA,215432.250,4730.1328,N,12215.7802,W,1,06,1.32,138.2,M,-17.4,M,,*5B
$GPGSA,A,3,22,01,31,03,16,04,,,,,,,1.61,1.32,0.91*0F
$GPRMC,215432.250,A,4730.1328,N,12215.7802,W,0.45,328.36,101120,,,A*76
$GPVTG,328.36,T,,M,0.45,N,0.84,K,A*3C
$GPGGA,215432.500,4730.1328,N,12215.7802,W,1,06,1.32,138.2,M,-17.4,M,,*59
$GPGSA,A,3,22,01,31,03,16,04,,,,,,,1.61,1.32,0.91*0F
$GPRMC,215432.500,A,4730.1328,N,12215.7802,W,0.44,326.48,101120,,,A*72
$GPVTG,326.48,T,,M,0.44,N,0.82,K,A*3C
$GPGGA,215432.750,4730.1329,N,12215.7802,W,1,06,1.32,138.2,M,-17.4,M,,*5F
$GPGSA,A,3,22,01,31,03,16,04,,,,,,,1.61,1.32,0.91*0F
$GPRMC,215432.750,A,4730.1329,N,12215.7802,W,0.44,326.65,101120,,,A*7B
$GPVTG,326.65,T,,M,0.44,N,0.81,K,A*30
$GPGGA,215433.000,4730.1329,N,12215.7803,W,1,06,1.32,138.2,M,-17.4,M,,*5D
$GPGSA,A,3,22,01,31,03,16,04,,,,,,,1.61,1.32,0.91*0F
$GPRMC,215433.000,A,4730.1329,N,12215.7803,W,0.43,327.56,101120,,,A*7F
$GPVTG,327.56,T,,M,0.43,N,0.80,K,A*37
$GPGGA,215433.250,4730.1329,N,12215.7803,W,1,06,1.32,138.2,M,-17.4,M,,*5A
$GPGSA,A,3,22,01,31,03,16,04,,,,,,,1.61,1.32,0.91*0F
$GPGSV,2,1,08,03,79,269,23,22,69,173,29,04,51,278,13,31,43,056,28*71
$GPGSV,2,2,08,01,23,210,22,16,11,146,13,32,04,084,,46,,,29*44
$GPRMC,215433.250,A,4730.1329,N,12215.7803,W,0.44,330.14,101120,,,A*7F
$GPVTG,330.14,T,,M,0.44,N,0.81,K,A*31
$GPGGA,215433.500,4730.1329,N,12215.7803,W,1,06,1.32,138.2,M,-17.4,M,,*58
$GPGSA,A,3,22,01,31,03,16,04,,,,,,,1.61,1.32,0.91*0F
$GPRMC,215433.500,A,4730.1329,N,12215.7803,W,0.44,332.73,101120,,,A*7E
$GPVTG,332.73,T,,M,0.44,N,0.81,K,A*32
$GPGGA,215433.750,4730.1330,N,12215.7803,W,1,06,1.32,138.2,M,-17.4,M,,*57
$GPGSA,A,3,22,01,31,03,16,04,,,,,,,1.61,1.32,0.91*0F
$GPRMC,215433.750,A,4730.1330,N,12215.7803,W,0.46,336.37,101120,,,A*77
$GPVTG,336.37,T,,M,0.46,N,0.85,K,A*30
$GPGGA,215434.000,4730.1330,N,12215.7803,W,1,06,1.32,138.2,M,-17.4,M,,*52
$GPGSA,A,3,22,01,31,03,16,04,,,,,,,1.61,1.32,0.91*0F
$GPRMC,215434.000,A,4730.1330,N,12215.7803,W,0.47,338.25,101120,,,A*7E
$GPVTG,338.25,T,,M,0.47,N,0.87,K,A*3E
$GPGGA,215434.250,4730.1330,N,12215.7804,W,1,06,1.32,138.2,M,-17.4,M,,*52
$GPGSA,A,3,22,01,31,03,16,04,,,,,,,1.61,1.32,0.91*0F
$GPRMC,215434.250,A,4730.1330,N,12215.7804,W,0.49,337.53,101120,,,A*7E
$GPVTG,337.53,T,,M,0.49,N,0.91,K,A*39
$GPGGA,215434.500,4730.1331,N,12215.7804,W,1,06,1.32,138.2,M,-17.4,M,,*51
$GPGSA,A,3,22,01,31,03,16,04,,,,,,,1.61,1.32,0.91*0F
$GPGSV,2,1,08,03,79,269,24,22,69,173,29,04,51,278,13,31,43,056,29*77
$GPGSV,2,2,08,01,23,210,21,16,11,146,13,32,04,084,,46,,,29*47
$GPRMC,215434.500,A,4730.1331,N,12215.7804,W,0.51,332.37,101120,,,A*73
$GPVTG,332.37,T,,M,0.51,N,0.95,K,A*33
$GPGGA,215434.750,4730.1331,N,12215.7804,W,1,06,1.32,138.2,M,-17.4,M,,*56
$GPGSA,A,3,22,01,31,03,16,04,,,,,,,1.61,1.32,0.91*0F
$GPRMC,215434.750,A,4730.1331,N,12215.7804,W,0.51,325.80,101120,,,A*7E
$GPVTG,325.80,T,,M,0.51,N,0.95,K,A*39
$GPGGA,215435.000,4730.1331,N,12215.7804,W,1,06,1.32,138.2,M,-17.4,M,,*55
$GPGSA,A,3,22,01,31,03,16,04,,,,,,,1.61,1.32,0.91*0F
$GPRMC,215435.000,A,4730.1331,N,12215.7804,W,0.51,325.02,101120,,,A*77
$GPVTG,325.02,T,,M,0.51,N,0.95,K,A*33
$GPGGA,215435.250,4730.1332,N,12215.7805,W,1,06,1.32,138.2,M,-17.4,M,,*50
$GPGSA,A,3,22,01,31,03,16,04,,,,,,,1.61,1.32,0.91*0F
$GPRMC,215435.250,A,4730.1332,N,12215.7805,W,0.50,325.16,101120,,,A*76
$GPVTG,325.16,T,,M,0.50,N,0.93,K,A*31
$GPGGA,215435.500,4730.1332,N,12215.7805,W,1,06,1.32,138.2,M,-17.4,M,,*52
$GPGSA,A,3,22,01,31,03,16,04,,,,,,,1.61,1.32,0.91*0F
$GPRMC,215435.500,A,4730.1332,N,12215.7805,W,0.48,321.78,101120,,,A*71
$GPVTG,321.78,T,,M,0.48,N,0.88,K,A*3E
$GPGGA,215435.750,4730.1332,N,12215.7805,W,1,06,1.32,138.2,M,-17.4,M,,*55
$GPGSA,A,3,22,01,31,03,16,04,,,,,,,1.61,1.32,0.91*0F
$GPGSV,2,1,08,03,79,269,24,22,69,173,29,04,51,278,11,31,43,056,29*75
$GPGSV,2,2,08,01,23,210,21,16,11,146,13,32,04,084,,46,,,29*47
$GPRMC,215435.750,A,4730.1332,N,12215.7805,W,0.47,319.01,101120,,,A*7C
$GPVTG,319.01,T,,M,0.47,N,0.87,K,A*3B
$GPGGA,215436.000,4730.1332,N,12215.7806,W,1,06,1.32,138.2,M,-17.4,M,,*57
$GPGSA,A,3,22,01,31,03,16,04,,,,,,,1.61,1.32,0.91*0F
$GPRMC,215436.000,A,4730.1332,N,12215.7806,W,0.47,318.67,101120,,,A*7F
$GPVTG,318.67,T,,M,0.47,N,0.87,K,A*3A
$GPGGA,215436.250,4730.1333,N,12215.7806,W,1,06,1.32,138.2,M,-17.4,M,,*51
$GPGSA,A,3,22,01,31,03,16,04,,,,,,,1.61,1.32,0.91*0F
$GPRMC,215436.250,A,4730.1333,N,12215.7806,W,0.47,316.61,101120,,,A*71
$GPVTG,316.61,T,,M,0.47,N,0.88,K,A*3D
$GPGGA,215436.500,4730.1333,N,12215.7806,W,1,06,1.32,138.2,M,-17.4,M,,*53
$GPGSA,A,3,22,01,31,03,16,04,,,,,,,1.61,1.32,0.91*0F
$GPRMC,215436.500,A,4730.1333,N,12215.7806,W,0.49,315.19,101120,,,A*71
$GPVTG,315.19,T,,M,0.49,N,0.90,K,A*36
$GPGGA,215436.750,4730.1333,N,12215.7807,W,1,06,1.32,138.2,M,-17.4,M,,*55
$GPGSA,A,3,22,01,31,03,16,04,,,,,,,1.61,1.32,0.91*0F
$GPRMC,215436.750,A,4730.1333,N,12215.7807,W,0.50,316.59,101120,,,A*78
$GPVTG,316.59,T,,M,0.50,N,0.94,K,A*3D
$GPGGA,215437.000,4730.1333,N,12215.7807,W,1,06,1.32,138.2,M,-17.4,M,,*56
$GPGSA,A,3,22,01,31,03,16,04,,,,,,,1.61,1.32,0.91*0F
$GPGSV,2,1,08,03,79,269,24,22,68,173,29,04,51,278,13,31,43,056,29*76
$GPGSV,2,2,08,01,23,210,21,16,11,146,13,32,04,084,,46,,,29*47
$GPRMC,215437.000,A,4730.1333,N,12215.7807,W,0.50,316.76,101120,,,A*76
$GPVTG,316.76,T,,M,0.50,N,0.93,K,A*37
$GPGGA,215437.250,4730.1334,N,12215.7807,W,1,06,1.32,138.2,M,-17.4,M,,*56
$GPGSA,A,3,22,01,31,03,16,04,,,,,,,1.61,1.32,0.91*0F
$GPRMC,215437.250,A,4730.1334,N,12215.7807,W,0.51,317.03,101120,,,A*74
$GPVTG,317.03,T,,M,0.51,N,0.94,K,A*32
$GPGGA,215437.500,4730.1334,N,12215.7808,W,1,05,1.76,138.2,M,-17.4,M,,*58
$GPGSA,A,3,22,01,31,03,04,,,,,,,,1.99,1.76,0.92*0C
$GPRMC,215437.500,A,4730.1334,N,12215.7808,W,0.53,316.40,101120,,,A*7D
$GPVTG,316.40,T,,M,0.53,N,0.98,K,A*3A
$GPGGA,215437.750,4730.1334,N,12215.7808,W,1,05,1.76,138.2,M,-17.4,M,,*5F
$GPGSA,A,3,22,01,31,03,04,,,,,,,,1.99,1.76,0.92*0C
$GPRMC,215437.750,A,4730.1334,N,12215.7808,W,0.55,316.10,101120,,,A*79
$GPVTG,316.10,T,,M,0.55,N,1.02,K,A*3B
$GPGGA,215438.000,4730.1335,N,12215.7809,W,1,05,1.77,138.2,M,-17.4,M,,*53
$GPGSA,A,3,22,01,31,03,04,,,,,,,,1.99,1.77,0.92*0D
$GPRMC,215438.000,A,4730.1335,N,12215.7809,W,0.56,318.60,101120,,,A*7E
$GPVTG,318.60,T,,M,0.56,N,1.04,K,A*37
$GPGGA,215438.250,4730.1335,N,12215.7809,W,1,05,1.76,138.2,M,-17.4,M,,*55
$GPGSA,A,3,22,01,31,03,04,,,,,,,,1.99,1.76,0.92*0C
$GPGSV,2,1,08,03,79,269,24,22,68,173,29,04,51,278,11,31,43,056,29*74
$GPGSV,2,2,08,01,23,210,21,16,11,146,,32,04,084,,46,,,28*44
$GPRMC,215438.250,A,4730.1335,N,12215.7809,W,0.58,320.21,101120,,,A*79
$GPVTG,320.21,T,,M,0.58,N,1.07,K,A*34
$GPGGA,215438.500,4730.1335,N,12215.7809,W,1,04,3.29,138.2,M,-17.4,M,,*5E
$GPGSA,A,3,22,01,31,03,,,,,,,,,3.42,3.29,0.93*05
$GPRMC,215438.500,A,4730.1335,N,12215.7809,W,0.58,318.10,101120,,,A*72
$GPVTG,318.10,T,,M,0.58,N,1.08,K,A*32
$GPGGA,215438.750,4730.1335,N,12215.7810,W,1,04,3.29,138.2,M,-17.4,M,,*51
$GPGSA,A,3,22,01,31,03,,,,,,,,,3.42,3.29,0.93*05
$GPRMC,215438.750,A,4730.1335,N,12215.7810,W,0.57,313.00,101120,,,A*78
$GPVTG,313.00,T,,M,0.57,N,1.06,K,A*39
$GPGGA,215439.000,4730.1336,N,12215.7810,W,1,04,3.29,138.2,M,-17.4,M,,*51
$GPGSA,A,3,22,01,31,03,,,,,,,,,3.42,3.29,0.93*05
$GPRMC,215439.000,A,4730.1336,N,12215.7810,W,0.57,309.62,101120,,,A*77
$GPVTG,309.62,T,,M,0.57,N,1.06,K,A*36
$GPGGA,215439.250,4730.1336,N,12215.7811,W,1,04,3.29,138.2,M,-17.4,M,,*57
$GPGSA,A,3,22,01,31,03,,,,,,,,,3.42,3.29,0.93*05
$GPRMC,215439.250,A,4730.1336,N,12215.7811,W,0.58,303.64,101120,,,A*72
$GPVTG,303.64,T,,M,0.58,N,1.07,K,A*34
$GPGGA,215439.500,4730.1336,N,12215.7811,W,1,04,3.29,138.2,M,-17.4,M,,*55
$GPGSA,A,3,22,01,31,03,,,,,,,,,3.42,3.29,0.93*05
$GPGSV,2,1,08,03,79,269,24,22,68,173,29,04,51,278,,31,43,056,29*74
$GPGSV,2,2,08,01,23,210,21,16,11,146,,32,04,085,,46,,,29*44
$GPRMC,215439.500,A,4730.1336,N,12215.7811,W,0.58,302.29,101120,,,A*78
$GPVTG,302.29,T,,M,0.58,N,1.08,K,A*33
$GPGGA,215439.750,4730.1337,N,12215.7812,W,1,04,3.29,138.2,M,-17.4,M,,*50
$GPGSA,A,3,22,01,31,03,,,,,,,,,3.42,3.29,0.93*05
$GPRMC,215439.750,A,4730.1337,N,12215.7812,W,0.59,303.85,101120,,,A*7B
$GPVTG,303.85,T,,M,0.59,N,1.10,K,A*3C
$GPGGA,215440.000,4730.1338,N,12215.7813,W,1,04,3.29,138.2,M,-17.4,M,,*52
$GPGSA,A,3,22,01,31,03,,,,,,,,,3.42,3.29,0.93*05
$GPRMC,215440.000,A,4730.1338,N,12215.7813,W,0.59,304.08,101120,,,A*7B
$GPVTG,304.08,T,,M,0.59,N,1.10,K,A*3E
$GPGGA,215440.250,4730.1338,N,12215.7814,W,1,04,3.29,138.1,M,-17.4,M,,*51
$GPGSA,A,3,22,01,31,03,,,,,,,,,3.42,3.29,0.93*05
$GPRMC,215440.250,A,4730.1338,N,12215.7814,W,0.59,304.10,101120,,,A*72
$GPVTG,304.10,T,,M,0.59,N,1.09,K,A*3F
$GPGGA,215440.500,4730.1339,N,12215.7814,W,1,04,3.29,138.1,M,-17.4,M,,*52
$GPGSA,A,3,22,01,31,03,,,,,,,,,3.42,3.29,0.93*05
$GPRMC,215440.500,A,4730.1339,N,12215.7814,W,0.58,307.86,101120,,,A*7C
$GPVTG,307.86,T,,M,0.58,N,1.07,K,A*3C
$GPGGA,215440.750,4730.1339,N,12215.7814,W,1,04,3.29,138.1,M,-17.4,M,,*55
$GPGSA,A,3,22,01,31,03,,,,,,,,,3.42,3.29,0.93*05
$GPGSV,2,1,08,03,79,269,24,22,68,173,29,04,51,278,,31,43,056,29*74
$GPGSV,2,2,08,01,23,210,21,16,11,146,,32,04,085,,46,,,29*44
$GPRMC,215440.750,A,4730.1339,N,12215.7814,W,0.57,310.52,101120,,,A*7B
$GPVTG,310.52,T,,M,0.57,N,1.05,K,A*3E
$GPGGA,215441.000,4730.1340,N,12215.7814,W,1,04,3.29,138.1,M,-17.4,M,,*58
$GPGSA,A,3,22,01,31,03,,,,,,,,,3.42,3.29,0.93*05
$GPRMC,215441.000,A,4730.1340,N,12215.7814,W,0.57,310.71,101120,,,A*77
$GPVTG,310.71,T,,M,0.57,N,1.05,K,A*3F
$GPGGA,215441.250,4730.1340,N,12215.7815,W,1,04,3.29,138.1,M,-17.4,M,,*5E
$GPGSA,A,3,22,01,31,03,,,,,,,,,3.42,3.29,0.93*05
$GPRMC,215441.250,A,4730.1340,N,12215.7815,W,0.58,307.63,101120,,,A*7B
$GPVTG,307.63,T,,M,0.58,N,1.07,K,A*37
$GPGGA,215441.500,4730.1340,N,12215.7816,W,1,04,3.29,138.1,M,-17.4,M,,*5F
$GPGSA,A,3,22,01,31,03,,,,,,,,,3.42,3.29,0.93*05
$GPRMC,215441.500,A,4730.1340,N,12215.7816,W,0.59,303.82,101120,,,A*70
$GPVTG,303.82,T,,M,0.59,N,1.09,K,A*33
$GPGGA,215441.750,4730.1340,N,12215.7816,W,1,04,3.29,138.1,M,-17.4,M,,*58
$GPGSA,A,3,22,01,31,03,,,,,,,,,3.42,3.29,0.93*05
$GPRMC,215441.750,A,4730.1340,N,12215.7816,W,0.57,303.48,101120,,,A*7F
$GPVTG,303.48,T,,M,0.57,N,1.06,K,A*34
$GPGGA,215442.000,4730.1340,N,12215.7816,W,1,04,3.29,138.0,M,-17.4,M,,*58
$GPGSA,A,3,22,01,31,03,,,,,,,,,3.42,3.29,0.93*05
$GPGSV,2,1,08,03,79,269,24,22,68,173,29,04,51,278,,31,43,056,29*74
$GPGSV,2,2,08,01,23,210,21,16,11,146,,32,04,085,,46,,,29*44
$GPRMC,215442.000,A,4730.1340,N,12215.7816,W,0.57,305.30,101120,,,A*77
$GPVTG,305.30,T,,M,0.57,N,1.05,K,A*3E
$GPGGA,215442.250,4730.1341,N,12215.7817,W,1,04,3.29,138.0,M,-17.4,M,,*5F
$GPGSA,A,3,22,01,31,03,,,,,,,,,3.42,3.29,0.93*05
$GPRMC,215442.250,A,4730.1341,N,12215.7817,W,0.58,306.63,101120,,,A*7A
$GPVTG,306.63,T,,M,0.58,N,1.07,K,A*36
$GPGGA,215442.500,4730.1341,N,12215.7817,W,1,04,3.29,138.0,M,-17.4,M,,*5D
$GPGSA,A,3,22,01,31,03,,,,,,,,,3.42,3.29,0.93*05
$GPRMC,215442.500,A,4730.1341,N,12215.7817,W,0.59,308.59,101120,,,A*7E
$GPVTG,308.59,T,,M,0.59,N,1.09,K,A*3E
$GPGGA,215442.750,4730.1342,N,12215.7818,W,1,04,3.29,138.0,M,-17.4,M,,*56
$GPGSA,A,3,22,01,31,03,,,,,,,,,3.42,3.29,0.93*05
$GPRMC,215442.750,A,4730.1342,N,12215.7818,W,0.61,309.87,101120,,,A*7C
$GPVTG,309.87,T,,M,0.61,N,1.13,K,A*3C
$GPGGA,215443.000,4730.1343,N,12215.7819,W,1,04,3.29,138.0,M,-17.4,M,,*55
$GPGSA,A,3,22,01,31,03,,,,,,,,,3.42,3.29,0.93*05
$GPRMC,215443.000,A,4730.1343,N,12215.7819,W,0.62,309.43,101120,,,A*74
$GPVTG,309.43,T,,M,0.62,N,1.14,K,A*30
$GPGGA,215443.250,4730.1343,N,12215.7820,W,1,04,3.29,138.0,M,-17.4,M,,*58
$GPGSA,A,3,22,01,31,03,,,,,,,,,3.42,3.29,0.93*05
$GPGSV,2,1,08,03,79,269,24,22,68,173,28,04,51,278,,31,43,056,29*75
$GPGSV,2,2,08,01,23,210,21,16,11,146,,32,04,085,,46,,,29*44
$GPRMC,215443.250,A,4730.1343,N,12215.7820,W,0.63,307.34,101120,,,A*76
$GPVTG,307.34,T,,M,0.63,N,1.16,K,A*3D
$GPGGA,215443.500,4730.1343,N,12215.7820,W,1,04,3.29,138.0,M,-17.4,M,,*5A
$GPGSA,A,3,22,01,31,03,,,,,,,,,3.42,3.29,0.93*05
$GPRMC,215443.500,A,4730.1343,N,12215.7820,W,0.62,307.57,101120,,,A*70
$GPVTG,307.57,T,,M,0.62,N,1.16,K,A*39
$GPGGA,215443.750,4730.1344,N,12215.7821,W,1,04,3.29,137.9,M,-17.4,M,,*5D
$GPGSA,A,3,22,01,31,03,,,,,,,,,3.42,3.29,0.93*05
$GPRMC,215443.750,A,4730.1344,N,12215.7821,W,0.64,310.40,101120,,,A*77
$GPVTG,310.40,T,,M,0.64,N,1.18,K,A*31
$GPGGA,215444.000,4730.1345,N,12215.7821,W,1,04,3.29,137.9,M,-17.4,M,,*59
$GPGSA,A,3,22,01,31,03,,,,,,,,,3.42,3.29,0.93*05
$GPRMC,215444.000,A,4730.1345,N,12215.7821,W,0.64,309.70,101120,,,A*78
$GPVTG,309.70,T,,M,0.64,N,1.19,K,A*3B
$GPGGA,215444.250,4730.1345,N,12215.7823,W,1,04,3.29,137.9,M,-17.4,M,,*5C
$GPGSA,A,3,22,01,31,03,,,,,,,,,3.42,3.29,0.93*05
$GPRMC,215444.250,A,4730.1345,N,12215.7823,W,0.66,307.10,101120,,,A*77
$GPVTG,307.10,T,,M,0.66,N,1.21,K,A*3A
$GPGGA,215444.500,4730.1346,N,12215.7825,W,1,04,3.29,137.9,M,-17.4,M,,*5B
$GPGSA,A,3,22,01,31,03,,,,,,,,,3.42,3.29,0.93*05
$GPGSV,2,1,08,03,79,269,23,22,68,173,28,04,51,278,,31,43,056,29*72
$GPGSV,2,2,08,01,23,210,21,16,11,146,,32,04,085,,46,,,29*44
$GPRMC,215444.500,A,4730.1346,N,12215.7825,W,0.69,305.21,101120,,,A*7F
$GPVTG,305.21,T,,M,0.69,N,1.28,K,A*3C
$GPGGA,215444.750,4730.1347,N,12215.7827,W,1,04,3.29,137.9,M,-17.4,M,,*5F
$GPGSA,A,3,22,01,31,03,,,,,,,,,3.42,3.29,0.93*05
$GPRMC,215444.750,A,4730.1347,N,12215.7827,W,0.72,304.67,101120,,,A*72
$GPVTG,304.67,T,,M,0.72,N,1.34,K,A*38
$GPGGA,215445.000,4730.1348,N,12215.7828,W,1,04,3.29,137.8,M,-17.4,M,,*5D
$GPGSA,A,3,22,01,31,03,,,,,,,,,3.42,3.29,0.93*05
$GPRMC,215445.000,A,4730.1348,N,12215.7828,W,0.74,304.38,101120,,,A*7D
$GPVTG,304.38,T,,M,0.74,N,1.37,K,A*37
$GPGGA,215445.250,4730.1349,N,12215.7830,W,1,04,3.29,137.8,M,-17.4,M,,*52
$GPGSA,A,3,22,01,31,03,,,,,,,,,3.42,3.29,0.93*05
$GPRMC,215445.250,A,4730.1349,N,12215.7830,W,0.76,303.44,101120,,,A*7C
$GPVTG,303.44,T,,M,0.76,N,1.41,K,A*38
$GPGGA,215445.500,4730.1350,N,12215.7832,W,1,04,3.29,137.8,M,-17.4,M,,*5A
$GPGSA,A,3,22,01,31,03,,,,,,,,,3.42,3.29,0.93*05
$GPRMC,215445.500,A,4730.1350,N,12215.7832,W,0.78,302.38,101120,,,A*70
$GPVTG,302.38,T,,M,0.78,N,1.45,K,A*38
$GPGGA,215445.750,4730.1351,N,12215.7834,W,1,04,3.29,137.7,M,-17.4,M,,*55
$GPGSA,A,3,22,01,31,03,,,,,,,,,3.42,3.29,0.93*05
$GPGSV,2,1,08,03,79,269,23,22,68,173,28,04,51,278,,31,43,056,29*72
$GPGSV,2,2,08,01,23,210,21,16,11,146,,32,04,085,,46,,,29*44
$GPRMC,215445.750,A,4730.1351,N,12215.7834,W,0.80,301.35,101120,,,A*79
$GPVTG,301.35,T,,M,0.80,N,1.49,K,A*3D
$GPGGA,215446.000,4730.1352,N,12215.7835,W,1,04,3.29,137.7,M,-17.4,M,,*56
$GPGSA,A,3,22,01,31,03,,,,,,,,,3.42,3.29,0.93*05
$GPRMC,215446.000,A,4730.1352,N,12215.7835,W,0.80,301.09,101120,,,A*75
$GPVTG,301.09,T,,M,0.80,N,1.49,K,A*32
$GPGGA,215446.250,4730.1352,N,12215.7836,W,1,04,3.29,137.7,M,-17.4,M,,*52
$GPGSA,A,3,22,01,31,03,,,,,,,,,3.42,3.29,0.93*05
$GPRMC,215446.250,A,4730.1352,N,12215.7836,W,0.80,301.38,101120,,,A*73
$GPVTG,301.38,T,,M,0.80,N,1.49,K,A*30
$GPGGA,215446.500,4730.1354,N,12215.7837,W,1,04,3.29,137.7,M,-17.4,M,,*57
$GPGSA,A,3,22,01,31,03,,,,,,,,,3.42,3.29,0.93*05
$GPRMC,215446.500,A,4730.1354,N,12215.7837,W,0.81,304.92,101120,,,A*72
$GPVTG,304.92,T,,M,0.81,N,1.50,K,A*3C
$GPGGA,215446.750,4730.1355,N,12215.7838,W,1,04,3.29,137.6,M,-17.4,M,,*5F
$GPGSA,A,3,22,01,31,03,,,,,,,,,3.42,3.29,0.93*05
$GPRMC,215446.750,A,4730.1355,N,12215.7838,W,0.81,308.28,101120,,,A*76
$GPVTG,308.28,T,,M,0.81,N,1.50,K,A*31
$GPGGA,215447.000,4730.1356,N,12215.7839,W,1,04,3.29,137.6,M,-17.4,M,,*5E
$GPGSA,A,3,22,01,31,03,,,,,,,,,3.42,3.29,0.93*05
$GPGSV,2,1,08,03,79,269,23,22,68,173,29,04,51,278,,31,43,056,29*73
$GPGSV,2,2,08,01,23,210,21,16,11,146,,32,04,085,,46,,,29*44
$GPRMC,215447.000,A,4730.1356,N,12215.7839,W,0.82,308.22,101120,,,A*7E
$GPVTG,308.22,T,,M,0.82,N,1.52,K,A*3A
$GPGGA,215447.250,4730.1357,N,12215.7840,W,1,04,3.29,137.6,M,-17.4,M,,*56
$GPGSA,A,3,22,01,31,03,,,,,,,,,3.42,3.29,0.93*05
$GPRMC,215447.250,A,4730.1357,N,12215.7840,W,0.82,308.80,101120,,,A*7E
$GPVTG,308.80,T,,M,0.82,N,1.52,K,A*32
$GPGGA,215447.500,4730.1357,N,12215.7840,W,1,04,3.29,137.5,M,-17.4,M,,*57
$GPGSA,A,3,22,01,31,03,,,,,,,,,3.42,3.29,0.93*05
$GPRMC,215447.500,A,4730.1357,N,12215.7840,W,0.80,308.80,101120,,,A*7E
$GPVTG,308.80,T,,M,0.80,N,1.48,K,A*3B
$GPGGA,215447.750,4730.1358,N,12215.7840,W,1,04,3.29,137.5,M,-17.4,M,,*5F
$GPGSA,A,3,22,01,31,03,,,,,,,,,3.42,3.29,0.93*05
$GPRMC,215447.750,A,4730.1358,N,12215.7840,W,0.78,310.41,101120,,,A*75
$GPVTG,310.41,T,,M,0.78,N,1.45,K,A*35
$GPGGA,215448.000,4730.1359,N,12215.7841,W,1,04,3.29,137.5,M,-17.4,M,,*52
$GPGSA,A,3,22,01,31,03,,,,,,,,,3.42,3.29,0.93*05
$GPRMC,215448.000,A,4730.1359,N,12215.7841,W,0.78,310.88,101120,,,A*7D
$GPVTG,310.88,T,,M,0.78,N,1.45,K,A*30
$GPGGA,215448.250,4730.1359,N,12215.7842,W,1,04,3.29,137.5,M,-17.4,M,,*56
$GPGSA,A,3,22,01,31,03,,,,,,,,,3.42,3.29,0.93*05
$GPGSV,2,1,08,03,79,269,23,22,68,173,29,04,51,278,,31,42,056,29*72
$GPGSV,2,2,08,01,23,210,21,16,11,146,,32,04,085,,46,,,28*45
$GPRMC,215448.250,A,4730.1359,N,12215.7842,W,0.78,310.75,101120,,,A*7B
$GPVTG,310.75,T,,M,0.78,N,1.45,K,A*32
$GPGGA,215448.500,4730.1360,N,12215.7843,W,1,04,3.29,137.4,M,-17.4,M,,*5E
$GPGSA,A,3,22,01,31,03,,,,,,,,,3.42,3.29,0.93*05
$GPRMC,215448.500,A,4730.1360,N,12215.7843,W,0.80,312.86,101120,,,A*7B
$GPVTG,312.86,T,,M,0.80,N,1.48,K,A*36
$GPGGA,215448.750,4730.1362,N,12215.7844,W,1,04,3.29,137.4,M,-17.4,M,,*5C
$GPGSA,A,3,22,01,31,03,,,,,,,,,3.42,3.29,0.93*05
$GPRMC,215448.750,A,4730.1362,N,12215.7844,W,0.82,315.15,101120,,,A*76
$GPVTG,315.15,T,,M,0.82,N,1.52,K,A*32
$GPGGA,215449.000,4730.1362,N,12215.7844,W,1,04,3.29,137.4,M,-17.4,M,,*5F
$GPGSA,A,3,22,01,31,03,,,,,,,,,3.42,3.29,0.93*05
$GPRMC,215449.000,A,4730.1362,N,12215.7844,W,0.82,314.88,101120,,,A*70
$GPVTG,314.88,T,,M,0.82,N,1.52,K,A*37
$GPGGA,215449.250,4730.1362,N,12215.7844,W,1,04,3.29,137.4,M,-17.4,M,,*58
$GPGSA,A,3,22,01,31,03,,,,,,,,,3.42,3.29,0.93*05
$GPRMC,215449.250,A,4730.1362,N,12215.7844,W,0.80,313.65,101120,,,A*71
$GPVTG,313.65,T,,M,0.80,N,1.48,K,A*3A
$GPGGA,215449.500,4730.1362,N,12215.7844,W,1,04,3.29,137.3,M,-17.4,M,,*5D
$GPGSA,A,3,22,01,31,03,,,,,,,,,3.42,3.29,0.93*05
$GPGSV,2,1,08,03,79,269,23,22,68,173,29,04,51,278,,31,42,056,29*72
$GPGSV,2,2,08,01,23,210,21,16,11,146,,32,04,085,,46,,,29*44
$GPRMC,215449.500,A,4730.1362,N,12215.7844,W,0.77,311.04,101120,,,A*7E
$GPVTG,311.04,T,,M,0.77,N,1.43,K,A*3C
$GPGGA,215449.750,4730.1361,N,12215.7844,W,1,04,3.29,137.3,M,-17.4,M,,*59
$GPGSA,A,3,22,01,31,03,,,,,,,,,3.42,3.29,0.93*05
$GPRMC,215449.750,A,4730.1361,N,12215.7844,W,0.75,308.13,101120,,,A*76
$GPVTG,308.13,T,,M,0.75,N,1.38,K,A*3C
$GPGGA,215450.000,4730.1360,N,12215.7843,W,1,04,3.29,137.3,M,-17.4,M,,*55
$GPGSA,A,3,22,01,31,03,,,,,,,,,3.42,3.29,0.93*05
$GPRMC,215450.000,A,4730.1360,N,12215.7843,W,0.73,306.92,101120,,,A*7B
$GPVTG,306.92,T,,M,0.73,N,1.35,K,A*30
$GPGGA,215450.250,4730.1360,N,12215.7844,W,1,04,3.29,137.3,M,-17.4,M,,*55
$GPGSA,A,3,22,01,31,03,,,,,,,,,3.42,3.29,0.93*05
$GPRMC,215450.250,A,4730.1360,N,12215.7844,W,0.73,307.23,101120,,,A*70
$GPVTG,307.23,T,,M,0.73,N,1.36,K,A*38
$GPGGA,215450.500,4730.1361,N,12215.7844,W,1,04,3.30,137.3,M,-17.4,M,,*5E
$GPGSA,A,3,22,01,31,03,,,,,,,,,3.42,3.30,0.93*0D
$GPRMC,215450.500,A,4730.1361,N,12215.7844,W,0.74,306.49,101120,,,A*79
$GPVTG,306.49,T,,M,0.74,N,1.37,K,A*33
$GPGGA,215450.750,4730.1361,N,12215.7845,W,1,04,3.29,137.3,M,-17.4,M,,*50
$GPGSA,A,3,22,01,31,03,,,,,,,,,3.42,3.29,0.93*05
$GPGSV,2,1,08,03,79,269,23,22,68,173,29,04,51,278,,31,42,056,29*72
$GPGSV,2,2,08,01,23,210,20,16,11,146,,32,04,085,,46,,,29*45
$GPRMC,215450.750,A,4730.1361,N,12215.7845,W,0.74,305.40,101120,,,A*75
$GPVTG,305.40,T,,M,0.74,N,1.38,K,A*36
$GPGGA,215451.000,4730.1361,N,12215.7845,W,1,04,3.29,137.3,M,-17.4,M,,*53
$GPGSA,A,3,22,01,31,03,,,,,,,,,3.42,3.29,0.93*05
$GPRMC,215451.000,A,4730.1361,N,12215.7845,W,0.75,305.64,101120,,,A*71
$GPVTG,305.64,T,,M,0.75,N,1.38,K,A*31
$GPGGA,215451.250,4730.1360,N,12215.7845,W,1,04,3.29,137.3,M,-17.4,M,,*55
$GPGSA,A,3,22,01,31,03,,,,,,,,,3.42,3.29,0.93*05
$GPRMC,215451.250,A,4730.1360,N,12215.7845,W,0.74,305.83,101120,,,A*7F
$GPVTG,305.83,T,,M,0.74,N,1.37,K,A*36
$GPGGA,215451.500,4730.1360,N,12215.7845,W,1,04,3.29,137.3,M,-17.4,M,,*57
$GPGSA,A,3,22,01,31,03,,,,,,,,,3.42,3.29,0.93*05
$GPRMC,215451.500,A,4730.1360,N,12215.7845,W,0.74,304.60,101120,,,A*71
$GPVTG,304.60,T,,M,0.74,N,1.36,K,A*3B
$GPGGA,215451.750,4730.1361,N,12215.7846,W,1,04,3.29,137.3,M,-17.4,M,,*52
$GPGSA,A,3,22,01,31,03,,,,,,,,,3.42,3.29,0.93*05
$GPRMC,215451.750,A,4730.1361,N,12215.7846,W,0.75,305.07,101120,,,A*75
$GPVTG,305.07,T,,M,0.75,N,1.39,K,A*35
$GPGGA,215452.000,4730.1361,N,12215.7847,W,1,04,3.29,137.3,M,-17.4,M,,*52
$GPGSA,A,3,22,01,31,03,,,,,,,,,3.42,3.29,0.93*05
$GPGSV,2,1,08,03,79,269,23,22,68,173,28,04,51,278,,31,42,056,29*73
$GPGSV,2,2,08,01,23,210,20,16,11,146,,32,04,085,,46,,,28*44
$GPRMC,215452.000,A,4730.1361,N,12215.7847,W,0.76,304.52,101120,,,A*77
$GPVTG,304.52,T,,M,0.76,N,1.41,K,A*38
$GPGGA,215452.250,4730.1361,N,12215.7847,W,1,04,3.29,137.2,M,-17.4,M,,*54
$GPGSA,A,3,22,01,31,03,,,,,,,,,3.42,3.29,0.93*05
$GPRMC,215452.250,A,4730.1361,N,12215.7847,W,0.76,304.27,101120,,,A*72
$GPVTG,304.27,T,,M,0.76,N,1.41,K,A*3A
$GPGGA,215452.500,4730.1361,N,12215.7848,W,1,04,3.29,137.2,M,-17.4,M,,*59
$GPGSA,A,3,22,01,31,03,,,,,,,,,3.42,3.29,0.93*05
$GPRMC,215452.500,A,4730.1361,N,12215.7848,W,0.76,301.47,101120,,,A*7C
$GPVTG,301.47,T,,M,0.76,N,1.41,K,A*39
$GPGGA,215452.750,4730.1361,N,12215.7849,W,1,04,3.29,137.2,M,-17.4,M,,*5F
$GPGSA,A,3,22,01,31,03,,,,,,,,,3.42,3.29,0.93*05
$GPRMC,215452.750,A,4730.1361,N,12215.7849,W,0.77,298.15,101120,,,A*7D
$GPVTG,298.15,T,,M,0.77,N,1.43,K,A*3C
$GPGGA,215453.000,4730.1361,N,12215.7850,W,1,04,3.29,137.2,M,-17.4,M,,*54
$GPGSA,A,3,22,01,31,03,,,,,,,,,3.42,3.29,0.93*05
$GPRMC,215453.000,A,4730.1361,N,12215.7850,W,0.78,296.74,101120,,,A*70
$GPVTG,296.74,T,,M,0.78,N,1.44,K,A*3D
$GPGGA,215453.250,4730.1360,N,12215.7850,W,1,04,3.29,137.2,M,-17.4,M,,*52
$GPGSA,A,3,22,01,31,03,,,,,,,,,3.42,3.29,0.93*05
$GPGSV,2,1,08,03,79,269,23,22,68,173,28,04,51,278,,31,42,056,29*73
$GPGSV,2,2,08,01,23,210,20,16,11,146,,32,04,085,,46,,,28*44
$GPRMC,215453.250,A,4730.1360,N,12215.7850,W,0.77,295.19,101120,,,A*71
$GPVTG,295.19,T,,M,0.77,N,1.43,K,A*3D
$GPGGA,215453.500,4730.1360,N,12215.7850,W,1,04,3.29,137.2,M,-17.4,M,,*50
$GPGSA,A,3,22,01,31,03,,,,,,,,,3.42,3.29,0.93*05
$GPRMC,215453.500,A,4730.1360,N,12215.7850,W,0.78,291.84,101120,,,A*7C
$GPVTG,291.84,T,,M,0.78,N,1.44,K,A*35
$GPGGA,215453.750,4730.1359,N,12215.7851,W,1,04,3.29,137.2,M,-17.4,M,,*5C
