
$GPRMC,225011.250,A,4730.1439,N,12215.8007,W,0.37,61.77,101120,,,D*4E
$GPVTG,61.77,T,,M,0.37,N,0.68,K,D*05
$GPGGA,225011.500,4730.1439,N,12215.8007,W,2,05,1.77,45.4,M,-17.4,M,0000,0000*66
$GPGSA,A,3,22,04,03,16,26,,,,,,,,2.03,1.77,0.99*06
$GPRMC,225011.500,A,4730.1439,N,12215.8007,W,0.33,61.56,101120,,,D*4B
$GPVTG,61.56,T,,M,0.33,N,0.60,K,D*0A
$GPGGA,225011.750,4730.1439,N,12215.8006,W,2,05,1.77,45.4,M,-17.4,M,0000,0000*60
$GPGSA,A,3,22,04,03,16,26,,,,,,,,2.03,1.77,0.99*06
$GPRMC,225011.750,A,4730.1439,N,12215.8006,W,0.29,63.39,101120,,,D*4D
$GPVTG,63.39,T,,M,0.29,N,0.54,K,D*0D
$GPGGA,225012.000,4730.1439,N,12215.8006,W,2,05,1.77,45.4,M,-17.4,M,0000,0000*61
$GPGSA,A,3,22,04,03,16,26,,,,,,,,2.03,1.77,0.99*06
$GPRMC,225012.000,A,4730.1439,N,12215.8006,W,0.26,64.60,101120,,,D*48
$GPVTG,64.60,T,,M,0.26,N,0.48,K,D*04
$GPGGA,225012.250,4730.1439,N,12215.8006,W,2,05,1.77,45.4,M,-17.4,M,0000,0000*66
$GPGSA,A,3,22,04,03,16,26,,,,,,,,2.03,1.77,0.99*06
$GPRMC,225012.250,A,4730.1439,N,12215.8006,W,0.22,66.24,101120,,,D*49
$GPVTG,66.24,T,,M,0.22,N,0.41,K,D*0B
$GPGGA,225012.500,4730.1440,N,12215.8006,W,2,05,1.77,45.4,M,-17.4,M,0000,0000*6A
$GPGSA,A,3,22,04,03,16,26,,,,,,,,2.03,1.77,0.99*06
$GPGSV,3,1,12,04,72,309,17,03,64,182,31,22,42,168,24,26,41,085,17*78
$GPGSV,3,2,12,46,35,189,32,09,34,285,17,16,33,130,26,06,23,302,17*78
$GPGSV,3,3,12,31,20,053,17,07,08,229,,02,03,339,,01,02,200,*75
$GPRMC,225012.500,A,4730.1440,N,12215.8006,W,0.17,73.60,101120,,,D*47
$GPVTG,73.60,T,,M,0.17,N,0.32,K,D*0D
$GPGGA,225012.750,4730.1440,N,12215.8006,W,2,05,1.77,45.4,M,-17.4,M,0000,0000*6D
$GPGSA,A,3,22,04,03,16,26,,,,,,,,2.03,1.77,0.99*06
$GPRMC,225012.750,A,4730.1440,N,12215.8006,W,0.21,87.58,101120,,,D*45
$GPVTG,87.58,T,,M,0.21,N,0.38,K,D*02
$GPGGA,225013.000,4730.1440,N,12215.8005,W,2,05,1.77,45.4,M,-17.4,M,0000,0000*6D
$GPGSA,A,3,22,04,03,16,26,,,,,,,,2.03,1.77,0.99*06
$GPRMC,225013.000,A,4730.1440,N,12215.8005,W,0.20,95.20,101120,,,D*48
$GPVTG,95.20,T,,M,0.20,N,0.38,K,D*0F
$GPGGA,225013.250,4730.1439,N,12215.8005,W,2,05,1.77,45.4,M,-17.4,M,0000,0000*64
$GPGSA,A,3,22,04,03,16,26,,,,,,,,2.03,1.77,0.99*06
$GPRMC,225013.250,A,4730.1439,N,12215.8005,W,0.20,106.76,101120,,,D*79
$GPVTG,106.76,T,,M,0.20,N,0.36,K,D*39
$GPGGA,225013.500,4730.1439,N,12215.8005,W,2,05,1.77,45.4,M,-17.4,M,0000,0000*66
$GPGSA,A,3,22,04,03,16,26,,,,,,,,2.03,1.77,0.99*06
$GPRMC,225013.500,A,4730.1439,N,12215.8005,W,0.19,115.21,101120,,,D*71
$GPVTG,115.21,T,,M,0.19,N,0.35,K,D*30
$GPGGA,225013.750,4730.1439,N,12215.8005,W,2,05,1.77,45.4,M,-17.4,M,0000,0000*61
$GPGSA,A,3,22,04,03,16,26,,,,,,,,2.03,1.77,0.99*06
$GPGSV,3,1,12,04,72,309,18,03,64,182,31,22,42,168,25,26,41,085,17*76
$GPGSV,3,2,12,46,35,189,33,09,34,285,18,16,33,130,26,06,23,302,18*79
$GPGSV,3,3,12,31,20,053,18,07,08,229,,02,03,339,,01,02,200,*7A
$GPRMC,225013.750,A,4730.1439,N,12215.8005,W,0.19,120.29,101120,,,D*78
$GPVTG,120.29,T,,M,0.19,N,0.36,K,D*3D
$GPGGA,225014.000,4730.1439,N,12215.8005,W,2,05,1.77,45.4,M,-17.4,M,0000,0000*64
$GPGSA,A,3,22,04,03,16,26,,,,,,,,2.03,1.77,0.99*06
$GPRMC,225014.000,A,4730.1439,N,12215.8005,W,0.20,123.49,101120,,,D*72
$GPVTG,123.49,T,,M,0.20,N,0.37,K,D*33
$GPGGA,225014.250,4730.1439,N,12215.8004,W,2,05,1.77,45.4,M,-17.4,M,0000,0000*62
$GPGSA,A,3,22,04,03,16,26,,,,,,,,2.03,1.77,0.99*06
$GPRMC,225014.250,A,4730.1439,N,12215.8004,W,0.22,120.35,101120,,,D*7E
$GPVTG,120.35,T,,M,0.22,N,0.42,K,D*3B
$GPGGA,225014.500,4730.1439,N,12215.8004,W,2,05,1.77,45.4,M,-17.4,M,0000,0000*60
$GPGSA,A,3,22,04,03,16,26,,,,,,,,2.03,1.77,0.99*06
$GPRMC,225014.500,A,4730.1439,N,12215.8004,W,0.25,119.26,101120,,,D*73
$GPVTG,119.26,T,,M,0.25,N,0.46,K,D*30
$GPGGA,225014.750,4730.1439,N,12215.8004,W,2,05,1.77,45.4,M,-17.4,M,0000,0000*67
$GPGSA,A,3,22,04,03,16,26,,,,,,,,2.03,1.77,0.99*06
$GPRMC,225014.750,A,4730.1439,N,12215.8004,W,0.25,120.16,101120,,,D*7D
$GPVTG,120.16,T,,M,0.25,N,0.46,K,D*39
$GPGGA,225015.000,4730.1439,N,12215.8004,W,2,05,1.77,45.4,M,-17.4,M,0000,0000*64
$GPGSA,A,3,22,04,03,16,26,,,,,,,,2.03,1.77,0.99*06
$GPGSV,3,1,12,04,72,309,18,03,64,182,31,22,42,168,25,26,41,085,15*74
$GPGSV,3,2,12,46,35,189,33,09,34,285,18,16,33,130,27,06,23,302,19*79
$GPGSV,3,3,12,31,20,053,18,07,08,229,,02,03,339,,01,02,200,*7A
$GPRMC,225015.000,A,4730.1439,N,12215.8004,W,0.25,122.03,101120,,,D*78
$GPVTG,122.03,T,,M,0.25,N,0.46,K,D*3F
$GPGGA,225015.250,4730.1439,N,12215.8004,W,2,05,1.77,45.4,M,-17.4,M,0000,0000*63
$GPGSA,A,3,22,04,03,16,26,,,,,,,,2.03,1.77,0.99*06
$GPRMC,225015.250,A,4730.1439,N,12215.8004,W,0.22,125.19,101120,,,D*74
$GPVTG,125.19,T,,M,0.22,N,0.41,K,D*33
$GPGGA,225015.500,4730.1439,N,12215.8004,W,2,05,1.77,45.4,M,-17.4,M,0000,0000*61
$GPGSA,A,3,22,04,03,16,26,,,,,,,,2.03,1.77,0.99*06
$GPRMC,225015.500,A,4730.1439,N,12215.8004,W,0.18,130.77,101120,,,D*73
$GPVTG,130.77,T,,M,0.18,N,0.34,K,D*34
$GPGGA,225015.750,4730.1439,N,12215.8003,W,2,05,1.77,45.4,M,-17.4,M,0000,0000*61
$GPGSA,A,3,22,04,03,16,26,,,,,,,,2.03,1.77,0.99*06
$GPRMC,225015.750,A,4730.1439,N,12215.8003,W,0.17,135.65,101120,,,D*7A
$GPVTG,135.65,T,,M,0.17,N,0.32,K,D*3B
$GPGGA,225016.000,4730.1438,N,12215.8003,W,2,05,1.77,45.4,M,-17.4,M,0000,0000*61
$GPGSA,A,3,22,04,03,16,26,,,,,,,,2.03,1.77,0.99*06
$GPRMC,225016.000,A,4730.1438,N,12215.8003,W,0.17,138.46,101120,,,D*76
$GPVTG,138.46,T,,M,0.17,N,0.32,K,D*37
$GPGGA,225016.250,4730.1438,N,12215.8003,W,2,05,1.77,45.4,M,-17.4,M,0000,0000*66
$GPGSA,A,3,22,04,03,16,26,,,,,,,,2.03,1.77,0.99*06
$GPGSV,3,1,12,04,72,309,18,03,64,182,30,22,42,168,24,26,41,085,15*74
$GPGSV,3,2,12,46,35,189,32,09,34,285,17,16,33,130,26,06,23,302,19*76
$GPGSV,3,3,12,31,20,053,18,07,08,229,,02,03,339,,01,02,200,*7A
$GPRMC,225016.250,A,4730.1438,N,12215.8003,W,0.19,137.64,101120,,,D*70
$GPVTG,137.64,T,,M,0.19,N,0.35,K,D*31
$GPGGA,225016.500,4730.1438,N,12215.8003,W,2,05,1.77,45.4,M,-17.4,M,0000,0000*64
$GPGSA,A,3,22,04,03,16,26,,,,,,,,2.03,1.77,0.99*06
$GPRMC,225016.500,A,4730.1438,N,12215.8003,W,0.18,142.07,101120,,,D*74
$GPVTG,142.07,T,,M,0.18,N,0.34,K,D*36
$GPGGA,225016.750,4730.1438,N,12215.8003,W,2,05,1.77,45.4,M,-17.4,M,0000,0000*63
$GPGSA,A,3,22,04,03,16,26,,,,,,,,2.03,1.77,0.99*06
$GPRMC,225016.750,A,4730.1438,N,12215.8003,W,0.19,146.25,101120,,,D*76
$GPVTG,146.25,T,,M,0.19,N,0.35,K,D*32
$GPGGA,225017.000,4730.1438,N,12215.8003,W,2,05,1.77,45.4,M,-17.4,M,0000,0000*60
$GPGSA,A,3,22,04,03,16,26,,,,,,,,2.03,1.77,0.99*06
$GPRMC,225017.000,A,4730.1438,N,12215.8003,W,0.19,146.48,101120,,,D*7E
$GPVTG,146.48,T,,M,0.19,N,0.36,K,D*3A
$GPGGA,225017.250,4730.1438,N,12215.8003,W,2,05,1.77,45.4,M,-17.4,M,0000,0000*67
$GPGSA,A,3,22,04,03,16,26,,,,,,,,2.03,1.77,0.99*06
$GPRMC,225017.250,A,4730.1438,N,12215.8003,W,0.19,144.29,101120,,,D*7C
$GPVTG,144.29,T,,M,0.19,N,0.35,K,D*3C
$GPGGA,225017.500,4730.1438,N,12215.8003,W,2,05,1.77,45.4,M,-17.4,M,0000,0000*65
$GPGSA,A,3,22,04,03,16,26,,,,,,,,2.03,1.77,0.99*06
$GPGSV,3,1,12,04,72,309,18,03,64,182,29,22,42,168,24,26,41,085,11*78
$GPGSV,3,2,12,46,35,189,31,09,34,285,17,16,33,130,26,06,23,302,18*74
$GPGSV,3,3,12,31,20,053,18,07,08,229,,02,03,339,,01,02,200,*7A
$GPRMC,225017.500,A,4730.1438,N,12215.8003,W,0.17,149.43,101120,,,D*71
$GPVTG,149.43,T,,M,0.17,N,0.32,K,D*34
$GPGGA,225017.750,4730.1438,N,12215.8003,W,2,05,1.77,45.4,M,-17.4,M,0000,0000*62
$GPGSA,A,3,22,04,03,16,26,,,,,,,,2.03,1.77,0.99*06
$GPRMC,225017.750,A,4730.1438,N,12215.8003,W,0.17,147.72,101120,,,D*7A
$GPVTG,147.72,T,,M,0.17,N,0.32,K,D*38
$GPGGA,225018.000,4730.1438,N,12215.8003,W,2,05,1.77,45.4,M,-17.4,M,0000,0000*6F
$GPGSA,A,3,22,04,03,16,26,,,,,,,,2.03,1.77,0.99*06
$GPRMC,225018.000,A,4730.1438,N,12215.8003,W,0.18,145.63,101120,,,D*7A
$GPVTG,145.63,T,,M,0.18,N,0.34,K,D*33
$GPGGA,225018.250,4730.1437,N,12215.8002,W,2,05,1.77,45.4,M,-17.4,M,0000,0000*66
$GPGSA,A,3,22,04,03,16,26,,,,,,,,2.03,1.77,0.99*06
$GPRMC,225018.250,A,4730.1437,N,12215.8002,W,0.19,142.88,101120,,,D*70
$GPVTG,142.88,T,,M,0.19,N,0.35,K,D*31
$GPGGA,225018.500,4730.1437,N,12215.8002,W,2,05,1.77,45.4,M,-17.4,M,0000,0000*64
$GPGSA,A,3,22,04,03,16,26,,,,,,,,2.03,1.77,0.99*06
$GPRMC,225018.500,A,4730.1437,N,12215.8002,W,0.19,142.08,101120,,,D*7A
$GPVTG,142.08,T,,M,0.19,N,0.36,K,D*3A
$GPGGA,225018.750,4730.1437,N,12215.8002,W,2,05,1.76,45.4,M,-17.4,M,0000,0000*62
$GPGSA,A,3,22,04,03,16,26,,,,,,,,2.03,1.76,0.99*07
$GPGSV,3,1,12,04,72,309,18,03,64,182,28,22,42,168,23,26,41,085,12*7D
$GPGSV,3,2,12,46,35,189,30,09,34,285,17,16,33,130,25,06,23,302,16*78
$GPGSV,3,3,12,31,20,053,17,07,08,229,,02,03,339,,01,02,200,*75
$GPRMC,225018.750,A,4730.1437,N,12215.8002,W,0.20,141.29,101120,,,D*77
$GPVTG,141.29,T,,M,0.20,N,0.37,K,D*31
$GPGGA,225019.000,4730.1437,N,12215.8002,W,2,05,1.77,45.4,M,-17.4,M,0000,0000*60
$GPGSA,A,3,22,04,03,16,26,,,,,,,,2.03,1.77,0.99*06
$GPRMC,225019.000,A,4730.1437,N,12215.8002,W,0.19,144.67,101120,,,D*71
$GPVTG,144.67,T,,M,0.19,N,0.35,K,D*36
$GPGGA,225019.250,4730.1437,N,12215.8002,W,2,05,1.77,45.4,M,-17.4,M,0000,0000*67
$GPGSA,A,3,22,04,03,16,26,,,,,,,,2.03,1.77,0.99*06
$GPRMC,225019.250,A,4730.1437,N,12215.8002,W,0.18,152.10,101120,,,D*70
$GPVTG,152.10,T,,M,0.18,N,0.33,K,D*36
$GPGGA,225019.500,4730.1437,N,12215.8002,W,2,05,1.77,45.4,M,-17.4,M,0000,0000*65
$GPGSA,A,3,22,04,03,16,26,,,,,,,,2.03,1.77,0.99*06
$GPRMC,225019.500,A,4730.1437,N,12215.8002,W,0.17,158.45,101120,,,D*77
$GPVTG,158.45,T,,M,0.17,N,0.32,K,D*32
$GPGGA,225019.750,4730.1437,N,12215.8002,W,2,05,1.77,45.4,M,-17.4,M,0000,0000*62
$GPGSA,A,3,22,04,03,16,26,,,,,,,,2.03,1.77,0.99*06
$GPRMC,225019.750,A,4730.1437,N,12215.8002,W,0.16,163.70,101120,,,D*7F
$GPVTG,163.70,T,,M,0.16,N,0.30,K,D*3F
$GPGGA,225020.000,4730.1437,N,12215.8002,W,2,05,1.77,45.4,M,-17.4,M,0000,0000*6A
$GPGSA,A,3,22,04,03,16,26,,,,,,,,2.03,1.77,0.99*06
$GPGSV,3,1,12,04,72,309,16,03,64,182,28,22,42,168,23,26,41,085,11*70
$GPGSV,3,2,12,46,35,189,30,09,34,285,17,16,33,130,25,06,23,302,16*78
$GPGSV,3,3,12,31,20,053,17,07,08,229,,02,03,339,,01,01,200,*76
$GPRMC,225020.000,A,4730.1437,N,12215.8002,W,0.15,163.73,101120,,,D*77
$GPVTG,163.73,T,,M,0.15,N,0.28,K,D*36
$GPGGA,225020.250,4730.1437,N,12215.8002,W,2,05,1.77,45.4,M,-17.4,M,0000,0000*6D
$GPGSA,A,3,22,04,03,16,26,,,,,,,,2.03,1.77,0.99*06
$GPRMC,225020.250,A,4730.1437,N,12215.8002,W,0.14,165.17,101120,,,D*75
$GPVTG,165.17,T,,M,0.14,N,0.26,K,D*3D
$GPGGA,225020.500,4730.1437,N,12215.8002,W,2,05,1.77,45.4,M,-17.4,M,0000,0000*6F
$GPGSA,A,3,22,04,03,16,26,,,,,,,,2.03,1.77,0.99*06
$GPRMC,225020.500,A,4730.1437,N,12215.8002,W,0.14,170.18,101120,,,D*7C
$GPVTG,170.18,T,,M,0.14,N,0.25,K,D*35
$GPGGA,225020.750,4730.1436,N,12215.8002,W,2,05,1.77,45.4,M,-17.4,M,0000,0000*69
$GPGSA,A,3,22,04,03,16,26,,,,,,,,2.03,1.77,0.99*06
$GPRMC,225020.750,A,4730.1436,N,12215.8002,W,0.14,184.48,101120,,,D*74
$GPVTG,184.48,T,,M,0.14,N,0.26,K,D*38
$GPGGA,225021.000,4730.1436,N,12215.8002,W,2,05,1.77,45.4,M,-17.4,M,0000,0000*6A
$GPGSA,A,3,22,04,03,16,26,,,,,,,,2.03,1.77,0.99*06
$GPRMC,225021.000,A,4730.1436,N,12215.8002,W,0.14,197.73,101120,,,D*7D
$GPVTG,197.73,T,,M,0.14,N,0.25,K,D*31
$GPGGA,225021.250,4730.1436,N,12215.8002,W,2,05,1.77,45.4,M,-17.4,M,0000,0000*6D
$GPGSA,A,3,22,04,03,16,26,,,,,,,,2.03,1.77,0.99*06
$GPGSV,3,1,12,04,72,309,16,03,64,182,28,22,42,168,24,26,41,085,14*72
$GPGSV,3,2,12,46,35,189,30,09,34,285,18,16,33,130,25,06,23,302,17*76
$GPGSV,3,3,12,31,20,053,17,07,08,229,,02,03,339,,01,01,200,*76
$GPRMC,225021.250,A,4730.1436,N,12215.8002,W,0.14,213.70,101120,,,D*76
$GPVTG,213.70,T,,M,0.14,N,0.26,K,D*3E
$GPGGA,225021.500,4730.1436,N,12215.8002,W,2,05,1.77,45.4,M,-17.4,M,0000,0000*6F
$GPGSA,A,3,22,04,03,16,26,,,,,,,,2.03,1.77,0.99*06
$GPRMC,225021.500,A,4730.1436,N,12215.8002,W,0.15,222.70,101120,,,D*77
$GPVTG,222.70,T,,M,0.15,N,0.27,K,D*3C
$GPGGA,225021.750,4730.1436,N,12215.8002,W,2,05,1.77,45.4,M,-17.4,M,0000,0000*68
$GPGSA,A,3,22,04,03,16,26,,,,,,,,2.03,1.77,0.99*06
$GPRMC,225021.750,A,4730.1436,N,12215.8002,W,0.15,227.53,101120,,,D*74
$GPVTG,227.53,T,,M,0.15,N,0.29,K,D*36
$GPGGA,225022.000,4730.1436,N,12215.8002,W,2,05,1.77,45.4,M,-17.4,M,0000,0000*69
$GPGSA,A,3,22,04,03,16,26,,,,,,,,2.03,1.77,0.99*06
$GPRMC,225022.000,A,4730.1436,N,12215.8002,W,0.16,231.60,101120,,,D*71
$GPVTG,231.60,T,,M,0.16,N,0.30,K,D*3A
$GPGGA,225022.250,4730.1436,N,12215.8002,W,2,05,1.77,45.4,M,-17.4,M,0000,0000*6E
$GPGSA,A,3,22,04,03,16,26,,,,,,,,2.03,1.77,0.99*06
$GPRMC,225022.250,A,4730.1436,N,12215.8002,W,0.16,238.17,101120,,,D*7F
$GPVTG,238.17,T,,M,0.16,N,0.30,K,D*33
$GPGGA,225022.500,4730.1436,N,12215.8003,W,2,05,1.77,45.4,M,-17.4,M,0000,0000*6D
$GPGSA,A,3,22,04,03,16,26,,,,,,,,2.03,1.77,0.99*06
$GPGSV,3,1,12,04,72,309,16,03,64,182,28,22,42,168,24,26,41,085,15*73
$GPGSV,3,2,12,46,35,189,30,09,34,286,18,16,33,130,25,06,23,302,18*7A
$GPGSV,3,3,12,31,20,053,17,07,08,229,,02,03,339,,01,01,200,*76
$GPRMC,225022.500,A,4730.1436,N,12215.8003,W,0.15,249.20,101120,,,D*7D
$GPVTG,249.20,T,,M,0.15,N,0.28,K,D*3B
$GPGGA,225022.750,4730.1436,N,12215.8003,W,2,05,1.77,45.4,M,-17.4,M,0000,0000*6A
$GPGSA,A,3,22,04,03,16,26,,,,,,,,2.03,1.77,0.99*06
$GPRMC,225022.750,A,4730.1436,N,12215.8003,W,0.12,261.48,101120,,,D*79
$GPVTG,261.48,T,,M,0.12,N,0.23,K,D*33
$GPGGA,225023.000,4730.1436,N,12215.8003,W,2,05,1.77,45.4,M,-17.4,M,0000,0000*69
$GPGSA,A,3,22,04,03,16,26,,,,,,,,2.03,1.77,0.99*06
$GPRMC,225023.000,A,4730.1436,N,12215.8003,W,0.13,269.09,101120,,,D*76
$GPVTG,269.09,T,,M,0.13,N,0.24,K,D*38
$GPGGA,225023.250,4730.1436,N,12215.8003,W,2,05,1.77,45.4,M,-17.4,M,0000,0000*6E
$GPGSA,A,3,22,04,03,16,26,,,,,,,,2.03,1.77,0.99*06
$GPRMC,225023.250,A,4730.1436,N,12215.8003,W,0.14,278.97,101120,,,D*71
$GPVTG,278.97,T,,M,0.14,N,0.26,K,D*3A
$GPGGA,225023.500,4730.1436,N,12215.8003,W,2,05,1.77,45.4,M,-17.4,M,0000,0000*6C
$GPGSA,A,3,22,04,03,16,26,,,,,,,,2.03,1.77,0.99*06
$GPRMC,225023.500,A,4730.1436,N,12215.8003,W,0.15,287.28,101120,,,D*76
$GPVTG,287.28,T,,M,0.15,N,0.28,K,D*31
$GPGGA,225023.750,4730.1436,N,12215.8003,W,2,05,1.76,45.4,M,-17.4,M,0000,0000*6A
$GPGSA,A,3,22,04,03,16,26,,,,,,,,2.03,1.76,0.99*07
$GPGSV,3,1,12,04,72,309,17,03,64,182,28,22,42,168,25,26,41,085,15*73
$GPGSV,3,2,12,46,35,189,30,09,34,286,19,16,33,130,25,06,23,302,18*7B
$GPGSV,3,3,12,31,20,053,17,07,08,229,,02,03,339,,01,01,200,*76
$GPRMC,225023.750,A,4730.1436,N,12215.8003,W,0.16,295.93,101120,,,D*71
$GPVTG,295.93,T,,M,0.16,N,0.30,K,D*38
$GPGGA,225024.000,4730.1436,N,12215.8003,W,2,05,1.77,45.4,M,-17.4,M,0000,0000*6E
$GPGSA,A,3,22,04,03,16,26,,,,,,,,2.03,1.77,0.99*06
$GPRMC,225024.000,A,4730.1436,N,12215.8003,W,0.17,299.44,101120,,,D*73
$GPVTG,299.44,T,,M,0.17,N,0.32,K,D*3D
$GPGGA,225024.250,4730.1436,N,12215.8004,W,2,05,1.77,45.4,M,-17.4,M,0000,0000*6E
$GPGSA,A,3,22,04,03,16,26,,,,,,,,2.03,1.77,0.99*06
$GPRMC,225024.250,A,4730.1436,N,12215.8004,W,0.18,306.57,101120,,,D*79
$GPVTG,306.57,T,,M,0.18,N,0.33,K,D*36
$GPGGA,225024.500,4730.1436,N,12215.8004,W,2,05,1.77,45.4,M,-17.4,M,0000,0000*6C
$GPGSA,A,3,22,04,03,16,26,,,,,,,,2.03,1.77,0.99*06
$GPRMC,225024.500,A,4730.1436,N,12215.8004,W,0.19,318.55,101120,,,D*77
$GPVTG,318.55,T,,M,0.19,N,0.35,K,D*3C
$GPGGA,225024.750,4730.1436,N,12215.8004,W,2,05,1.77,45.4,M,-17.4,M,0000,0000*6B
$GPGSA,A,3,22,04,03,16,26,,,,,,,,2.03,1.77,0.99*06
$GPRMC,225024.750,A,4730.1436,N,12215.8004,W,0.20,330.00,101120,,,D*70
$GPVTG,330.00,T,,M,0.20,N,0.38,K,D*31
$GPGGA,225025.000,4730.1436,N,12215.8004,W,2,05,1.76,45.4,M,-17.4,M,0000,0000*69
$GPGSA,A,3,22,04,03,16,26,,,,,,,,2.03,1.76,0.99*07
$GPGSV,3,1,12,04,72,309,17,03,64,182,29,22,42,168,24,26,41,085,15*73
$GPGSV,3,2,12,46,35,189,30,09,34,286,19,16,33,130,26,06,23,302,18*78
$GPGSV,3,3,12,31,20,053,17,07,08,229,,02,03,339,,01,01,200,*76
$GPRMC,225025.000,A,4730.1436,N,12215.8004,W,0.23,335.30,101120,,,D*76
$GPVTG,335.30,T,,M,0.23,N,0.43,K,D*38
$GPGGA,225025.250,4730.1437,N,12215.8004,W,2,05,1.77,45.4,M,-17.4,M,0000,0000*6E
$GPGSA,A,3,22,04,03,16,26,,,,,,,,2.03,1.77,0.99*06
$GPRMC,225025.250,A,4730.1437,N,12215.8004,W,0.24,340.69,101120,,,D*79
$GPVTG,340.69,T,,M,0.24,N,0.45,K,D*37
$GPGGA,225025.500,4730.1437,N,12215.8004,W,2,05,1.77,45.4,M,-17.4,M,0000,0000*6C
$GPGSA,A,3,22,04,03,16,26,,,,,,,,2.03,1.77,0.99*06
$GPRMC,225025.500,A,4730.1437,N,12215.8004,W,0.26,341.09,101120,,,D*7E
$GPVTG,341.09,T,,M,0.26,N,0.49,K,D*3E
$GPGGA,225025.750,4730.1437,N,12215.8004,W,2,05,1.77,45.4,M,-17.4,M,0000,0000*6B
$GPGSA,A,3,22,04,03,16,26,,,,,,,,2.03,1.77,0.99*06
$GPRMC,225025.750,A,4730.1437,N,12215.8004,W,0.28,339.14,101120,,,D*74
$GPVTG,339.14,T,,M,0.28,N,0.51,K,D*3A
$GPGGA,225026.000,4730.1437,N,12215.8004,W,2,05,1.77,45.4,M,-17.4,M,0000,0000*6A
$GPGSA,A,3,22,04,03,16,26,,,,,,,,2.03,1.77,0.99*06
$GPRMC,225026.000,A,4730.1437,N,12215.8004,W,0.28,337.00,101120,,,D*7E
$GPVTG,337.00,T,,M,0.28,N,0.52,K,D*32
$GPGGA,225026.250,4730.1437,N,12215.8005,W,2,05,1.77,45.4,M,-17.4,M,0000,0000*6C
$GPGSA,A,3,22,04,03,16,26,,,,,,,,2.03,1.77,0.99*06
$GPGSV,3,1,12,04,72,309,17,03,64,182,28,22,42,168,24,26,41,085,14*73
$GPGSV,3,2,12,46,35,189,30,09,34,286,19,16,33,130,26,06,23,302,18*78
$GPGSV,3,3,12,31,20,053,17,07,08,229,,02,03,339,,01,01,200,*76
$GPRMC,225026.250,A,4730.1437,N,12215.8005,W,0.29,337.78,101120,,,D*76
$GPVTG,337.78,T,,M,0.29,N,0.54,K,D*3A
$GPGGA,225026.500,4730.1438,N,12215.8005,W,2,05,1.77,45.4,M,-17.4,M,0000,0000*61
$GPGSA,A,3,22,04,03,16,26,,,,,,,,2.03,1.77,0.99*06
$GPRMC,225026.500,A,4730.1438,N,12215.8005,W,0.29,340.54,101120,,,D*75
$GPVTG,340.54,T,,M,0.29,N,0.55,K,D*35
$GPGGA,225026.750,4730.1438,N,12215.8005,W,2,05,1.77,45.4,M,-17.4,M,0000,0000*66
$GPGSA,A,3,22,04,03,16,26,,,,,,,,2.03,1.77,0.99*06
$GPRMC,225026.750,A,4730.1438,N,12215.8005,W,0.30,342.53,101120,,,D*7F
$GPVTG,342.53,T,,M,0.30,N,0.56,K,D*3B
$GPGGA,225027.000,4730.1438,N,12215.8005,W,2,05,1.77,45.4,M,-17.4,M,0000,0000*65
$GPGSA,A,3,22,04,03,16,26,,,,,,,,2.03,1.77,0.99*06
$GPRMC,225027.000,A,4730.1438,N,12215.8005,W,0.32,345.50,101120,,,D*7A
$GPVTG,345.50,T,,M,0.32,N,0.59,K,D*32
$GPGGA,225027.250,4730.1438,N,12215.8005,W,2,05,3.93,45.4,M,-17.4,M,0000,0000*6A
$GPGSA,A,3,22,04,03,16,26,,,,,,,,10.07,3.93,9.27*35
$GPRMC,225027.250,A,4730.1438,N,12215.8005,W,0.33,350.38,101120,,,D*76
$GPVTG,350.38,T,,M,0.33,N,0.61,K,D*32
$GPGGA,225027.500,4730.1438,N,12215.8005,W,2,05,3.93,45.4,M,-17.4,M,0000,0000*68
$GPGSA,A,3,22,04,03,16,26,,,,,,,,10.08,3.93,9.28*35
$GPGSV,3,1,12,04,72,309,17,03,64,182,28,22,42,168,24,26,41,085,13*74
$GPGSV,3,2,12,46,35,189,31,09,34,286,19,16,33,130,26,06,23,302,18*79
$GPGSV,3,3,12,31,20,053,17,07,08,229,,02,03,339,,01,01,200,*76
$GPRMC,225027.500,A,4730.1438,N,12215.8005,W,0.32,354.57,101120,,,D*78
$GPVTG,354.57,T,,M,0.32,N,0.59,K,D*35
$GPGGA,225027.750,4730.1439,N,12215.8005,W,2,05,3.93,45.4,M,-17.4,M,0000,0000*6E
$GPGSA,A,3,22,04,03,16,26,,,,,,,,10.07,3.93,9.28*3A
$GPRMC,225027.750,A,4730.1439,N,12215.8005,W,0.31,357.26,101120,,,D*78
$GPVTG,357.26,T,,M,0.31,N,0.58,K,D*32
$GPGGA,225028.000,4730.1439,N,12215.8005,W,2,05,3.93,45.4,M,-17.4,M,0000,0000*63
$GPGSA,A,3,22,04,03,16,26,,,,,,,,10.07,3.93,9.27*35
$GPRMC,225028.000,A,4730.1439,N,12215.8005,W,0.31,355.64,101120,,,D*71
$GPVTG,355.64,T,,M,0.31,N,0.58,K,D*36
$GPGGA,225028.250,4730.1439,N,12215.8005,W,2,05,3.94,45.4,M,-17.4,M,0000,0000*63
$GPGSA,A,3,22,04,03,16,26,,,,,,,,10.08,3.94,9.28*32
$GPRMC,225028.250,A,4730.1439,N,12215.8005,W,0.32,353.05,101120,,,D*74
$GPVTG,353.05,T,,M,0.32,N,0.59,K,D*35
$GPGGA,225028.500,4730.1439,N,12215.8005,W,2,05,3.93,45.4,M,-17.4,M,0000,0000*66
$GPGSA,A,3,22,04,03,16,26,,,,,,,,10.08,3.93,9.28*35
$GPRMC,225028.500,A,4730.1439,N,12215.8005,W,0.32,352.41,101120,,,D*77
$GPVTG,352.41,T,,M,0.32,N,0.59,K,D*34
$GPGGA,225028.750,4730.1440,N,12215.8005,W,2,05,3.93,45.4,M,-17.4,M,0000,0000*6F
$GPGSA,A,3,22,04,03,16,26,,,,,,,,10.07,3.93,9.27*35
$GPGSV,3,1,12,04,72,309,17,03,64,182,28,22,42,168,25,26,41,085,12*74
$GPGSV,3,2,12,46,35,189,31,09,34,286,19,16,33,130,26,06,23,302,18*79
$GPGSV,3,3,12,31,20,053,16,07,08,229,,02,03,339,,01,01,200,*77
$GPRMC,225028.750,A,4730.1440,N,12215.8005,W,0.32,354.08,101120,,,D*75
$GPVTG,354.08,T,,M,0.32,N,0.59,K,D*3F
$GPGGA,225029.000,4730.1440,N,12215.8005,W,2,05,3.94,45.4,M,-17.4,M,0000,0000*6B
$GPGSA,A,3,22,04,03,16,26,,,,,,,,10.08,3.94,9.28*32
$GPRMC,225029.000,A,4730.1440,N,12215.8005,W,0.33,352.54,101120,,,D*78
$GPVTG,352.54,T,,M,0.33,N,0.61,K,D*3A
$GPGGA,225029.250,4730.1440,N,12215.8005,W,2,05,3.94,45.4,M,-17.4,M,0000,0000*6C
$GPGSA,A,3,22,04,03,16,26,,,,,,,,10.08,3.94,9.28*32
$GPRMC,225029.250,A,4730.1440,N,12215.8005,W,0.34,350.95,101120,,,D*77
$GPVTG,350.95,T,,M,0.34,N,0.63,K,D*30
$GPGGA,225029.500,4730.1440,N,12215.8005,W,2,05,3.94,45.4,M,-17.4,M,0000,0000*6E
$GPGSA,A,3,22,04,03,16,26,,,,,,,,10.08,3.94,9.28*32
$GPRMC,225029.500,A,4730.1440,N,12215.8005,W,0.34,350.05,101120,,,D*7C
$GPVTG,350.05,T,,M,0.34,N,0.63,K,D*39
$GPGGA,225029.750,4730.1441,N,12215.8005,W,2,05,3.94,45.4,M,-17.4,M,0000,0000*68
$GPGSA,A,3,22,04,03,16,26,,,,,,,,10.08,3.94,9.28*32
$GPRMC,225029.750,A,4730.1441,N,12215.8005,W,0.33,345.96,101120,,,D*73
$GPVTG,345.96,T,,M,0.33,N,0.62,K,D*31
$GPGGA,225030.000,4730.1441,N,12215.8005,W,2,05,3.94,45.4,M,-17.4,M,0000,0000*62
$GPGSA,A,3,22,04,03,16,26,,,,,,,,10.09,3.94,9.28*33
$GPGSV,3,1,12,04,72,309,17,03,64,182,29,22,42,168,25,26,41,085,15*72
$GPGSV,3,2,12,46,35,189,31,09,34,286,19,16,33,130,26,06,23,302,19*78
$GPGSV,3,3,12,31,20,053,16,07,08,229,,02,03,339,,01,01,200,*77
$GPRMC,225030.000,A,4730.1441,N,12215.8005,W,0.34,347.24,101120,,,D*75
$GPVTG,347.24,T,,M,0.34,N,0.62,K,D*3D
$GPGGA,225030.250,4730.1441,N,12215.8005,W,2,05,3.94,45.4,M,-17.4,M,0000,0000*65
$GPGSA,A,3,22,04,03,16,26,,,,,,,,10.09,3.94,9.29*32
$GPRMC,225030.250,A,4730.1441,N,12215.8005,W,0.34,350.19,101120,,,D*7A
$GPVTG,350.19,T,,M,0.34,N,0.62,K,D*35
$GPGGA,225030.500,4730.1441,N,12215.8006,W,2,05,3.94,45.4,M,-17.4,M,0000,0000*64
$GPGSA,A,3,22,04,03,16,26,,,,,,,,10.08,3.94,9.28*32
$GPRMC,225030.500,A,4730.1441,N,12215.8006,W,0.34,349.23,101120,,,D*7A
$GPVTG,349.23,T,,M,0.34,N,0.63,K,D*35
$GPGGA,225030.750,4730.1442,N,12215.8006,W,2,05,3.93,45.4,M,-17.4,M,0000,0000*67
$GPGSA,A,3,22,04,03,16,26,,,,,,,,10.08,3.93,9.28*35
$GPRMC,225030.750,A,4730.1442,N,12215.8006,W,0.34,347.62,101120,,,D*75
$GPVTG,347.62,T,,M,0.34,N,0.64,K,D*39
$GPGGA,225031.000,4730.1442,N,12215.8006,W,2,05,3.94,45.4,M,-17.4,M,0000,0000*63
$GPGSA,A,3,22,04,03,16,26,,,,,,,,10.09,3.94,9.29*32
$GPRMC,225031.000,A,4730.1442,N,12215.8006,W,0.35,348.66,101120,,,D*7C
$GPVTG,348.66,T,,M,0.35,N,0.64,K,D*33
$GPGGA,225031.250,4730.1442,N,12215.8006,W,2,05,3.94,45.4,M,-17.4,M,0000,0000*64
$GPGSA,A,3,22,04,03,16,26,,,,,,,,10.09,3.94,9.29*32
$GPGSV,3,1,12,04,72,309,17,03,64,182,29,22,42,168,25,26,41,085,17*70
$GPGSV,3,2,12,46,35,189,31,09,34,286,19,16,33,130,25,06,23,302,19*7B
$GPGSV,3,3,12,31,20,053,16,07,08,229,,02,03,339,,01,01,200,*77
$GPRMC,225031.250,A,4730.1442,N,12215.8006,W,0.35,350.45,101120,,,D*73
$GPVTG,350.45,T,,M,0.35,N,0.64,K,D*3B
$GPGGA,225031.500,4730.1442,N,12215.8006,W,2,05,3.94,45.4,M,-17.4,M,0000,0000*66
$GPGSA,A,3,22,04,03,16,26,,,,,,,,10.09,3.94,9.29*32
$GPRMC,225031.500,A,4730.1442,N,12215.8006,W,0.35,354.44,101120,,,D*74
$GPVTG,354.44,T,,M,0.35,N,0.64,K,D*3E
$GPGGA,225031.750,4730.1443,N,12215.8006,W,2,05,3.94,45.4,M,-17.4,M,0000,0000*60
$GPGSA,A,3,22,04,03,16,26,,,,,,,,10.08,3.94,9.28*32
$GPRMC,225031.750,A,4730.1443,N,12215.8006,W,0.34,355.77,101120,,,D*72
$GPVTG,355.77,T,,M,0.34,N,0.63,K,D*39
$GPGGA,225032.000,4730.1443,N,12215.8006,W,2,05,3.94,45.4,M,-17.4,M,0000,0000*61
$GPGSA,A,3,22,04,03,16,26,,,,,,,,10.09,3.94,9.29*32
$GPRMC,225032.000,A,4730.1443,N,12215.8006,W,0.50,14.02,101120,,,D*45
$GPVTG,14.02,T,,M,0.50,N,0.93,K,D*00
$GPGGA,225032.250,4730.1443,N,12215.8005,W,2,05,3.94,45.4,M,-17.4,M,0000,0000*65
$GPGSA,A,3,22,04,03,16,26,,,,,,,,10.09,3.94,9.29*32
$GPRMC,225032.250,A,4730.1443,N,12215.8005,W,0.69,23.72,101120,,,D*48
$GPVTG,23.72,T,,M,0.69,N,1.28,K,D*08
$GPGGA,225032.500,4730.1453,N,12215.7991,W,2,05,1.77,45.4,M,-17.4,M,0000,0000*62
$GPGSA,A,3,22,04,03,16,26,,,,,,,,2.03,1.77,0.99*06
$GPGSV,3,1,12,04,72,309,17,03,64,182,29,22,42,168,26,26,41,085,15*71
$GPGSV,3,2,12,46,35,189,31,09,34,286,19,16,33,130,24,06,23,302,19*7A
$GPGSV,3,3,12,31,20,053,15,07,08,229,,02,03,339,,01,01,200,*74
$GPRMC,225032.500,A,4730.1453,N,12215.7991,W,0.90,29.92,101120,,,D*42
$GPVTG,29.92,T,,M,0.90,N,1.66,K,D*00
$GPGGA,225032.750,4730.1462,N,12215.7977,W,2,05,1.77,45.4,M,-17.4,M,0000,0000*6F
$GPGSA,A,3,22,04,03,16,26,,,,,,,,2.03,1.77,0.99*06
$GPRMC,225032.750,A,4730.1462,N,12215.7977,W,1.08,33.26,101120,,,D*4B
$GPVTG,33.26,T,,M,1.08,N,2.01,K,D*06
$GPGGA,225033.000,4730.1471,N,12215.7963,W,2,05,1.77,45.4,M,-17.4,M,0000,0000*6B
$GPGSA,A,3,22,04,03,16,26,,,,,,,,2.03,1.77,0.99*06
$GPRMC,225033.000,A,4730.1471,N,12215.7963,W,1.28,35.06,101120,,,D*49
$GPVTG,35.06,T,,M,1.28,N,2.37,K,D*05
$GPGGA,225033.250,4730.1480,N,12215.7950,W,2,05,1.77,45.4,M,-17.4,M,0000,0000*62
$GPGSA,A,3,22,04,03,16,26,,,,,,,,2.03,1.77,0.99*06
$GPRMC,225033.250,A,4730.1480,N,12215.7950,W,1.46,36.17,101120,,,D*4B
$GPVTG,36.17,T,,M,1.46,N,2.71,K,D*0C
$GPGGA,225033.500,4730.1489,N,12215.7937,W,2,05,1.76,45.4,M,-17.4,M,0000,0000*69
$GPGSA,A,3,22,04,03,16,26,,,,,,,,2.03,1.76,0.99*07
$GPRMC,225033.500,A,4730.1489,N,12215.7937,W,1.64,37.53,101120,,,D*40
$GPVTG,37.53,T,,M,1.64,N,3.03,K,D*09
$GPGGA,225033.750,4730.1499,N,12215.7924,W,2,05,1.76,45.5,M,-17.4,M,0000,0000*6C
$GPGSA,A,3,22,04,03,16,26,,,,,,,,2.03,1.76,0.99*07
$GPGSV,3,1,12,04,72,309,17,03,64,182,29,22,41,168,26,26,41,085,17*70
$GPGSV,3,2,12,46,35,189,31,09,34,286,19,16,33,130,24,06,23,302,19*7A
$GPGSV,3,3,12,31,20,053,15,07,08,229,,02,03,339,,01,01,200,*74
$GPRMC,225033.750,A,4730.1499,N,12215.7924,W,1.84,37.66,101120,,,D*4C
$GPVTG,37.66,T,,M,1.84,N,3.40,K,D*06
$GPGGA,225034.000,4730.1506,N,12215.7911,W,2,05,1.76,45.5,M,-17.4,M,0000,0000*68
$GPGSA,A,3,22,04,03,16,26,,,,,,,,2.03,1.76,0.99*07
$GPRMC,225034.000,A,4730.1506,N,12215.7911,W,2.02,38.64,101120,,,D*48
$GPVTG,38.64,T,,M,2.02,N,3.74,K,D*01
$GPGGA,225034.250,4730.1512,N,12215.7901,W,2,05,1.76,45.5,M,-17.4,M,0000,0000*6B
$GPGSA,A,3,22,04,03,16,26,,,,,,,,2.03,1.76,0.99*07
$GPRMC,225034.250,A,4730.1512,N,12215.7901,W,2.09,39.05,101120,,,D*46
$GPVTG,39.05,T,,M,2.09,N,3.87,K,D*00
$GPGGA,225034.500,4730.1513,N,12215.7901,W,2,05,1.76,45.6,M,-17.4,M,0000,0000*6B
$GPGSA,A,3,22,04,03,16,26,,,,,,,,2.03,1.76,0.99*07
$GPRMC,225034.500,A,4730.1513,N,12215.7901,W,2.09,38.18,101120,,,D*48
$GPVTG,38.18,T,,M,2.09,N,3.87,K,D*0D
$GPGGA,225034.750,4730.1513,N,12215.7901,W,2,05,1.77,45.6,M,-17.4,M,0000,0000*6D
$GPGSA,A,3,22,04,03,16,26,,,,,,,,2.03,1.77,0.99*06
$GPRMC,225034.750,A,4730.1513,N,12215.7901,W,2.07,37.53,101120,,,D*41
$GPVTG,37.53,T,,M,2.07,N,3.84,K,D*00
$GPGGA,225035.000,4730.1514,N,12215.7900,W,2,05,1.77,45.6,M,-17.4,M,0000,0000*68
$GPGSA,A,3,22,04,03,16,26,,,,,,,,2.03,1.77,0.99*06
$GPGSV,3,1,12,04,72,309,17,03,64,182,29,22,41,168,26,26,41,084,17*71
$GPGSV,3,2,12,46,35,189,31,09,34,286,19,16,33,130,24,06,23,302,19*7A
$GPGSV,3,3,12,31,20,053,13,07,08,229,,02,03,339,,01,01,200,*72
$GPRMC,225035.000,A,4730.1514,N,12215.7900,W,2.07,37.25,101120,,,D*45
$GPVTG,37.25,T,,M,2.07,N,3.83,K,D*06
$GPGGA,225035.250,4730.1515,N,12215.7900,W,2,05,1.76,45.7,M,-17.4,M,0000,0000*6E
$GPGSA,A,3,22,04,03,16,26,,,,,,,,2.03,1.76,0.99*07
$GPRMC,225035.250,A,4730.1515,N,12215.7900,W,2.06,36.79,101120,,,D*4A
$GPVTG,36.79,T,,M,2.06,N,3.81,K,D*0D
$GPGGA,225035.500,4730.1517,N,12215.7900,W,2,05,1.77,45.7,M,-17.4,M,0000,0000*6F
$GPGSA,A,3,22,04,03,16,26,,,,,,,,2.03,1.77,0.99*06
$GPRMC,225035.500,A,4730.1517,N,12215.7900,W,2.05,35.98,101120,,,D*45
$GPVTG,35.98,T,,M,2.05,N,3.81,K,D*02
$GPGGA,225035.750,4730.1517,N,12215.7899,W,2,05,1.77,45.8,M,-17.4,M,0000,0000*66
$GPGSA,A,3,22,04,03,16,26,,,,,,,,2.03,1.77,0.99*06
$GPRMC,225035.750,A,4730.1517,N,12215.7899,W,2.04,35.87,101120,,,D*4C
$GPVTG,35.87,T,,M,2.04,N,3.78,K,D*0B
$GPGGA,225036.000,4730.1518,N,12215.7898,W,2,05,1.77,45.8,M,-17.4,M,0000,0000*69
$GPGSA,A,3,22,04,03,16,26,,,,,,,,2.03,1.77,0.99*06
$GPRMC,225036.000,A,4730.1518,N,12215.7898,W,2.02,35.92,101120,,,D*41
$GPVTG,35.92,T,,M,2.02,N,3.75,K,D*04
$GPGGA,225036.250,4730.1519,N,12215.7898,W,2,05,1.77,45.8,M,-17.4,M,0000,0000*6F
$GPGSA,A,3,22,04,03,16,26,,,,,,,,2.03,1.77,0.99*06
$GPGSV,3,1,12,04,72,309,17,03,64,182,29,22,41,168,26,26,41,084,17*71
$GPGSV,3,2,12,46,35,189,31,09,34,286,19,16,33,130,24,06,23,302,18*7B
$GPGSV,3,3,12,31,20,053,13,07,08,229,,02,03,339,,01,01,200,*72
$GPRMC,225036.250,A,4730.1519,N,12215.7898,W,2.01,35.85,101120,,,D*42
$GPVTG,35.85,T,,M,2.01,N,3.72,K,D*06
$GPGGA,225036.500,4730.1519,N,12215.7898,W,2,05,1.76,45.8,M,-17.4,M,0000,0000*6C
$GPGSA,A,3,22,04,03,16,26,,,,,,,,2.03,1.76,0.99*07
$GPRMC,225036.500,A,4730.1519,N,12215.7898,W,1.98,35.71,101120,,,D*48
$GPVTG,35.71,T,,M,1.98,N,3.67,K,D*0A
$GPGGA,225036.750,4730.1520,N,12215.7898,W,2,05,1.76,45.9,M,-17.4,M,0000,0000*60
$GPGSA,A,3,22,04,03,16,26,,,,,,,,2.03,1.76,0.99*07
$GPRMC,225036.750,A,4730.1520,N,12215.7898,W,1.97,35.02,101120,,,D*4E
$GPVTG,35.02,T,,M,1.97,N,3.64,K,D*02
$GPGGA,225037.000,4730.1521,N,12215.7897,W,2,05,1.77,45.9,M,-17.4,M,0000,0000*6C
$GPGSA,A,3,22,04,03,16,26,,,,,,,,2.03,1.77,0.99*06
$GPRMC,225037.000,A,4730.1521,N,12215.7897,W,1.96,34.79,101120,,,D*4F
$GPVTG,34.79,T,,M,1.96,N,3.63,K,D*09
$GPGGA,225037.250,4730.1522,N,12215.7896,W,2,05,1.76,45.9,M,-17.4,M,0000,0000*68
$GPGSA,A,3,22,04,03,16,26,,,,,,,,2.03,1.76,0.99*07
$GPRMC,225037.250,A,4730.1522,N,12215.7896,W,1.91,35.20,101120,,,D*40
$GPVTG,35.20,T,,M,1.91,N,3.53,K,D*00
$GPGGA,225037.500,4730.1522,N,12215.7895,W,2,05,1.76,46.0,M,-17.4,M,0000,0000*63
$GPGSA,A,3,22,04,03,16,26,,,,,,,,2.03,1.76,0.99*07
$GPGSV,3,1,12,04,72,309,18,03,64,182,29,22,41,168,27,26,41,084,17*7F
$GPGSV,3,2,12,46,35,189,31,09,34,286,19,16,33,130,24,06,23,302,18*7B
$GPGSV,3,3,12,31,20,053,13,07,08,229,,02,03,339,,01,01,200,*72
$GPRMC,225037.500,A,4730.1522,N,12215.7895,W,1.86,35.78,101120,,,D*4A
$GPVTG,35.78,T,,M,1.86,N,3.45,K,D*0C
$GPGGA,225037.750,4730.1522,N,12215.7895,W,2,05,1.76,46.0,M,-17.4,M,0000,0000*64
$GPGSA,A,3,22,04,03,16,26,,,,,,,,2.03,1.76,0.99*07
$GPRMC,225037.750,A,4730.1522,N,12215.7895,W,1.83,36.11,101120,,,D*44
$GPVTG,36.11,T,,M,1.83,N,3.38,K,D*0F
$GPGGA,225038.000,4730.1523,N,12215.7893,W,2,05,1.76,46.0,M,-17.4,M,0000,0000*6E
$GPGSA,A,3,22,04,03,16,26,,,,,,,,2.03,1.76,0.99*07
$GPRMC,225038.000,A,4730.1523,N,12215.7893,W,1.82,36.01,101120,,,D*4E
$GPVTG,36.01,T,,M,1.82,N,3.37,K,D*00
$GPGGA,225038.250,4730.1523,N,12215.7892,W,2,05,1.76,46.0,M,-17.4,M,0000,0000*68
$GPGSA,A,3,22,04,03,16,26,,,,,,,,2.03,1.76,0.99*07
$GPRMC,225038.250,A,4730.1523,N,12215.7892,W,1.79,36.22,101120,,,D*4D
$GPVTG,36.22,T,,M,1.79,N,3.32,K,D*00
$GPGGA,225038.500,4730.1525,N,12215.7891,W,2,05,1.77,46.0,M,-17.4,M,0000,0000*6E
$GPGSA,A,3,22,04,03,16,26,,,,,,,,2.03,1.77,0.99*06
$GPRMC,225038.500,A,4730.1525,N,12215.7891,W,1.78,35.99,101120,,,D*48
$GPVTG,35.99,T,,M,1.78,N,3.31,K,D*01
$GPGGA,225038.750,4730.1526,N,12215.7890,W,2,05,1.77,46.1,M,-17.4,M,0000,0000*6A
$GPGSA,A,3,22,04,03,16,26,,,,,,,,2.03,1.77,0.99*06
$GPGSV,3,1,12,04,73,309,18,03,64,182,29,22,41,168,27,26,41,084,17*7E
$GPGSV,3,2,12,46,35,189,31,09,34,286,19,16,33,130,23,06,23,302,18*7C
$GPGSV,3,3,12,31,20,053,16,07,08,229,,02,03,339,,01,01,200,*77
$GPRMC,225038.750,A,4730.1526,N,12215.7890,W,1.78,34.98,101120,,,D*4D
$GPVTG,34.98,T,,M,1.78,N,3.31,K,D*01
$GPGGA,225039.000,4730.1527,N,12215.7889,W,2,05,1.77,46.1,M,-17.4,M,0000,0000*60
$GPGSA,A,3,22,04,03,16,26,,,,,,,,2.03,1.77,0.99*06
$GPRMC,225039.000,A,4730.1527,N,12215.7889,W,1.77,34.80,101120,,,D*41
$GPVTG,34.80,T,,M,1.77,N,3.28,K,D*0F
$GPGGA,225039.250,4730.1527,N,12215.7888,W,2,05,1.76,46.1,M,-17.4,M,0000,0000*67
$GPGSA,A,3,22,04,03,16,26,,,,,,,,2.02,1.76,0.99*06
$GPRMC,225039.250,A,4730.1527,N,12215.7888,W,1.75,35.31,101120,,,D*4E
$GPVTG,35.31,T,,M,1.75,N,3.25,K,D*0B
$GPGGA,225039.500,4730.1526,N,12215.7886,W,2,05,1.76,46.1,M,-17.4,M,0000,0000*6A
$GPGSA,A,3,22,04,03,16,26,,,,,,,,2.03,1.76,0.99*07
$GPRMC,225039.500,A,4730.1526,N,12215.7886,W,1.69,36.89,101120,,,D*4E
$GPVTG,36.89,T,,M,1.69,N,3.13,K,D*03
$GPGGA,225039.750,4730.1526,N,12215.7886,W,2,05,1.76,46.1,M,-17.4,M,0000,0000*6D
$GPGSA,A,3,22,04,03,16,26,,,,,,,,2.03,1.76,0.99*07
$GPRMC,225039.750,A,4730.1526,N,12215.7886,W,1.64,36.96,101120,,,D*4A
$GPVTG,36.96,T,,M,1.64,N,3.05,K,D*07
$GPGGA,225040.000,4730.1527,N,12215.7885,W,2,05,1.76,46.2,M,-17.4,M,0000,0000*60
$GPGSA,A,3,22,04,03,16,26,,,,,,,,2.03,1.76,0.99*07
$GPGSV,3,1,12,04,73,309,18,03,64,182,29,22,41,168,28,26,41,084,17*71
$GPGSV,3,2,12,46,35,189,31,09,34,286,19,16,33,130,23,06,23,302,18*7C
$GPGSV,3,3,12,31,20,053,15,07,08,229,,02,03,339,,01,01,200,*74
$GPRMC,225040.000,A,4730.1527,N,12215.7885,W,1.65,36.68,101120,,,D*44
$GPVTG,36.68,T,,M,1.65,N,3.06,K,D*04
$GPGGA,225040.250,4730.1527,N,12215.7883,W,2,05,1.76,46.2,M,-17.4,M,0000,0000*61
$GPGSA,A,3,22,04,03,16,26,,,,,,,,2.03,1.76,0.99*07
$GPRMC,225040.250,A,4730.1527,N,12215.7883,W,1.62,38.17,101120,,,D*44
$GPVTG,38.17,T,,M,1.62,N,3.01,K,D*02
$GPGGA,225040.500,4730.1526,N,12215.7882,W,2,05,1.76,46.2,M,-17.4,M,0000,0000*63
$GPGSA,A,3,22,04,03,16,26,,,,,,,,2.03,1.76,0.99*07
$GPRMC,225040.500,A,4730.1526,N,12215.7882,W,1.60,39.81,101120,,,D*4A
$GPVTG,39.81,T,,M,1.60,N,2.96,K,D*01
$GPGGA,225040.750,4730.1526,N,12215.7880,W,2,05,1.76,46.3,M,-17.4,M,0000,0000*67
$GPGSA,A,3,22,04,03,16,26,,,,,,,,2.03,1.76,0.99*07
$GPRMC,225040.750,A,4730.1526,N,12215.7880,W,1.59,41.10,101120,,,D*42
$GPVTG,41.10,T,,M,1.59,N,2.95,K,D*0F
$GPGGA,225041.000,4730.1527,N,12215.7877,W,2,05,1.76,46.3,M,-17.4,M,0000,0000*6D
$GPGSA,A,3,22,04,03,16,26,,,,,,,,2.03,1.76,0.99*07
$GPRMC,225041.000,A,4730.1527,N,12215.7877,W,1.60,41.67,101120,,,D*42
$GPVTG,41.67,T,,M,1.60,N,2.97,K,D*07
$GPGGA,225041.250,4730.1528,N,12215.7874,W,2,05,1.76,46.3,M,-17.4,M,0000,0000*66
$GPGSA,A,3,22,04,03,16,26,,,,,,,,2.02,1.76,0.99*06
$GPGSV,3,1,12,04,73,309,16,03,64,182,29,22,41,168,27,26,41,084,15*72
$GPGSV,3,2,12,46,35,189,31,09,34,286,19,16,33,130,22,06,23,302,18*7D
$GPGSV,3,3,12,31,20,053,15,07,08,229,,02,03,339,,01,01,200,*74
$GPRMC,225041.250,A,4730.1528,N,12215.7874,W,1.63,42.27,101120,,,D*4D
$GPVTG,42.27,T,,M,1.63,N,3.02,K,D*0E
$GPGGA,225041.500,4730.1529,N,12215.7872,W,2,05,1.76,46.3,M,-17.4,M,0000,0000*63
$GPGSA,A,3,22,04,03,16,26,,,,,,,,2.02,1.76,0.99*06
$GPRMC,225041.500,A,4730.1529,N,12215.7872,W,1.65,42.67,101120,,,D*4A
$GPVTG,42.67,T,,M,1.65,N,3.06,K,D*08
$GPGGA,225041.750,4730.1529,N,12215.7869,W,2,05,1.76,46.3,M,-17.4,M,0000,0000*6E
$GPGSA,A,3,22,04,03,16,26,,,,,,,,2.02,1.76,0.99*06
$GPRMC,225041.750,A,4730.1529,N,12215.7869,W,1.64,44.45,101120,,,D*40
$GPVTG,44.45,T,,M,1.64,N,3.03,K,D*0A
$GPGGA,225042.000,4730.1530,N,12215.7867,W,2,05,1.77,46.3,M,-17.4,M,0000,0000*68
$GPGSA,A,3,22,04,03,16,26,,,,,,,,2.03,1.77,0.99*06
$GPRMC,225042.000,A,4730.1530,N,12215.7867,W,1.63,45.09,101120,,,D*49
$GPVTG,45.09,T,,M,1.63,N,3.03,K,D*04
$GPGGA,225042.250,4730.1531,N,12215.7866,W,2,05,1.77,46.3,M,-17.4,M,0000,0000*6F
$GPGSA,A,3,22,04,03,16,26,,,,,,,,2.03,1.77,0.99*06
$GPRMC,225042.250,A,4730.1531,N,12215.7866,W,1.62,45.89,101120,,,D*47
$GPVTG,45.89,T,,M,1.62,N,3.00,K,D*0E
$GPGGA,225042.500,4730.1531,N,12215.7865,W,2,05,1.76,46.3,M,-17.4,M,0000,0000*6F
$GPGSA,A,3,22,04,03,16,26,,,,,,,,2.03,1.76,0.99*07
$GPGSV,3,1,12,04,73,309,16,03,64,182,29,22,41,168,27,26,41,084,15*72
$GPGSV,3,2,12,46,35,189,30,09,34,286,20,16,33,130,22,06,23,302,18*76
$GPGSV,3,3,12,31,20,053,15,07,08,229,,02,03,339,,01,01,200,*74
$GPRMC,225042.500,A,4730.1531,N,12215.7865,W,1.59,46.63,101120,,,D*49
$GPVTG,46.63,T,,M,1.59,N,2.95,K,D*0C
$GPGGA,225042.750,4730.1532,N,12215.7863,W,2,05,1.76,46.3,M,-17.4,M,0000,0000*6D
$GPGSA,A,3,22,04,03,16,26,,,,,,,,2.03,1.76,0.99*07
$GPRMC,225042.750,A,4730.1532,N,12215.7863,W,1.58,47.05,101120,,,D*4B
$GPVTG,47.05,T,,M,1.58,N,2.93,K,D*0A
$GPGGA,225043.000,4730.1532,N,12215.7862,W,2,05,1.76,46.4,M,-17.4,M,0000,0000*68
$GPGSA,A,3,22,04,03,16,26,,,,,,,,2.02,1.76,0.99*06
$GPRMC,225043.000,A,4730.1532,N,12215.7862,W,1.58,47.32,101120,,,D*4D
$GPVTG,47.32,T,,M,1.58,N,2.93,K,D*0E
$GPGGA,225043.250,4730.1533,N,12215.7859,W,2,05,1.76,46.4,M,-17.4,M,0000,0000*66
$GPGSA,A,3,22,04,03,16,26,,,,,,,,2.03,1.76,0.99*07
$GPRMC,225043.250,A,4730.1533,N,12215.7859,W,1.60,47.69,101120,,,D*46
$GPVTG,47.69,T,,M,1.60,N,2.96,K,D*0E
$GPGGA,225043.500,4730.1534,N,12215.7856,W,2,05,1.76,46.4,M,-17.4,M,0000,0000*6C
$GPGSA,A,3,22,04,03,16,26,,,,,,,,2.03,1.76,0.99*07
$GPRMC,225043.500,A,4730.1534,N,12215.7856,W,1.62,48.46,101120,,,D*4C
$GPVTG,48.46,T,,M,1.62,N,3.00,K,D*00
$GPGGA,225043.750,4730.1535,N,12215.7855,W,2,05,1.76,46.4,M,-17.4,M,0000,0000*69
$GPGSA,A,3,22,04,03,16,26,,,,,,,,2.02,1.76,0.99*06
$GPGSV,3,1,12,04,73,309,16,03,64,182,29,22,41,168,27,26,41,084,16*71
$GPGSV,3,2,12,46,35,189,30,09,34,286,20,16,33,130,21,06,23,302,17*7A
$GPGSV,3,3,12,31,20,053,13,07,08,229,,02,03,339,,01,01,200,*72
$GPRMC,225043.750,A,4730.1535,N,12215.7855,W,1.61,49.05,101120,,,D*4C
$GPVTG,49.05,T,,M,1.61,N,2.99,K,D*04
$GPGGA,225044.000,4730.1535,N,12215.7854,W,2,05,1.76,46.5,M,-17.4,M,0000,0000*6C
$GPGSA,A,3,22,04,03,16,26,,,,,,,,2.02,1.76,0.99*06
$GPRMC,225044.000,A,4730.1535,N,12215.7854,W,1.60,49.34,101120,,,D*4B
$GPVTG,49.34,T,,M,1.60,N,2.96,K,D*08
$GPGGA,225044.250,4730.1535,N,12215.7852,W,2,05,1.76,46.5,M,-17.4,M,0000,0000*6D
$GPGSA,A,3,22,04,03,16,26,,,,,,,,2.03,1.76,0.99*07
$GPRMC,225044.250,A,4730.1535,N,12215.7852,W,1.59,50.16,101120,,,D*48
$GPVTG,50.16,T,,M,1.59,N,2.94,K,D*08
$GPGGA,225044.500,4730.1535,N,12215.7850,W,2,05,1.76,46.5,M,-17.4,M,0000,0000*6D
$GPGSA,A,3,22,04,03,16,26,,,,,,,,2.03,1.76,0.99*07
$GPRMC,225044.500,A,4730.1535,N,12215.7850,W,1.57,51.66,101120,,,D*40
$GPVTG,51.66,T,,M,1.57,N,2.92,K,D*06
$GPGGA,225044.750,4730.1535,N,12215.7849,W,2,05,1.76,46.5,M,-17.4,M,0000,0000*62
$GPGSA,A,3,22,04,03,16,26,,,,,,,,2.03,1.76,0.99*07
$GPRMC,225044.750,A,4730.1535,N,12215.7849,W,1.56,52.75,101120,,,D*4F
$GPVTG,52.75,T,,M,1.56,N,2.89,K,D*0C
$GPGGA,225045.000,4730.1535,N,12215.7848,W,2,05,1.76,46.5,M,-17.4,M,0000,0000*60
$GPGSA,A,3,22,04,03,16,26,,,,,,,,2.02,1.76,0.99*06
$GPGSV,3,1,12,04,73,309,16,03,64,182,29,22,41,168,28,26,41,084,16*7E
$GPGSV,3,2,12,46,35,189,30,09,34,286,20,16,33,130,21,06,23,302,17*7A
$GPGSV,3,3,12,31,20,053,13,07,08,229,,02,03,339,,01,01,200,*72
$GPRMC,225045.000,A,4730.1535,N,12215.7848,W,1.55,53.17,101120,,,D*4B
$GPVTG,53.17,T,,M,1.55,N,2.87,K,D*04
$GPGGA,225045.250,4730.1536,N,12215.7847,W,2,05,1.76,46.6,M,-17.4,M,0000,0000*68
$GPGSA,A,3,22,04,03,16,26,,,,,,,,2.03,1.76,0.99*07
$GPRMC,225045.250,A,4730.1536,N,12215.7847,W,1.55,52.78,101120,,,D*48
$GPVTG,52.78,T,,M,1.55,N,2.87,K,D*0C
$GPGGA,225045.500,4730.1536,N,12215.7846,W,2,05,1.77,46.6,M,-17.4,M,0000,0000*6A
$GPGSA,A,3,22,04,03,16,26,,,,,,,,2.03,1.77,0.99*06
$GPRMC,225045.500,A,4730.1536,N,12215.7846,W,1.53,52.14,101120,,,D*47
$GPVTG,52.14,T,,M,1.53,N,2.84,K,D*03
$GPGGA,225045.750,4730.1538,N,12215.7846,W,2,05,1.76,46.6,M,-17.4,M,0000,0000*62
$GPGSA,A,3,22,04,03,16,26,,,,,,,,2.03,1.76,0.99*07
$GPRMC,225045.750,A,4730.1538,N,12215.7846,W,1.53,50.89,101120,,,D*48
$GPVTG,50.89,T,,M,1.53,N,2.84,K,D*05
$GPGGA,225046.000,4730.1539,N,12215.7845,W,2,05,1.76,46.6,M,-17.4,M,0000,0000*61
$GPGSA,A,3,22,04,03,16,26,,,,,,,,2.02,1.76,0.99*06
$GPRMC,225046.000,A,4730.1539,N,12215.7845,W,1.53,50.07,101120,,,D*4D
$GPVTG,50.07,T,,M,1.53,N,2.83,K,D*04
$GPGGA,225046.250,4730.1540,N,12215.7845,W,2,05,1.76,46.6,M,-17.4,M,0000,0000*68
$GPGSA,A,3,22,04,03,16,26,,,,,,,,2.03,1.76,0.99*07
$GPGSV,3,1,12,04,73,309,16,03,64,182,29,22,41,168,28,26,41,084,16*7E
$GPGSV,3,2,12,46,35,189,30,09,34,286,20,16,33,130,21,06,23,302,17*7A
$GPGSV,3,3,12,31,20,053,13,07,08,229,,02,03,339,,01,01,200,*72
$GPRMC,225046.250,A,4730.1540,N,12215.7845,W,1.53,48.97,101120,,,D*44
$GPVTG,48.97,T,,M,1.53,N,2.83,K,D*04
$GPGGA,225046.500,4730.1542,N,12215.7844,W,2,05,1.76,46.6,M,-17.4,M,0000,0000*69
$GPGSA,A,3,22,04,03,16,26,,,,,,,,2.03,1.76,0.99*07
$GPRMC,225046.500,A,4730.1542,N,12215.7844,W,1.54,47.85,101120,,,D*4E
$GPVTG,47.85,T,,M,1.54,N,2.85,K,D*09
$GPGGA,225046.750,4730.1543,N,12215.7843,W,2,05,1.76,46.6,M,-17.4,M,0000,0000*68
$GPGSA,A,3,22,04,03,16,26,,,,,,,,2.03,1.76,0.99*07
$GPRMC,225046.750,A,4730.1543,N,12215.7843,W,1.55,46.55,101120,,,D*42
$GPVTG,46.55,T,,M,1.55,N,2.88,K,D*09
$GPGGA,225047.000,4730.1544,N,12215.7842,W,2,05,1.76,46.6,M,-17.4,M,0000,0000*6D
$GPGSA,A,3,22,04,03,16,26,,,,,,,,2.03,1.76,0.99*07
$GPRMC,225047.000,A,4730.1544,N,12215.7842,W,1.56,45.70,101120,,,D*40
$GPVTG,45.70,T,,M,1.56,N,2.89,K,D*0F
$GPGGA,225047.250,4730.1545,N,12215.7841,W,2,04,2.81,46.6,M,-17.4,M,0000,0000*62
$GPGSA,A,3,22,04,03,16,,,,,,,,,2.99,2.81,1.00*0A
$GPRMC,225047.250,A,4730.1545,N,12215.7841,W,1.55,45.38,101120,,,D*4A
$GPVTG,45.38,T,,M,1.55,N,2.88,K,D*01
$GPGGA,225047.500,4730.1546,N,12215.7840,W,2,04,2.81,46.6,M,-17.4,M,0000,0000*62
$GPGSA,A,3,22,04,03,16,,,,,,,,,2.98,2.81,1.00*0B
$GPGSV,3,1,12,04,73,309,16,03,64,182,29,22,41,168,28,26,41,084,*79
$GPGSV,3,2,12,46,35,189,30,09,34,286,20,16,33,130,20,06,23,302,17*7B
$GPGSV,3,3,12,31,20,053,13,07,08,229,,02,03,339,,01,01,200,*72
$GPRMC,225047.500,A,4730.1546,N,12215.7840,W,1.57,45.50,101120,,,D*46
$GPVTG,45.50,T,,M,1.57,N,2.91,K,D*05
$GPGGA,225047.750,4730.1546,N,12215.7838,W,2,04,2.81,46.6,M,-17.4,M,0000,0000*6A
$GPGSA,A,3,22,04,03,16,,,,,,,,,2.98,2.81,1.00*0B
$GPRMC,225047.750,A,4730.1546,N,12215.7838,W,1.57,46.84,101120,,,D*44
$GPVTG,46.84,T,,M,1.57,N,2.90,K,D*0E
$GPGGA,225048.000,4730.1547,N,12215.7837,W,2,04,2.82,46.6,M,-17.4,M,0000,0000*6A
$GPGSA,A,3,22,04,03,16,,,,,,,,,2.99,2.82,1.00*09
$GPRMC,225048.000,A,4730.1547,N,12215.7837,W,1.56,47.20,101120,,,D*49
$GPVTG,47.20,T,,M,1.56,N,2.89,K,D*08
$GPGGA,225048.250,4730.1547,N,12215.7836,W,2,04,2.81,46.7,M,-17.4,M,0000,0000*6E
$GPGSA,A,3,22,04,03,16,,,,,,,,,2.98,2.81,1.00*0B
$GPRMC,225048.250,A,4730.1547,N,12215.7836,W,1.53,48.10,101120,,,D*46
$GPVTG,48.10,T,,M,1.53,N,2.84,K,D*0C
$GPGGA,225048.500,4730.1547,N,12215.7835,W,2,04,2.81,46.7,M,-17.4,M,0000,0000*6F
$GPGSA,A,3,22,04,03,16,,,,,,,,,2.98,2.81,1.00*0B
$GPRMC,225048.500,A,4730.1547,N,12215.7835,W,1.51,48.39,101120,,,D*4E
$GPVTG,48.39,T,,M,1.51,N,2.80,K,D*01
$GPGGA,225048.750,4730.1547,N,12215.7835,W,2,04,2.81,46.7,M,-17.4,M,0000,0000*68
$GPGSA,A,3,22,04,03,16,,,,,,,,,2.98,2.81,1.00*0B
$GPGSV,3,1,12,04,73,309,16,03,64,182,29,22,41,168,28,26,41,084,*79
$GPGSV,3,2,12,46,35,189,30,09,34,286,20,16,33,130,20,06,23,302,17*7B
$GPGSV,3,3,12,31,20,053,13,07,08,229,,02,03,339,,01,01,200,*72
$GPRMC,225048.750,A,4730.1547,N,12215.7835,W,1.50,48.08,101120,,,D*4A
$GPVTG,48.08,T,,M,1.50,N,2.78,K,D*05
$GPGGA,225049.000,4730.1548,N,12215.7834,W,2,04,2.81,46.7,M,-17.4,M,0000,0000*65
$GPGSA,A,3,22,04,03,16,,,,,,,,,2.98,2.81,1.00*0B
$GPRMC,225049.000,A,4730.1548,N,12215.7834,W,1.51,47.66,101120,,,D*41
$GPVTG,47.66,T,,M,1.51,N,2.79,K,D*02
$GPGGA,225049.250,4730.1549,N,12215.7833,W,2,04,2.81,46.7,M,-17.4,M,0000,0000*64
$GPGSA,A,3,22,04,03,16,,,,,,,,,2.98,2.81,1.00*0B
$GPRMC,225049.250,A,4730.1549,N,12215.7833,W,1.51,47.17,101120,,,D*46
$GPVTG,47.17,T,,M,1.51,N,2.79,K,D*04
$GPGGA,225049.500,4730.1549,N,12215.7832,W,2,04,2.81,46.7,M,-17.4,M,0000,0000*67
$GPGSA,A,3,22,04,03,16,,,,,,,,,2.98,2.81,1.00*0B
$GPRMC,225049.500,A,4730.1549,N,12215.7832,W,1.50,47.23,101120,,,D*43
$GPVTG,47.23,T,,M,1.50,N,2.79,K,D*02
$GPGGA,225049.750,4730.1549,N,12215.7831,W,2,04,2.81,46.7,M,-17.4,M,0000,0000*63
$GPGSA,A,3,22,04,03,16,,,,,,,,,2.98,2.81,1.00*0B
$GPRMC,225049.750,A,4730.1549,N,12215.7831,W,1.50,47.30,101120,,,D*45
$GPVTG,47.30,T,,M,1.50,N,2.78,K,D*01
$GPGGA,225050.000,4730.1550,N,12215.7831,W,2,04,2.81,46.8,M,-17.4,M,0000,0000*6E
$GPGSA,A,3,22,04,03,16,,,,,,,,,2.98,2.81,1.00*0B
$GPGSV,3,1,12,04,73,309,16,03,64,182,29,22,41,168,28,26,41,084,*79
$GPGSV,3,2,12,46,35,189,30,09,34,286,20,16,33,130,20,06,23,302,16*7A
$GPGSV,3,3,12,31,20,053,13,07,08,229,,02,03,339,,01,01,200,*72
$GPRMC,225050.000,A,4730.1550,N,12215.7831,W,1.49,46.97,101120,,,D*43
$GPVTG,46.97,T,,M,1.49,N,2.77,K,D*0A
$GPGGA,225050.250,4730.1550,N,12215.7831,W,2,04,2.81,46.8,M,-17.4,M,0000,0000*69
$GPGSA,A,3,22,04,03,16,,,,,,,,,2.98,2.81,1.00*0B
$GPRMC,225050.250,A,4730.1550,N,12215.7831,W,1.49,46.17,101120,,,D*4C
$GPVTG,46.17,T,,M,1.49,N,2.76,K,D*03
$GPGGA,225050.500,4730.1551,N,12215.7831,W,2,04,2.81,46.8,M,-17.4,M,0000,0000*6A
$GPGSA,A,3,22,04,03,16,,,,,,,,,2.98,2.81,1.00*0B
$GPRMC,225050.500,A,4730.1551,N,12215.7831,W,1.48,45.51,101120,,,D*4F
$GPVTG,45.51,T,,M,1.48,N,2.74,K,D*01
$GPGGA,225050.750,4730.1551,N,12215.7832,W,2,04,2.81,46.8,M,-17.4,M,0000,0000*6E
$GPGSA,A,3,22,04,03,16,,,,,,,,,2.98,2.81,1.00*0B
$GPRMC,225050.750,A,4730.1551,N,12215.7832,W,1.44,44.89,101120,,,D*43
$GPVTG,44.89,T,,M,1.44,N,2.68,K,D*04
$GPGGA,225051.000,4730.1551,N,12215.7833,W,2,04,2.81,46.8,M,-17.4,M,0000,0000*6C
$GPGSA,A,3,22,04,03,16,,,,,,,,,2.98,2.81,1.00*0B
$GPRMC,225051.000,A,4730.1551,N,12215.7833,W,1.41,44.19,101120,,,D*4D
$GPVTG,44.19,T,,M,1.41,N,2.61,K,D*01
$GPGGA,225051.250,4730.1551,N,12215.7834,W,2,04,2.81,46.9,M,-17.4,M,0000,0000*6D
$GPGSA,A,3,22,04,03,16,,,,,,,,,2.98,2.81,1.00*0B
$GPGSV,3,1,12,04,73,309,16,03,64,182,29,22,41,168,28,26,41,084,*79
$GPGSV,3,2,12,46,35,189,30,09,34,286,21,16,33,130,20,06,23,302,16*7B
$GPGSV,3,3,12,31,20,053,13,07,08,229,,02,03,339,,01,01,200,*72
$GPRMC,225051.250,A,4730.1551,N,12215.7834,W,1.38,43.45,101120,,,D*4D
$GPVTG,43.45,T,,M,1.38,N,2.55,K,D*06
$GPGGA,225051.500,4730.1551,N,12215.7834,W,2,04,2.81,46.9,M,-17.4,M,0000,0000*6F
$GPGSA,A,3,22,04,03,16,,,,,,,,,2.98,2.81,1.00*0B
$GPRMC,225051.500,A,4730.1551,N,12215.7834,W,1.36,42.92,101120,,,D*4A
$GPVTG,42.92,T,,M,1.36,N,2.52,K,D*04
$GPGGA,225051.750,4730.1551,N,12215.7834,W,2,04,2.81,46.9,M,-17.4,M,0000,0000*68
$GPGSA,A,3,22,04,03,16,,,,,,,,,2.98,2.81,1.00*0B
$GPRMC,225051.750,A,4730.1551,N,12215.7834,W,1.34,42.79,101120,,,D*4A
$GPVTG,42.79,T,,M,1.34,N,2.49,K,D*09
$GPGGA,225052.000,4730.1552,N,12215.7834,W,2,04,2.81,46.9,M,-17.4,M,0000,0000*6A
$GPGSA,A,3,22,04,03,16,,,,,,,,,2.98,2.81,1.00*0B
$GPRMC,225052.000,A,4730.1552,N,12215.7834,W,1.34,42.50,101120,,,D*43
$GPVTG,42.50,T,,M,1.34,N,2.48,K,D*03
$GPGGA,225052.250,4730.1553,N,12215.7834,W,2,04,2.81,46.9,M,-17.4,M,0000,0000*6C
$GPGSA,A,3,22,04,03,16,,,,,,,,,2.98,2.81,1.00*0B
$GPRMC,225052.250,A,4730.1553,N,12215.7834,W,1.34,41.59,101120,,,D*4F
$GPVTG,41.59,T,,M,1.34,N,2.48,K,D*09
$GPGGA,225052.500,4730.1553,N,12215.7834,W,2,04,2.81,47.0,M,-17.4,M,0000,0000*66
$GPGSA,A,3,22,04,03,16,,,,,,,,,2.98,2.81,1.00*0B
$GPGSV,3,1,12,04,73,309,16,03,64,182,29,22,41,168,28,26,41,084,*79
$GPGSV,3,2,12,46,35,189,30,09,34,286,21,16,33,130,20,06,23,302,15*78
$GPGSV,3,3,12,31,20,053,13,07,08,229,,02,03,339,,01,01,200,*72
$GPRMC,225052.500,A,4730.1553,N,12215.7834,W,1.33,40.96,101120,,,D*48
$GPVTG,40.96,T,,M,1.33,N,2.46,K,D*02
$GPGGA,225052.750,4730.1554,N,12215.7834,W,2,04,2.81,47.0,M,-17.4,M,0000,0000*66
$GPGSA,A,3,22,04,03,16,,,,,,,,,2.98,2.81,1.00*0B
$GPRMC,225052.750,A,4730.1554,N,12215.7834,W,1.33,39.22,101120,,,D*49
$GPVTG,39.22,T,,M,1.33,N,2.46,K,D*03
$GPGGA,225053.000,4730.1555,N,12215.7834,W,2,04,2.81,47.0,M,-17.4,M,0000,0000*64
$GPGSA,A,3,22,04,03,16,,,,,,,,,2.98,2.81,1.00*0B
$GPRMC,225053.000,A,4730.1555,N,12215.7834,W,1.32,38.88,101120,,,D*4B
$GPVTG,38.88,T,,M,1.32,N,2.44,K,D*01
$GPGGA,225053.250,4730.1555,N,12215.7834,W,2,04,2.81,47.0,M,-17.4,M,0000,0000*63
$GPGSA,A,3,22,04,03,16,,,,,,,,,2.98,2.81,1.00*0B
$GPRMC,225053.250,A,4730.1555,N,12215.7834,W,1.32,38.50,101120,,,D*49
$GPVTG,38.50,T,,M,1.32,N,2.45,K,D*05
$GPGGA,225053.500,4730.1556,N,12215.7833,W,2,04,2.81,47.0,M,-17.4,M,0000,0000*65
$GPGSA,A,3,22,04,03,16,,,,,,,,,2.98,2.81,1.00*0B
$GPRMC,225053.500,A,4730.1556,N,12215.7833,W,1.33,38.68,101120,,,D*45
$GPVTG,38.68,T,,M,1.33,N,2.47,K,D*0D
$GPGGA,225053.750,4730.1557,N,12215.7831,W,2,04,2.81,47.1,M,-17.4,M,0000,0000*60
$GPGSA,A,3,22,04,03,16,,,,,,,,,2.98,2.81,1.00*0B
$GPGSV,3,1,12,04,73,309,16,03,64,182,29,22,41,168,28,26,41,084,*79
$GPGSV,3,2,12,46,35,189,31,09,34,286,21,16,33,130,21,06,23,302,15*78
$GPGSV,3,3,12,31,20,053,12,07,08,229,,02,03,339,,01,01,200,*73
$GPRMC,225053.750,A,4730.1557,N,12215.7831,W,1.34,39.48,101120,,,D*45
$GPVTG,39.48,T,,M,1.34,N,2.48,K,D*06
$GPGGA,225054.000,4730.1558,N,12215.7830,W,2,04,2.81,47.1,M,-17.4,M,0000,0000*6B
$GPGSA,A,3,22,04,03,16,,,,,,,,,2.98,2.81,1.00*0B
$GPRMC,225054.000,A,4730.1558,N,12215.7830,W,1.34,39.76,101120,,,D*43
$GPVTG,39.76,T,,M,1.34,N,2.49,K,D*0A
$GPGGA,225054.250,4730.1558,N,12215.7829,W,2,05,1.76,47.1,M,-17.4,M,0000,0000*6E
$GPGSA,A,3,22,04,03,16,26,,,,,,,,2.02,1.76,0.99*06
$GPRMC,225054.250,A,4730.1558,N,12215.7829,W,1.35,40.45,101120,,,D*43
$GPVTG,40.45,T,,M,1.35,N,2.49,K,D*05
$GPGGA,225054.500,4730.1558,N,12215.7829,W,2,05,1.76,47.1,M,-17.4,M,0000,0000*6C
$GPGSA,A,3,22,04,03,16,26,,,,,,,,2.02,1.76,0.99*06
$GPRMC,225054.500,A,4730.1558,N,12215.7829,W,1.34,40.92,101120,,,D*4A
$GPVTG,40.92,T,,M,1.34,N,2.48,K,D*0F
$GPGGA,225054.750,4730.1559,N,12215.7829,W,2,04,2.81,47.2,M,-17.4,M,0000,0000*63
$GPGSA,A,3,22,04,03,16,,,,,,,,,2.98,2.81,1.00*0B
$GPRMC,225054.750,A,4730.1559,N,12215.7829,W,1.33,41.11,101120,,,D*41
$GPVTG,41.11,T,,M,1.33,N,2.46,K,D*0C
$GPGGA,225055.000,4730.1559,N,12215.7829,W,2,04,2.81,47.2,M,-17.4,M,0000,0000*60
$GPGSA,A,3,22,04,03,16,,,,,,,,,2.98,2.81,1.00*0B
$GPGSV,3,1,12,04,73,309,16,03,64,182,29,22,41,168,28,26,41,084,*79
$GPGSV,3,2,12,46,35,189,31,09,34,286,21,16,33,130,21,06,23,302,12*7F
$GPGSV,3,3,12,31,20,053,,07,08,229,,02,03,339,,01,01,200,*70
$GPRMC,225055.000,A,4730.1559,N,12215.7829,W,1.31,41.14,101120,,,D*45
$GPVTG,41.14,T,,M,1.31,N,2.43,K,D*0E
$GPGGA,225055.250,4730.1559,N,12215.7830,W,2,04,2.81,47.2,M,-17.4,M,0000,0000*6F
$GPGSA,A,3,22,04,03,16,,,,,,,,,2.98,2.81,1.00*0B
$GPRMC,225055.250,A,4730.1559,N,12215.7830,W,1.29,41.31,101120,,,D*44
$GPVTG,41.31,T,,M,1.29,N,2.38,K,D*0C
$GPGGA,225055.500,4730.1560,N,12215.7829,W,2,04,2.81,47.2,M,-17.4,M,0000,0000*6F
$GPGSA,A,3,22,04,03,16,,,,,,,,,2.98,2.81,1.00*0B
$GPRMC,225055.500,A,4730.1560,N,12215.7829,W,1.28,41.01,101120,,,D*46
$GPVTG,41.01,T,,M,1.28,N,2.37,K,D*01
$GPGGA,225055.750,4730.1560,N,12215.7829,W,2,04,2.81,47.2,M,-17.4,M,0000,0000*68
$GPGSA,A,3,22,04,03,16,,,,,,,,,2.98,2.81,1.00*0B
$GPRMC,225055.750,A,4730.1560,N,12215.7829,W,1.28,40.85,101120,,,D*4C
$GPVTG,40.85,T,,M,1.28,N,2.36,K,D*0D
$GPGGA,225056.000,4730.1561,N,12215.7829,W,2,04,2.81,47.3,M,-17.4,M,0000,0000*69
$GPGSA,A,3,22,04,03,16,,,,,,,,,2.98,2.81,1.00*0B
$GPRMC,225056.000,A,4730.1561,N,12215.7829,W,1.28,39.83,101120,,,D*44
$GPVTG,39.83,T,,M,1.28,N,2.36,K,D*05
$GPGGA,225056.250,4730.1562,N,12215.7830,W,2,04,2.81,47.3,M,-17.4,M,0000,0000*65
$GPGSA,A,3,22,04,03,16,,,,,,,,,2.98,2.81,1.00*0B
$GPGSV,3,1,12,04,73,309,16,03,64,182,29,22,41,168,28,26,41,084,*79
$GPGSV,3,2,12,46,35,189,31,09,34,286,22,16,33,130,21,06,23,302,12*7C
$GPGSV,3,3,12,31,20,053,,07,08,229,,02,03,339,,01,01,200,*70
$GPRMC,225056.250,A,4730.1562,N,12215.7830,W,1.28,38.96,101120,,,D*4D
$GPVTG,38.96,T,,M,1.28,N,2.36,K,D*00
$GPGGA,225056.500,4730.1563,N,12215.7830,W,2,04,2.81,47.3,M,-17.4,M,0000,0000*66
$GPGSA,A,3,22,04,03,16,,,,,,,,,2.98,2.81,1.00*0B
$GPRMC,225056.500,A,4730.1563,N,12215.7830,W,1.27,38.43,101120,,,D*49
$GPVTG,38.43,T,,M,1.27,N,2.36,K,D*07
$GPGGA,225056.750,4730.1564,N,12215.7830,W,2,04,2.81,47.4,M,-17.4,M,0000,0000*61
$GPGSA,A,3,22,04,03,16,,,,,,,,,2.98,2.81,1.00*0B
$GPRMC,225056.750,A,4730.1564,N,12215.7830,W,1.26,38.00,101120,,,D*4F
$GPVTG,38.00,T,,M,1.26,N,2.33,K,D*04
$GPGGA,225057.000,4730.1565,N,12215.7831,W,2,04,2.81,47.4,M,-17.4,M,0000,0000*62
$GPGSA,A,3,22,04,03,16,,,,,,,,,2.98,2.81,1.00*0B
$GPRMC,225057.000,A,4730.1565,N,12215.7831,W,1.25,37.58,101120,,,D*4D
$GPVTG,37.58,T,,M,1.25,N,2.31,K,D*07
$GPGGA,225057.250,4730.1565,N,12215.7830,W,2,04,2.81,47.4,M,-17.4,M,0000,0000*64
$GPGSA,A,3,22,04,03,16,,,,,,,,,2.98,2.81,1.00*0B
$GPRMC,225057.250,A,4730.1565,N,12215.7830,W,1.23,38.34,101120,,,D*48
$GPVTG,38.34,T,,M,1.23,N,2.28,K,D*0C
$GPGGA,225057.500,4730.1565,N,12215.7830,W,2,04,2.81,47.4,M,-17.4,M,0000,0000*66
$GPGSA,A,3,22,04,03,16,,,,,,,,,2.98,2.81,1.00*0B
$GPGSV,3,1,12,04,73,309,15,03,64,182,29,22,41,168,28,26,41,084,*7A
$GPGSV,3,2,12,46,35,189,31,09,34,286,21,16,33,130,21,06,23,302,13*7E
$GPGSV,3,3,12,31,20,053,,07,08,229,,02,03,339,,01,01,200,*70
$GPRMC,225057.500,A,4730.1565,N,12215.7830,W,1.21,39.74,101120,,,D*4D
$GPVTG,39.74,T,,M,1.21,N,2.24,K,D*07
$GPGGA,225057.750,4730.1565,N,12215.7830,W,2,04,2.81,47.5,M,-17.4,M,0000,0000*60
$GPGSA,A,3,22,04,03,16,,,,,,,,,2.98,2.81,1.00*0B
$GPRMC,225057.750,A,4730.1565,N,12215.7830,W,1.19,40.43,101120,,,D*4B
$GPVTG,40.43,T,,M,1.19,N,2.21,K,D*03
$GPGGA,225058.000,4730.1566,N,12215.7829,W,2,04,2.81,47.5,M,-17.4,M,0000,0000*66
$GPGSA,A,3,22,04,03,16,,,,,,,,,2.98,2.81,1.00*0B
$GPRMC,225058.000,A,4730.1566,N,12215.7829,W,1.19,40.85,101120,,,D*47
$GPVTG,40.85,T,,M,1.19,N,2.21,K,D*09
$GPGGA,225058.250,4730.1566,N,12215.7829,W,2,04,2.81,47.6,M,-17.4,M,0000,0000*62
$GPGSA,A,3,22,04,03,16,,,,,,,,,2.98,2.81,1.00*0B
$GPRMC,225058.250,A,4730.1566,N,12215.7829,W,1.18,41.11,101120,,,D*4D
$GPVTG,41.11,T,,M,1.18,N,2.19,K,D*0F
$GPGGA,225058.500,4730.1566,N,12215.7829,W,2,04,2.80,47.6,M,-17.4,M,0000,0000*61
$GPGSA,A,3,22,04,03,16,,,,,,,,,2.98,2.80,1.00*0A
$GPRMC,225058.500,A,4730.1566,N,12215.7829,W,1.17,41.49,101120,,,D*4D
$GPVTG,41.49,T,,M,1.17,N,2.17,K,D*03
$GPGGA,225058.750,4730.1566,N,12215.7829,W,2,04,2.81,47.7,M,-17.4,M,0000,0000*66
$GPGSA,A,3,22,04,03,16,,,,,,,,,2.98,2.81,1.00*0B
$GPGSV,3,1,12,04,73,309,16,03,64,182,29,22,41,168,28,26,41,084,*79
$GPGSV,3,2,12,46,35,189,31,09,34,286,21,16,33,130,21,06,23,302,13*7E
$GPGSV,3,3,12,31,20,053,,07,08,229,,02,03,339,,01,01,200,*70
$GPRMC,225058.750,A,4730.1566,N,12215.7829,W,1.17,41.16,101120,,,D*40
$GPVTG,41.16,T,,M,1.17,N,2.16,K,D*08
$GPGGA,225059.000,4730.1566,N,12215.7830,W,2,04,2.81,47.7,M,-17.4,M,0000,0000*6D
$GPGSA,A,3,22,04,03,16,,,,,,,,,2.98,2.81,1.00*0B
$GPRMC,225059.000,A,4730.1566,N,12215.7830,W,1.15,40.65,101120,,,D*4C
$GPVTG,40.65,T,,M,1.15,N,2.14,K,D*0D
$GPGGA,225059.250,4730.1566,N,12215.7831,W,2,04,2.81,47.8,M,-17.4,M,0000,0000*64
$GPGSA,A,3,22,04,03,16,,,,,,,,,2.98,2.81,1.00*0B
$GPRMC,225059.250,A,4730.1566,N,12215.7831,W,1.14,39.31,101120,,,D*44
$GPVTG,39.31,T,,M,1.14,N,2.12,K,D*05
$GPGGA,225059.500,4730.1566,N,12215.7832,W,2,04,2.81,47.8,M,-17.4,M,0000,0000*65
$GPGSA,A,3,22,04,03,16,,,,,,,,,2.98,2.81,1.00*0B
$GPRMC,225059.500,A,4730.1566,N,12215.7832,W,1.15,38.03,101120,,,D*44
$GPVTG,38.03,T,,M,1.15,N,2.12,K,D*04
$GPGGA,225059.750,4730.1567,N,12215.7832,W,2,04,2.81,47.8,M,-17.4,M,0000,0000*63
$GPGSA,A,3,22,04,03,16,,,,,,,,,2.98,2.81,1.00*0B
$GPRMC,225059.750,A,4730.1567,N,12215.7832,W,1.15,37.40,101120,,,D*4A
$GPVTG,37.40,T,,M,1.15,N,2.13,K,D*0D
$GPGGA,225100.000,4730.1566,N,12215.7831,W,2,04,2.80,47.9,M,-17.4,M,0000,0000*6E
$GPGSA,A,3,22,04,03,16,,,,,,,,,2.98,2.80,1.00*0A
$GPGSV,3,1,12,04,73,309,16,03,64,182,28,22,41,168,28,26,41,084,*78
$GPGSV,3,2,12,46,35,189,31,09,34,286,21,16,33,130,21,06,23,302,13*7E
$GPGSV,3,3,12,31,20,053,,07,08,229,,02,03,339,,01,01,200,*70
$GPRMC,225100.000,A,4730.1566,N,12215.7831,W,1.14,38.26,101120,,,D*49
$GPVTG,38.26,T,,M,1.14,N,2.11,K,D*01
$GPGGA,225100.250,4730.1565,N,12215.7830,W,2,04,2.80,47.9,M,-17.4,M,0000,0000*6B
$GPGSA,A,3,22,04,03,16,,,,,,,,,2.98,2.80,1.00*0A
$GPRMC,225100.250,A,4730.1565,N,12215.7830,W,1.11,40.70,101120,,,D*45
$GPVTG,40.70,T,,M,1.11,N,2.05,K,D*0D
$GPGGA,225100.500,4730.1564,N,12215.7829,W,2,04,2.80,47.9,M,-17.4,M,0000,0000*60
$GPGSA,A,3,22,04,03,16,,,,,,,,,2.98,2.80,1.00*0A
$GPRMC,225100.500,A,4730.1564,N,12215.7829,W,1.10,42.75,101120,,,D*48
$GPVTG,42.75,T,,M,1.10,N,2.03,K,D*0D
$GPGGA,225100.750,4730.1564,N,12215.7828,W,2,04,2.80,48.0,M,-17.4,M,0000,0000*60
$GPGSA,A,3,22,04,03,16,,,,,,,,,2.97,2.80,1.00*05
$GPRMC,225100.750,A,4730.1564,N,12215.7828,W,1.09,44.61,101120,,,D*45
$GPVTG,44.61,T,,M,1.09,N,2.02,K,D*07
$GPGGA,225101.000,4730.1563,N,12215.7828,W,2,04,2.81,48.0,M,-17.4,M,0000,0000*65
$GPGSA,A,3,22,04,03,16,,,,,,,,,2.98,2.81,1.00*0B
$GPRMC,225101.000,A,4730.1563,N,12215.7828,W,1.08,45.32,101120,,,D*47
$GPVTG,45.32,T,,M,1.08,N,2.00,K,D*03
$GPGGA,225101.250,4730.1563,N,12215.7828,W,2,04,2.80,48.1,M,-17.4,M,0000,0000*62
$GPGSA,A,3,22,04,03,16,,,,,,,,,2.97,2.80,1.00*05
$GPGSV,3,1,12,04,73,309,16,03,64,182,29,22,41,168,28,26,41,084,*79
$GPGSV,3,2,12,46,35,189,31,09,34,286,21,16,33,130,21,06,23,302,14*79
$GPGSV,3,3,12,31,20,053,,07,08,229,,02,03,339,,01,01,200,*70
$GPRMC,225101.250,A,4730.1563,N,12215.7828,W,1.06,45.65,101120,,,D*4C
$GPVTG,45.65,T,,M,1.06,N,1.97,K,D*02
$GPGGA,225101.500,4730.1562,N,12215.7830,W,2,04,2.80,48.1,M,-17.4,M,0000,0000*68
$GPGSA,A,3,22,04,03,16,,,,,,,,,2.97,2.80,1.00*05
$GPRMC,225101.500,A,4730.1562,N,12215.7830,W,1.03,45.94,101120,,,D*4D
$GPVTG,45.94,T,,M,1.03,N,1.90,K,D*0E
$GPGGA,225101.750,4730.1560,N,12215.7832,W,2,04,2.80,48.2,M,-17.4,M,0000,0000*6C
$GPGSA,A,3,22,04,03,16,,,,,,,,,2.98,2.80,1.00*0A
$GPRMC,225101.750,A,4730.1560,N,12215.7832,W,0.97,47.39,101120,,,D*43
$GPVTG,47.39,T,,M,0.97,N,1.80,K,D*06
$GPGGA,225102.000,4730.1559,N,12215.7832,W,2,04,2.80,48.2,M,-17.4,M,0000,0000*67
$GPGSA,A,3,22,04,03,16,,,,,,,,,2.97,2.80,1.00*05
$GPRMC,225102.000,A,4730.1559,N,12215.7832,W,0.94,49.22,101120,,,D*4F
$GPVTG,49.22,T,,M,0.94,N,1.74,K,D*0A
$GPGGA,225102.250,4730.1558,N,12215.7833,W,2,04,2.80,48.3,M,-17.4,M,0000,0000*61
$GPGSA,A,3,22,04,03,16,,,,,,,,,2.97,2.80,1.00*05
$GPRMC,225102.250,A,4730.1558,N,12215.7833,W,0.92,50.56,101120,,,D*45
$GPVTG,50.56,T,,M,0.92,N,1.70,K,D*03
$GPGGA,225102.500,4730.1558,N,12215.7834,W,2,04,2.80,48.3,M,-17.4,M,0000,0000*64
$GPGSA,A,3,22,04,03,16,,,,,,,,,2.97,2.80,1.00*05
$GPGSV,3,1,12,04,73,309,16,03,64,182,29,22,41,168,28,26,41,084,*79
$GPGSV,3,2,12,46,35,189,31,09,34,286,21,16,33,130,21,06,23,302,14*79
$GPGSV,3,3,12,31,20,053,,07,08,229,,02,03,339,,01,01,200,*70
$GPRMC,225102.500,A,4730.1558,N,12215.7834,W,0.90,50.88,101120,,,D*41
$GPVTG,50.88,T,,M,0.90,N,1.66,K,D*05
$GPGGA,225102.750,4730.1557,N,12215.7834,W,2,04,2.80,48.4,M,-17.4,M,0000,0000*6B
$GPGSA,A,3,22,04,03,16,,,,,,,,,2.97,2.80,1.00*05
$GPRMC,225102.750,A,4730.1557,N,12215.7834,W,0.88,51.60,101120,,,D*47
$GPVTG,51.60,T,,M,0.88,N,1.64,K,D*09
$GPGGA,225103.000,4730.1557,N,12215.7834,W,2,04,2.80,48.4,M,-17.4,M,0000,0000*68
$GPGSA,A,3,22,04,03,16,,,,,,,,,2.97,2.80,1.00*05
$GPRMC,225103.000,A,4730.1557,N,12215.7834,W,0.87,51.13,101120,,,D*4F
$GPVTG,51.13,T,,M,0.87,N,1.62,K,D*04
$GPGGA,225103.250,4730.1556,N,12215.7835,W,2,04,2.80,48.4,M,-17.4,M,0000,0000*6F
$GPGSA,A,3,22,04,03,16,,,,,,,,,2.97,2.80,1.00*05
$GPRMC,225103.250,A,4730.1556,N,12215.7835,W,0.86,51.24,101120,,,D*4D
$GPVTG,51.24,T,,M,0.86,N,1.60,K,D*03
$GPGGA,225103.500,4730.1557,N,12215.7834,W,2,04,2.80,48.5,M,-17.4,M,0000,0000*6C
$GPGSA,A,3,22,04,03,16,,,,,,,,,2.97,2.80,1.00*05
$GPRMC,225103.500,A,4730.1557,N,12215.7834,W,0.87,50.77,101120,,,D*49
$GPVTG,50.77,T,,M,0.87,N,1.62,K,D*07
$GPGGA,225103.750,4730.1557,N,12215.7834,W,2,05,1.76,48.5,M,-17.4,M,0000,0000*60
$GPGSA,A,3,22,04,03,16,26,,,,,,,,2.02,1.76,0.99*06
$GPGSV,3,1,12,04,73,309,13,03,64,182,29,22,41,168,28,26,41,084,20*7E
$GPGSV,3,2,12,46,35,189,31,09,34,286,21,16,33,130,21,06,23,302,13*7E
$GPGSV,3,3,12,31,20,053,,07,08,229,,02,03,339,,01,01,200,*70
$GPRMC,225103.750,A,4730.1557,N,12215.7834,W,0.89,50.71,101120,,,D*46
$GPVTG,50.71,T,,M,0.89,N,1.65,K,D*08
$GPGGA,225104.000,4730.1558,N,12215.7834,W,2,05,1.76,48.5,M,-17.4,M,0000,0000*6A
$GPGSA,A,3,22,04,03,16,26,,,,,,,,2.02,1.76,0.99*06
$GPRMC,225104.000,A,4730.1558,N,12215.7834,W,0.90,51.07,101120,,,D*44
$GPVTG,51.07,T,,M,0.90,N,1.67,K,D*02
