
$GPGSA,A,1,,,,,,,,,,,,,,,*1E
$GPRMC,201448.101,V,,,,,0.00,0.00,121120,,,N*47
$GPVTG,0.00,T,,M,0.00,N,0.00,K,N*32
$GPGGA,201448.351,,,,,0,00,,,M,,M,,*74
$GPGSA,A,1,,,,,,,,,,,,,,,*1E
$GPGSV,1,1,04,22,,,23,01,,,23,31,,,24,25,,,20*7D
$GPRMC,201448.351,V,,,,,0.00,0.00,121120,,,N*40
$GPVTG,0.00,T,,M,0.00,N,0.00,K,N*32
$GPGGA,201448.601,,,,,0,00,,,M,,M,,*74
$GPGSA,A,1,,,,,,,,,,,,,,,*1E
$GPRMC,201448.601,V,,,,,0.00,0.00,121120,,,N*40
$GPVTG,0.00,T,,M,0.00,N,0.00,K,N*32
$GPGGA,201448.851,,,,,0,00,,,M,,M,,*7F
$GPGSA,A,1,,,,,,,,,,,,,,,*1E
$GPRMC,201448.851,V,,,,,0.00,0.00,121120,,,N*4B
$GPVTG,0.00,T,,M,0.00,N,0.00,K,N*32
$GPGGA,201449.101,,,,,0,00,,,M,,M,,*72
$GPGSA,A,1,,,,,,,,,,,,,,,*1E
$GPRMC,201449.101,V,,,,,0.00,0.00,121120,,,N*46
$GPVTG,0.00,T,,M,0.00,N,0.00,K,N*32
$GPGGA,201449.351,,,,,0,00,,,M,,M,,*75
$GPGSA,A,1,,,,,,,,,,,,,,,*1E
$GPRMC,201449.351,V,,,,,0.00,0.00,121120,,,N*41
$GPVTG,0.00,T,,M,0.00,N,0.00,K,N*32
$GPGGA,201449.601,,,,,0,00,,,M,,M,,*75
$GPGSA,A,1,,,,,,,,,,,,,,,*1E
$GPGSV,1,1,04,22,,,24,01,,,24,31,,,24,25,,,20*7D
$GPRMC,201449.601,V,,,,,0.00,0.00,121120,,,N*41
$GPVTG,0.00,T,,M,0.00,N,0.00,K,N*32
$GPGGA,201449.851,,,,,0,00,,,M,,M,,*7E
$GPGSA,A,1,,,,,,,,,,,,,,,*1E
$GPRMC,201449.851,V,,,,,0.00,0.00,121120,,,N*4A
$GPVTG,0.00,T,,M,0.00,N,0.00,K,N*32
$GPGGA,201450.101,,,,,0,00,,,M,,M,,*7A
$GPGSA,A,1,,,,,,,,,,,,,,,*1E
$GPRMC,201450.101,V,,,,,0.00,0.00,121120,,,N*4E
$GPVTG,0.00,T,,M,0.00,N,0.00,K,N*32
$GPGGA,201450.351,,,,,0,00,,,M,,M,,*7D
$GPGSA,A,1,,,,,,,,,,,,,,,*1E
$GPRMC,201450.351,V,,,,,0.00,0.00,121120,,,N*49
$GPVTG,0.00,T,,M,0.00,N,0.00,K,N*32
$GPGGA,201450.601,,,,,0,00,,,M,,M,,*7D
$GPGSA,A,1,,,,,,,,,,,,,,,*1E
$GPRMC,201450.601,V,,,,,0.00,0.00,121120,,,N*49
$GPVTG,0.00,T,,M,0.00,N,0.00,K,N*32
$GPGGA,201450.851,,,,,0,00,,,M,,M,,*76
$GPGSA,A,1,,,,,,,,,,,,,,,*1E
$GPGSV,1,1,04,22,,,24,01,,,24,31,,,24,25,,,20*7D
$GPRMC,201450.851,V,,,,,0.00,0.00,121120,,,N*42
$GPVTG,0.00,T,,M,0.00,N,0.00,K,N*32
$GPGGA,201451.101,,,,,0,00,,,M,,M,,*7B
$GPGSA,A,1,,,,,,,,,,,,,,,*1E
$GPRMC,201451.101,V,,,,,0.00,0.00,121120,,,N*4F
$GPVTG,0.00,T,,M,0.00,N,0.00,K,N*32
$GPGGA,201451.351,,,,,0,00,,,M,,M,,*7C
$GPGSA,A,1,,,,,,,,,,,,,,,*1E
$GPRMC,201451.351,V,,,,,0.00,0.00,121120,,,N*48
$GPVTG,0.00,T,,M,0.00,N,0.00,K,N*32
$GPGGA,201451.601,,,,,0,00,,,M,,M,,*7C
$GPGSA,A,1,,,,,,,,,,,,,,,*1E
$GPRMC,201451.601,V,,,,,0.00,0.00,121120,,,N*48
$GPVTG,0.00,T,,M,0.00,N,0.00,K,N*32
$GPGGA,201451.851,,,,,0,00,,,M,,M,,*77
$GPGSA,A,1,,,,,,,,,,,,,,,*1E
$GPRMC,201451.851,V,,,,,0.00,0.00,121120,,,N*43
$GPVTG,0.00,T,,M,0.00,N,0.00,K,N*32
$GPGGA,201452.101,,,,,0,00,,,M,,M,,*78
$GPGSA,A,1,,,,,,,,,,,,,,,*1E
$GPGSV,1,1,04,22,,,24,01,,,24,31,,,24,25,,,21*7C
$GPRMC,201452.101,V,,,,,0.00,0.00,121120,,,N*4C
$GPVTG,0.00,T,,M,0.00,N,0.00,K,N*32
$GPGGA,201452.351,,,,,0,00,,,M,,M,,*7F
$GPGSA,A,1,,,,,,,,,,,,,,,*1E
$GPRMC,201452.351,V,,,,,0.00,0.00,121120,,,N*4B
$GPVTG,0.00,T,,M,0.00,N,0.00,K,N*32
$GPGGA,201452.601,,,,,0,00,,,M,,M,,*7F
$GPGSA,A,1,,,,,,,,,,,,,,,*1E
$GPRMC,201452.601,V,,,,,0.00,0.00,121120,,,N*4B
$GPVTG,0.00,T,,M,0.00,N,0.00,K,N*32
$GPGGA,201452.851,,,,,0,00,,,M,,M,,*74
$GPGSA,A,1,,,,,,,,,,,,,,,*1E
$GPRMC,201452.851,V,,,,,0.00,0.00,121120,,,N*40
$GPVTG,0.00,T,,M,0.00,N,0.00,K,N*32
$GPGGA,201453.101,,,,,0,00,,,M,,M,,*79
$GPGSA,A,1,,,,,,,,,,,,,,,*1E
$GPRMC,201453.101,V,,,,,0.00,0.00,121120,,,N*4D
$GPVTG,0.00,T,,M,0.00,N,0.00,K,N*32
$GPGGA,201453.351,,,,,0,00,,,M,,M,,*7E
$GPGSA,A,1,,,,,,,,,,,,,,,*1E
$GPGSV,1,1,04,22,,,24,01,,,24,31,,,24,25,,,21*7C
$GPRMC,201453.351,V,,,,,0.00,0.00,121120,,,N*4A
$GPVTG,0.00,T,,M,0.00,N,0.00,K,N*32
$GPGGA,201453.601,,,,,0,00,,,M,,M,,*7E
$GPGSA,A,1,,,,,,,,,,,,,,,*1E
$GPRMC,201453.601,V,,,,,0.00,0.00,121120,,,N*4A
$GPVTG,0.00,T,,M,0.00,N,0.00,K,N*32
$GPGGA,201453.851,,,,,0,00,,,M,,M,,*75
$GPGSA,A,1,,,,,,,,,,,,,,,*1E
$GPRMC,201453.851,V,,,,,0.00,0.00,121120,,,N*41
$GPVTG,0.00,T,,M,0.00,N,0.00,K,N*32
$GPGGA,201454.097,,,,,0,00,,,M,,M,,*70
$GPGSA,A,1,,,,,,,,,,,,,,,*1E
$GPRMC,201454.097,V,,,,,0.00,0.00,121120,,,N*44
$GPVTG,0.00,T,,M,0.00,N,0.00,K,N*32
$GPGGA,201454.347,,,,,0,00,,,M,,M,,*7E
$GPGSA,A,1,,,,,,,,,,,,,,,*1E
$GPRMC,201454.347,V,,,,,0.00,0.00,121120,,,N*4A
$GPVTG,0.00,T,,M,0.00,N,0.00,K,N*32
$GPGGA,201454.597,,,,,0,00,,,M,,M,,*75
$GPGSA,A,1,,,,,,,,,,,,,,,*1E
$GPGSV,1,1,04,22,,,24,01,,,24,31,,,24,25,,,21*7C
$GPRMC,201454.597,V,,,,,0.00,0.00,121120,,,N*41
$GPVTG,0.00,T,,M,0.00,N,0.00,K,N*32
$GPGGA,201454.847,,,,,0,00,,,M,,M,,*75
$GPGSA,A,1,,,,,,,,,,,,,,,*1E
$GPRMC,201454.847,V,,,,,0.00,0.00,121120,,,N*41
$GPVTG,0.00,T,,M,0.00,N,0.00,K,N*32
$GPGGA,201455.097,,,,,0,00,,,M,,M,,*71
$GPGSA,A,1,,,,,,,,,,,,,,,*1E
$GPRMC,201455.097,V,,,,,0.00,0.00,121120,,,N*45
$GPVTG,0.00,T,,M,0.00,N,0.00,K,N*32
$GPGGA,201455.347,,,,,0,00,,,M,,M,,*7F
$GPGSA,A,1,,,,,,,,,,,,,,,*1E
$GPRMC,201455.347,V,,,,,0.00,0.00,121120,,,N*4B
$GPVTG,0.00,T,,M,0.00,N,0.00,K,N*32
$GPGGA,201455.597,,,,,0,00,,,M,,M,,*74
$GPGSA,A,1,,,,,,,,,,,,,,,*1E
$GPRMC,201455.597,V,,,,,0.00,0.00,121120,,,N*40
$GPVTG,0.00,T,,M,0.00,N,0.00,K,N*32
$GPGGA,201455.847,,,,,0,00,,,M,,M,,*74
$GPGSA,A,1,,,,,,,,,,,,,,,*1E
$GPGSV,1,1,04,22,,,24,01,,,23,31,,,24,25,,,20*7A
$GPRMC,201455.847,V,,,,,0.00,0.00,121120,,,N*40
$GPVTG,0.00,T,,M,0.00,N,0.00,K,N*32
$GPGGA,201456.097,,,,,0,00,,,M,,M,,*72
$GPGSA,A,1,,,,,,,,,,,,,,,*1E
$GPRMC,201456.097,V,,,,,0.00,0.00,121120,,,N*46
$GPVTG,0.00,T,,M,0.00,N,0.00,K,N*32
$GPGGA,201456.347,,,,,0,00,,,M,,M,,*7C
$GPGSA,A,1,,,,,,,,,,,,,,,*1E
$GPRMC,201456.347,V,,,,,0.00,0.00,121120,,,N*48
$GPVTG,0.00,T,,M,0.00,N,0.00,K,N*32
$GPGGA,201456.597,,,,,0,00,,,M,,M,,*77
$GPGSA,A,1,,,,,,,,,,,,,,,*1E
$GPRMC,201456.597,V,,,,,0.00,0.00,121120,,,N*43
$GPVTG,0.00,T,,M,0.00,N,0.00,K,N*32
$GPGGA,201456.847,,,,,0,00,,,M,,M,,*77
$GPGSA,A,1,,,,,,,,,,,,,,,*1E
$GPRMC,201456.847,V,,,,,0.00,0.00,121120,,,N*43
$GPVTG,0.00,T,,M,0.00,N,0.00,K,N*32
$GPGGA,201457.097,,,,,0,00,,,M,,M,,*73
$GPGSA,A,1,,,,,,,,,,,,,,,*1E
$GPGSV,1,1,04,22,,,24,01,,,23,31,,,24,25,,,20*7A
$GPRMC,201457.097,V,,,,,0.00,0.00,121120,,,N*47
$GPVTG,0.00,T,,M,0.00,N,0.00,K,N*32
$GPGGA,201457.347,,,,,0,00,,,M,,M,,*7D
$GPGSA,A,1,,,,,,,,,,,,,,,*1E
$GPRMC,201457.347,V,,,,,0.00,0.00,121120,,,N*49
$GPVTG,0.00,T,,M,0.00,N,0.00,K,N*32
$GPGGA,201457.597,,,,,0,00,,,M,,M,,*76
$GPGSA,A,1,,,,,,,,,,,,,,,*1E
$GPRMC,201457.597,V,,,,,0.00,0.00,121120,,,N*42
$GPVTG,0.00,T,,M,0.00,N,0.00,K,N*32
$GPGGA,201457.847,,,,,0,00,,,M,,M,,*76
$GPGSA,A,1,,,,,,,,,,,,,,,*1E
$GPRMC,201457.847,V,,,,,0.00,0.00,121120,,,N*42
$GPVTG,0.00,T,,M,0.00,N,0.00,K,N*32
$GPGGA,201458.097,,,,,0,00,,,M,,M,,*7C
$GPGSA,A,1,,,,,,,,,,,,,,,*1E
$GPRMC,201458.097,V,,,,,0.00,0.00,121120,,,N*48
$GPVTG,0.00,T,,M,0.00,N,0.00,K,N*32
$GPGGA,201458.347,,,,,0,00,,,M,,M,,*72
$GPGSA,A,1,,,,,,,,,,,,,,,*1E
$GPGSV,1,1,04,22,,,24,01,,,23,31,,,24,25,,,20*7A
$GPRMC,201458.347,V,,,,,0.00,0.00,121120,,,N*46
$GPVTG,0.00,T,,M,0.00,N,0.00,K,N*32
$GPGGA,201458.597,,,,,0,00,,,M,,M,,*79
$GPGSA,A,1,,,,,,,,,,,,,,,*1E
$GPRMC,201458.597,V,,,,,0.00,0.00,121120,,,N*4D
$GPVTG,0.00,T,,M,0.00,N,0.00,K,N*32
$GPGGA,201458.847,,,,,0,00,,,M,,M,,*79
$GPGSA,A,1,,,,,,,,,,,,,,,*1E
$GPRMC,201458.847,V,,,,,0.00,0.00,121120,,,N*4D
$GPVTG,0.00,T,,M,0.00,N,0.00,K,N*32
$GPGGA,201459.097,,,,,0,00,,,M,,M,,*7D
$GPGSA,A,1,,,,,,,,,,,,,,,*1E
$GPRMC,201459.097,V,,,,,0.00,0.00,121120,,,N*49
$GPVTG,0.00,T,,M,0.00,N,0.00,K,N*32
$GPGGA,201459.347,,,,,0,00,,,M,,M,,*73
$GPGSA,A,1,,,,,,,,,,,,,,,*1E
$GPRMC,201459.347,V,,,,,0.00,0.00,121120,,,N*47
$GPVTG,0.00,T,,M,0.00,N,0.00,K,N*32
$GPGGA,201459.597,,,,,0,00,,,M,,M,,*78
$GPGSA,A,1,,,,,,,,,,,,,,,*1E
$GPGSV,1,1,04,22,,,24,01,,,23,31,,,24,25,,,21*7B
$GPRMC,201459.597,V,,,,,0.00,0.00,121120,,,N*4C
$GPVTG,0.00,T,,M,0.00,N,0.00,K,N*32
$GPGGA,201459.847,,,,,0,00,,,M,,M,,*78
$GPGSA,A,1,,,,,,,,,,,,,,,*1E
$GPRMC,201459.847,V,,,,,0.00,0.00,121120,,,N*4C
$GPVTG,0.00,T,,M,0.00,N,0.00,K,N*32
$GPGGA,201500.092,,,,,0,00,,,M,,M,,*75
$GPGSA,A,1,,,,,,,,,,,,,,,*1E
$GPRMC,201500.092,V,,,,,0.00,0.00,121120,,,N*41
$GPVTG,0.00,T,,M,0.00,N,0.00,K,N*32
$GPGGA,201500.131,,,,,0,00,,,M,,M,,*7D
$GPGSA,A,1,,,,,,,,,,,,,,,*1E
$GPRMC,201500.131,V,,,,,0.00,0.00,121120,,,N*49
$GPVTG,0.00,T,,M,0.00,N,0.00,K,N*32
$GPGGA,201500.381,,,,,0,00,,,M,,M,,*74
$GPGSA,A,1,,,,,,,,,,,,,,,*1E
$GPRMC,201500.381,V,,,,,0.00,0.00,121120,,,N*40
$GPVTG,0.00,T,,M,0.00,N,0.00,K,N*32
$GPGGA,201500.631,,,,,0,00,,,M,,M,,*7A
$GPGSA,A,1,,,,,,,,,,,,,,,*1E
$GPGSV,1,1,04,22,,,24,01,,,23,31,,,24,25,,,21*7B
$GPRMC,201500.631,V,,,,,0.00,0.00,121120,,,N*4E
$GPVTG,0.00,T,,M,0.00,N,0.00,K,N*32
$GPGGA,201500.881,,,,,0,00,,,M,,M,,*7F
$GPGSA,A,1,,,,,,,,,,,,,,,*1E
$GPRMC,201500.881,V,,,,,0.00,0.00,121120,,,N*4B
$GPVTG,0.00,T,,M,0.00,N,0.00,K,N*32
$GPGGA,201501.131,,,,,0,00,,,M,,M,,*7C
$GPGSA,A,1,,,,,,,,,,,,,,,*1E
$GPRMC,201501.131,V,,,,,0.00,0.00,121120,,,N*48
$GPVTG,0.00,T,,M,0.00,N,0.00,K,N*32
$GPGGA,201501.381,,,,,0,00,,,M,,M,,*75
$GPGSA,A,1,,,,,,,,,,,,,,,*1E
$GPRMC,201501.381,V,,,,,0.00,0.00,121120,,,N*41
$GPVTG,0.00,T,,M,0.00,N,0.00,K,N*32
$GPGGA,201501.631,,,,,0,00,,,M,,M,,*7B
$GPGSA,A,1,,,,,,,,,,,,,,,*1E
$GPRMC,201501.631,V,,,,,0.00,0.00,121120,,,N*4F
$GPVTG,0.00,T,,M,0.00,N,0.00,K,N*32
$GPGGA,201501.881,,,,,0,00,,,M,,M,,*7E
$GPGSA,A,1,,,,,,,,,,,,,,,*1E
$GPGSV,1,1,04,22,,,24,01,,,23,31,,,24,25,,,21*7B
$GPRMC,201501.881,V,,,,,0.00,0.00,121120,,,N*4A
$GPVTG,0.00,T,,M,0.00,N,0.00,K,N*32
$GPGGA,201502.131,,,,,0,00,,,M,,M,,*7F
$GPGSA,A,1,,,,,,,,,,,,,,,*1E
$GPRMC,201502.131,V,,,,,0.00,0.00,121120,,,N*4B
$GPVTG,0.00,T,,M,0.00,N,0.00,K,N*32
$GPGGA,201502.381,,,,,0,00,,,M,,M,,*76
$GPGSA,A,1,,,,,,,,,,,,,,,*1E
$GPRMC,201502.381,V,,,,,0.00,0.00,121120,,,N*42
$GPVTG,0.00,T,,M,0.00,N,0.00,K,N*32
$GPGGA,201502.631,,,,,0,00,,,M,,M,,*78
$GPGSA,A,1,,,,,,,,,,,,,,,*1E
$GPRMC,201502.631,V,,,,,0.00,0.00,121120,,,N*4C
$GPVTG,0.00,T,,M,0.00,N,0.00,K,N*32
$GPGGA,201502.881,,,,,0,00,,,M,,M,,*7D
$GPGSA,A,1,,,,,,,,,,,,,,,*1E
$GPRMC,201502.881,V,,,,,0.00,0.00,121120,,,N*49
$GPVTG,0.00,T,,M,0.00,N,0.00,K,N*32
$GPGGA,201503.131,,,,,0,00,,,M,,M,,*7E
$GPGSA,A,1,,,,,,,,,,,,,,,*1E
$GPGSV,1,1,04,22,,,24,01,,,23,31,,,24,25,,,21*7B
$GPRMC,201503.131,V,,,,,0.00,0.00,121120,,,N*4A
$GPVTG,0.00,T,,M,0.00,N,0.00,K,N*32
$GPGGA,201503.381,,,,,0,00,,,M,,M,,*77
$GPGSA,A,1,,,,,,,,,,,,,,,*1E
$GPRMC,201503.381,V,,,,,0.00,0.00,121120,,,N*43
$GPVTG,0.00,T,,M,0.00,N,0.00,K,N*32
$GPGGA,201503.631,,,,,0,00,,,M,,M,,*79
$GPGSA,A,1,,,,,,,,,,,,,,,*1E
$GPRMC,201503.631,V,,,,,0.00,0.00,121120,,,N*4D
$GPVTG,0.00,T,,M,0.00,N,0.00,K,N*32
$GPGGA,201503.881,,,,,0,00,,,M,,M,,*7C
$GPGSA,A,1,,,,,,,,,,,,,,,*1E
$GPRMC,201503.881,V,,,,,0.00,0.00,121120,,,N*48
$GPVTG,0.00,T,,M,0.00,N,0.00,K,N*32
$GPGGA,201504.131,,,,,0,00,,,M,,M,,*79
$GPGSA,A,1,,,,,,,,,,,,,,,*1E
$GPRMC,201504.131,V,,,,,0.00,0.00,121120,,,N*4D
$GPVTG,0.00,T,,M,0.00,N,0.00,K,N*32
$GPGGA,201504.381,,,,,0,00,,,M,,M,,*70
$GPGSA,A,1,,,,,,,,,,,,,,,*1E
$GPGSV,1,1,04,22,,,24,01,,,23,31,,,24,25,,,21*7B
$GPRMC,201504.381,V,,,,,0.00,0.00,121120,,,N*44
$GPVTG,0.00,T,,M,0.00,N,0.00,K,N*32
$GPGGA,201504.631,,,,,0,00,,,M,,M,,*7E
$GPGSA,A,1,,,,,,,,,,,,,,,*1E
$GPRMC,201504.631,V,,,,,0.00,0.00,121120,,,N*4A
$GPVTG,0.00,T,,M,0.00,N,0.00,K,N*32
$GPGGA,201504.881,,,,,0,00,,,M,,M,,*7B
$GPGSA,A,1,,,,,,,,,,,,,,,*1E
$GPRMC,201504.881,V,,,,,0.00,0.00,121120,,,N*4F
$GPVTG,0.00,T,,M,0.00,N,0.00,K,N*32
$GPGGA,201505.131,,,,,0,00,,,M,,M,,*78
$GPGSA,A,1,,,,,,,,,,,,,,,*1E
$GPRMC,201505.131,V,,,,,0.00,0.00,121120,,,N*4C
$GPVTG,0.00,T,,M,0.00,N,0.00,K,N*32
$GPGGA,201505.381,,,,,0,00,,,M,,M,,*71
$GPGSA,A,1,,,,,,,,,,,,,,,*1E
$GPRMC,201505.381,V,,,,,0.00,0.00,121120,,,N*45
$GPVTG,0.00,T,,M,0.00,N,0.00,K,N*32
$GPGGA,201505.631,,,,,0,00,,,M,,M,,*7F
$GPGSA,A,1,,,,,,,,,,,,,,,*1E
$GPGSV,1,1,04,22,,,23,01,,,22,31,,,24,25,,,20*7C
$GPRMC,201505.631,V,,,,,0.00,0.00,121120,,,N*4B
$GPVTG,0.00,T,,M,0.00,N,0.00,K,N*32
$GPGGA,201505.881,,,,,0,00,,,M,,M,,*7A
$GPGSA,A,1,,,,,,,,,,,,,,,*1E
$GPRMC,201505.881,V,,,,,0.00,0.00,121120,,,N*4E
$GPVTG,0.00,T,,M,0.00,N,0.00,K,N*32
$GPGGA,201506.092,,,,,0,00,,,M,,M,,*73
$GPGSA,A,1,,,,,,,,,,,,,,,*1E
$GPRMC,201506.092,V,,,,,0.00,0.00,121120,,,N*47
$GPVTG,0.00,T,,M,0.00,N,0.00,K,N*32
$GPGGA,201506.131,,,,,0,00,,,M,,M,,*7B
$GPGSA,A,1,,,,,,,,,,,,,,,*1E
$GPRMC,201506.131,V,,,,,0.00,0.00,121120,,,N*4F
$GPVTG,0.00,T,,M,0.00,N,0.00,K,N*32
$GPGGA,201506.381,,,,,0,00,,,M,,M,,*72
$GPGSA,A,1,,,,,,,,,,,,,,,*1E
$GPRMC,201506.381,V,,,,,0.00,0.00,121120,,,N*46
$GPVTG,0.00,T,,M,0.00,N,0.00,K,N*32
$GPGGA,201506.631,,,,,0,00,,,M,,M,,*7C
$GPGSA,A,1,,,,,,,,,,,,,,,*1E
$GPGSV,1,1,04,22,,,23,01,,,23,31,,,24,25,,,20*7D
$GPRMC,201506.631,V,,,,,0.00,0.00,121120,,,N*48
$GPVTG,0.00,T,,M,0.00,N,0.00,K,N*32
$GPGGA,201506.881,,,,,0,00,,,M,,M,,*79
$GPGSA,A,1,,,,,,,,,,,,,,,*1E
$GPRMC,201506.881,V,,,,,0.00,0.00,121120,,,N*4D
$GPVTG,0.00,T,,M,0.00,N,0.00,K,N*32
$GPGGA,201507.131,,,,,0,00,,,M,,M,,*7A
$GPGSA,A,1,,,,,,,,,,,,,,,*1E
$GPRMC,201507.131,V,,,,,0.00,0.00,121120,,,N*4E
$GPVTG,0.00,T,,M,0.00,N,0.00,K,N*32
$GPGGA,201507.381,,,,,0,00,,,M,,M,,*73
$GPGSA,A,1,,,,,,,,,,,,,,,*1E
$GPRMC,201507.381,V,,,,,0.00,0.00,121120,,,N*47
$GPVTG,0.00,T,,M,0.00,N,0.00,K,N*32
$GPGGA,201507.631,,,,,0,00,,,M,,M,,*7D
$GPGSA,A,1,,,,,,,,,,,,,,,*1E
$GPRMC,201507.631,V,,,,,0.00,0.00,121120,,,N*49
$GPVTG,0.00,T,,M,0.00,N,0.00,K,N*32
$GPGGA,201507.881,,,,,0,00,,,M,,M,,*78
$GPGSA,A,1,,,,,,,,,,,,,,,*1E
$GPGSV,1,1,04,22,,,23,01,,,23,31,,,23,25,,,20*7A
$GPRMC,201507.881,V,,,,,0.00,0.00,121120,,,N*4C
$GPVTG,0.00,T,,M,0.00,N,0.00,K,N*32
$GPGGA,201508.131,,,,,0,00,,,M,,M,,*75
$GPGSA,A,1,,,,,,,,,,,,,,,*1E
$GPRMC,201508.131,V,,,,,0.00,0.00,121120,,,N*41
$GPVTG,0.00,T,,M,0.00,N,0.00,K,N*32
$GPGGA,201508.381,,,,,0,00,,,M,,M,,*7C
$GPGSA,A,1,,,,,,,,,,,,,,,*1E
$GPRMC,201508.381,V,,,,,0.00,0.00,121120,,,N*48
$GPVTG,0.00,T,,M,0.00,N,0.00,K,N*32
$GPGGA,201508.631,,,,,0,00,,,M,,M,,*72
$GPGSA,A,1,,,,,,,,,,,,,,,*1E
$GPRMC,201508.631,V,,,,,0.00,0.00,121120,,,N*46
$GPVTG,0.00,T,,M,0.00,N,0.00,K,N*32
$GPGGA,201508.881,,,,,0,00,,,M,,M,,*77
$GPGSA,A,1,,,,,,,,,,,,,,,*1E
$GPRMC,201508.881,V,,,,,0.00,0.00,121120,,,N*43
$GPVTG,0.00,T,,M,0.00,N,0.00,K,N*32
$GPGGA,201509.131,,,,,0,00,,,M,,M,,*74
$GPGSA,A,1,,,,,,,,,,,,,,,*1E
$GPGSV,1,1,04,22,,,23,01,,,23,31,,,23,25,,,21*7B
$GPRMC,201509.131,V,,,,,0.00,0.00,121120,,,N*40
$GPVTG,0.00,T,,M,0.00,N,0.00,K,N*32
$GPGGA,201509.381,,,,,0,00,,,M,,M,,*7D
$GPGSA,A,1,,,,,,,,,,,,,,,*1E
$GPRMC,201509.381,V,,,,,0.00,0.00,121120,,,N*49
$GPVTG,0.00,T,,M,0.00,N,0.00,K,N*32
$GPGGA,201509.631,,,,,0,00,,,M,,M,,*73
$GPGSA,A,1,,,,,,,,,,,,,,,*1E
$GPRMC,201509.631,V,,,,,0.00,0.00,121120,,,N*47
$GPVTG,0.00,T,,M,0.00,N,0.00,K,N*32
$GPGGA,201509.881,,,,,0,00,,,M,,M,,*76
$GPGSA,A,1,,,,,,,,,,,,,,,*1E
$GPRMC,201509.881,V,,,,,0.00,0.00,121120,,,N*42
$GPVTG,0.00,T,,M,0.00,N,0.00,K,N*32
$GPGGA,201510.131,,,,,0,00,,,M,,M,,*7C
$GPGSA,A,1,,,,,,,,,,,,,,,*1E
$GPRMC,201510.131,V,,,,,0.00,0.00,121120,,,N*48
$GPVTG,0.00,T,,M,0.00,N,0.00,K,N*32
$GPGGA,201510.381,,,,,0,00,,,M,,M,,*75
$GPGSA,A,1,,,,,,,,,,,,,,,*1E
$GPGSV,1,1,04,22,,,23,01,,,22,31,,,23,25,,,21*7A
$GPRMC,201510.381,V,,,,,0.00,0.00,121120,,,N*41
$GPVTG,0.00,T,,M,0.00,N,0.00,K,N*32
$GPGGA,201510.631,,,,,0,00,,,M,,M,,*7B
$GPGSA,A,1,,,,,,,,,,,,,,,*1E
$GPRMC,201510.631,V,,,,,0.00,0.00,121120,,,N*4F
$GPVTG,0.00,T,,M,0.00,N,0.00,K,N*32
$GPGGA,201510.881,,,,,0,00,,,M,,M,,*7E
$GPGSA,A,1,,,,,,,,,,,,,,,*1E
$GPRMC,201510.881,V,,,,,0.00,0.00,121120,,,N*4A
$GPVTG,0.00,T,,M,0.00,N,0.00,K,N*32
$GPGGA,201511.131,,,,,0,00,,,M,,M,,*7D
$GPGSA,A,1,,,,,,,,,,,,,,,*1E
$GPRMC,201511.131,V,,,,,0.00,0.00,121120,,,N*49
$GPVTG,0.00,T,,M,0.00,N,0.00,K,N*32
$GPGGA,201511.381,,,,,0,00,,,M,,M,,*74
$GPGSA,A,1,,,,,,,,,,,,,,,*1E
$GPRMC,201511.381,V,,,,,0.00,0.00,121120,,,N*40
$GPVTG,0.00,T,,M,0.00,N,0.00,K,N*32
$GPGGA,201511.631,,,,,0,00,,,M,,M,,*7A
$GPGSA,A,1,,,,,,,,,,,,,,,*1E
$GPGSV,1,1,04,22,,,23,01,,,23,31,,,23,25,,,20*7A
$GPRMC,201511.631,V,,,,,0.00,0.00,121120,,,N*4E
$GPVTG,0.00,T,,M,0.00,N,0.00,K,N*32
$GPGGA,201511.881,,,,,0,00,,,M,,M,,*7F
$GPGSA,A,1,,,,,,,,,,,,,,,*1E
$GPRMC,201511.881,V,,,,,0.00,0.00,121120,,,N*4B
$GPVTG,0.00,T,,M,0.00,N,0.00,K,N*32
$GPGGA,201512.092,,,,,0,00,,,M,,M,,*76
$GPGSA,A,1,,,,,,,,,,,,,,,*1E
$GPRMC,201512.092,V,,,,,0.00,0.00,121120,,,N*42
$GPVTG,0.00,T,,M,0.00,N,0.00,K,N*32
$GPGGA,201512.131,,,,,0,00,,,M,,M,,*7E
$GPGSA,A,1,,,,,,,,,,,,,,,*1E
$GPRMC,201512.131,V,,,,,0.00,0.00,121120,,,N*4A
$GPVTG,0.00,T,,M,0.00,N,0.00,K,N*32
$GPGGA,201512.381,,,,,0,00,,,M,,M,,*77
$GPGSA,A,1,,,,,,,,,,,,,,,*1E
$GPRMC,201512.381,V,,,,,0.00,0.00,121120,,,N*43
$GPVTG,0.00,T,,M,0.00,N,0.00,K,N*32
$GPGGA,201512.631,,,,,0,00,,,M,,M,,*79
$GPGSA,A,1,,,,,,,,,,,,,,,*1E
$GPGSV,1,1,04,22,,,23,01,,,23,31,,,23,25,,,20*7A
$GPRMC,201512.631,V,,,,,0.00,0.00,121120,,,N*4D
$GPVTG,0.00,T,,M,0.00,N,0.00,K,N*32
$GPGGA,201512.881,,,,,0,00,,,M,,M,,*7C
$GPGSA,A,1,,,,,,,,,,,,,,,*1E
$GPRMC,201512.881,V,,,,,0.00,0.00,121120,,,N*48
$GPVTG,0.00,T,,M,0.00,N,0.00,K,N*32
$GPGGA,201513.131,,,,,0,00,,,M,,M,,*7F
$GPGSA,A,1,,,,,,,,,,,,,,,*1E
$GPRMC,201513.131,V,,,,,0.00,0.00,121120,,,N*4B
$GPVTG,0.00,T,,M,0.00,N,0.00,K,N*32
$GPGGA,201513.381,,,,,0,00,,,M,,M,,*76
$GPGSA,A,1,,,,,,,,,,,,,,,*1E
$GPRMC,201513.381,V,,,,,0.00,0.00,121120,,,N*42
$GPVTG,0.00,T,,M,0.00,N,0.00,K,N*32
$GPGGA,201513.631,,,,,0,00,,,M,,M,,*78
$GPGSA,A,1,,,,,,,,,,,,,,,*1E
$GPRMC,201513.631,V,,,,,0.00,0.00,121120,,,N*4C
$GPVTG,0.00,T,,M,0.00,N,0.00,K,N*32
$GPGGA,201513.881,,,,,0,00,,,M,,M,,*7D
$GPGSA,A,1,,,,,,,,,,,,,,,*1E
$GPGSV,1,1,04,22,,,21,01,,,21,31,,,22,25,,,20*7B
$GPRMC,201513.881,V,,,,,0.00,0.00,121120,,,N*49
$GPVTG,0.00,T,,M,0.00,N,0.00,K,N*32
$GPGGA,201514.131,,,,,0,00,,,M,,M,,*78
$GPGSA,A,1,,,,,,,,,,,,,,,*1E
$GPRMC,201514.131,V,,,,,0.00,0.00,121120,,,N*4C
$GPVTG,0.00,T,,M,0.00,N,0.00,K,N*32
$GPGGA,201514.381,,,,,0,00,,,M,,M,,*71
$GPGSA,A,1,,,,,,,,,,,,,,,*1E
$GPRMC,201514.381,V,,,,,0.00,0.00,121120,,,N*45
$GPVTG,0.00,T,,M,0.00,N,0.00,K,N*32
$GPGGA,201514.631,,,,,0,00,,,M,,M,,*7F
$GPGSA,A,1,,,,,,,,,,,,,,,*1E
$GPRMC,201514.631,V,,,,,0.00,0.00,121120,,,N*4B
$GPVTG,0.00,T,,M,0.00,N,0.00,K,N*32
$GPGGA,201514.881,,,,,0,00,,,M,,M,,*7A
$GPGSA,A,1,,,,,,,,,,,,,,,*1E
$GPRMC,201514.881,V,,,,,0.00,0.00,121120,,,N*4E
$GPVTG,0.00,T,,M,0.00,N,0.00,K,N*32
$GPGGA,201515.131,,,,,0,00,,,M,,M,,*79
$GPGSA,A,1,,,,,,,,,,,,,,,*1E
$GPGSV,1,1,04,22,,,19,01,,,21,31,,,22,25,,,18*7B
$GPRMC,201515.131,V,,,,,0.00,0.00,121120,,,N*4D
$GPVTG,0.00,T,,M,0.00,N,0.00,K,N*32
$GPGGA,201515.381,,,,,0,00,,,M,,M,,*70
$GPGSA,A,1,,,,,,,,,,,,,,,*1E
$GPRMC,201515.381,V,,,,,0.00,0.00,121120,,,N*44
$GPVTG,0.00,T,,M,0.00,N,0.00,K,N*32
$GPGGA,201515.631,,,,,0,00,,,M,,M,,*7E
$GPGSA,A,1,,,,,,,,,,,,,,,*1E
$GPRMC,201515.631,V,,,,,0.00,0.00,121120,,,N*4A
$GPVTG,0.00,T,,M,0.00,N,0.00,K,N*32
$GPGGA,201515.881,,,,,0,00,,,M,,M,,*7B
$GPGSA,A,1,,,,,,,,,,,,,,,*1E
$GPRMC,201515.881,V,,,,,0.00,0.00,121120,,,N*4F
$GPVTG,0.00,T,,M,0.00,N,0.00,K,N*32
$GPGGA,201516.131,,,,,0,00,,,M,,M,,*7A
$GPGSA,A,1,,,,,,,,,,,,,,,*1E
$GPRMC,201516.131,V,,,,,0.00,0.00,121120,,,N*4E
$GPVTG,0.00,T,,M,0.00,N,0.00,K,N*32
$GPGGA,201516.381,,,,,0,00,,,M,,M,,*73
$GPGSA,A,1,,,,,,,,,,,,,,,*1E
$GPGSV,1,1,04,22,,,21,01,,,23,31,,,23,25,,,19*72
$GPRMC,201516.381,V,,,,,0.00,0.00,121120,,,N*47
$GPVTG,0.00,T,,M,0.00,N,0.00,K,N*32
$GPGGA,201516.631,,,,,0,00,,,M,,M,,*7D
$GPGSA,A,1,,,,,,,,,,,,,,,*1E
$GPRMC,201516.631,V,,,,,0.00,0.00,121120,,,N*49
$GPVTG,0.00,T,,M,0.00,N,0.00,K,N*32
$GPGGA,201516.881,,,,,0,00,,,M,,M,,*78
$GPGSA,A,1,,,,,,,,,,,,,,,*1E
$GPRMC,201516.881,V,,,,,0.00,0.00,121120,,,N*4C
$GPVTG,0.00,T,,M,0.00,N,0.00,K,N*32
$GPGGA,201517.131,,,,,0,00,,,M,,M,,*7B
$GPGSA,A,1,,,,,,,,,,,,,,,*1E
$GPRMC,201517.131,V,,,,,0.00,0.00,121120,,,N*4F
$GPVTG,0.00,T,,M,0.00,N,0.00,K,N*32
$GPGGA,201517.381,,,,,0,00,,,M,,M,,*72
$GPGSA,A,1,,,,,,,,,,,,,,,*1E
$GPRMC,201517.381,V,,,,,0.00,0.00,121120,,,N*46
$GPVTG,0.00,T,,M,0.00,N,0.00,K,N*32
$GPGGA,201517.631,,,,,0,00,,,M,,M,,*7C
$GPGSA,A,1,,,,,,,,,,,,,,,*1E
$GPGSV,2,1,05,22,,,22,01,,,24,31,,,24,03,,,23*7E
$GPGSV,2,2,05,25,,,20*79
$GPRMC,201517.631,V,,,,,0.00,0.00,121120,,,N*48
$GPVTG,0.00,T,,M,0.00,N,0.00,K,N*32
$GPGGA,201517.881,,,,,0,00,,,M,,M,,*79
$GPGSA,A,1,,,,,,,,,,,,,,,*1E
$GPRMC,201517.881,V,,,,,0.00,0.00,121120,,,N*4D
$GPVTG,0.00,T,,M,0.00,N,0.00,K,N*32
$GPGGA,201518.098,,,,,0,03,,,M,,M,,*75
$GPGSA,A,1,,,,,,,,,,,,,,,*1E
$GPRMC,201518.098,V,,,,,0.13,252.34,121120,,,N*42
$GPVTG,252.34,T,,M,0.13,N,0.23,K,N*33
$GPGGA,201518.348,,,,,0,03,,,M,,M,,*7B
$GPGSA,A,1,,,,,,,,,,,,,,,*1E
$GPRMC,201518.348,V,,,,,0.24,283.42,121120,,,N*45
$GPVTG,283.42,T,,M,0.24,N,0.44,K,N*3B
$GPGGA,201518.750,,,,,0,03,,,M,,M,,*76
$GPGSA,A,1,,,,,,,,,,,,,,,*1E
$GPRMC,201518.750,V,,,,,0.27,294.33,121120,,,N*4B
$GPVTG,294.33,T,,M,0.27,N,0.50,K,N*3D
$GPGGA,201519.000,4739.3041,N,12219.2962,W,1,03,3.68,167.3,M,-17.3,M,,*5C
$GPGSA,A,2,01,31,22,,,,,,,,,,3.82,3.68,1.00*05
$GPGSV,2,1,05,22,64,297,23,31,58,120,24,01,57,250,24,03,,,24*4D
$GPGSV,2,2,05,25,,,21*78
$GPRMC,201519.000,A,4739.3041,N,12219.2962,W,0.24,303.21,121120,,,A*7F
$GPVTG,303.21,T,,M,0.24,N,0.45,K,A*39
$GPGGA,201519.250,4739.3044,N,12219.2962,W,1,03,3.68,167.3,M,-17.3,M,,*5E
$GPGSA,A,2,01,31,22,,,,,,,,,,3.81,3.68,1.00*06
$GPRMC,201519.250,A,4739.3044,N,12219.2962,W,0.16,319.55,121120,,,A*74
$GPVTG,319.55,T,,M,0.16,N,0.30,K,A*32
$GPGGA,201519.500,4739.3044,N,12219.2962,W,1,03,3.68,167.3,M,-17.3,M,,*5C
$GPGSA,A,2,01,31,22,,,,,,,,,,3.81,3.68,1.00*06
$GPRMC,201519.500,A,4739.3044,N,12219.2962,W,0.08,335.92,121120,,,A*7C
$GPVTG,335.92,T,,M,0.08,N,0.15,K,A*3F
$GPGGA,201519.750,4739.3043,N,12219.2962,W,1,03,3.68,167.3,M,-17.3,M,,*5C
$GPGSA,A,2,01,31,22,,,,,,,,,,3.82,3.68,1.00*05
$GPRMC,201519.750,A,4739.3043,N,12219.2962,W,0.03,54.63,121120,,,A*4D
$GPVTG,54.63,T,,M,0.03,N,0.05,K,A*0F
$GPGGA,201520.000,4739.3042,N,12219.2963,W,1,03,3.68,167.3,M,-17.3,M,,*54
$GPGSA,A,2,01,31,22,,,,,,,,,,3.82,3.68,1.00*05
$GPRMC,201520.000,A,4739.3042,N,12219.2963,W,0.07,117.90,121120,,,A*7B
$GPVTG,117.90,T,,M,0.07,N,0.13,K,A*36
$GPGGA,201520.250,4739.3041,N,12219.2963,W,1,03,3.68,167.3,M,-17.3,M,,*50
$GPGSA,A,2,01,31,22,,,,,,,,,,3.81,3.68,1.00*06
$GPGSV,2,1,05,22,64,297,23,31,58,120,24,01,57,250,24,03,,,24*4D
$GPGSV,2,2,05,25,,,20*79
$GPRMC,201520.250,A,4739.3041,N,12219.2963,W,0.13,125.87,121120,,,A*7D
$GPVTG,125.87,T,,M,0.13,N,0.25,K,A*31
$GPGGA,201520.500,4739.3038,N,12219.2964,W,1,03,3.68,167.3,M,-17.3,M,,*5B
$GPGSA,A,2,01,31,22,,,,,,,,,,3.82,3.68,1.00*05
$GPRMC,201520.500,A,4739.3038,N,12219.2964,W,0.16,142.83,121120,,,A*76
$GPVTG,142.83,T,,M,0.16,N,0.29,K,A*3D
$GPGGA,201520.750,4739.3036,N,12219.2964,W,1,03,3.68,167.3,M,-17.3,M,,*52
$GPGSA,A,2,01,31,22,,,,,,,,,,3.82,3.68,1.00*05
$GPRMC,201520.750,A,4739.3036,N,12219.2964,W,0.16,156.03,121120,,,A*72
$GPVTG,156.03,T,,M,0.16,N,0.30,K,A*38
$GPGGA,201521.000,4739.3034,N,12219.2965,W,1,03,3.68,167.3,M,-17.3,M,,*52
$GPGSA,A,2,01,31,22,,,,,,,,,,3.82,3.68,1.00*05
$GPRMC,201521.000,A,4739.3034,N,12219.2965,W,0.20,171.89,121120,,,A*70
$GPVTG,171.89,T,,M,0.20,N,0.38,K,A*32
$GPGGA,201521.250,4739.3032,N,12219.2966,W,1,03,3.68,167.3,M,-17.3,M,,*50
$GPGSA,A,2,01,31,22,,,,,,,,,,3.81,3.68,1.00*06
$GPRMC,201521.250,A,4739.3032,N,12219.2966,W,0.29,175.91,121120,,,A*76
$GPVTG,175.91,T,,M,0.29,N,0.54,K,A*3C
$GPGGA,201521.500,4739.3030,N,12219.2966,W,1,03,3.68,167.3,M,-17.3,M,,*50
$GPGSA,A,2,01,31,22,,,,,,,,,,3.81,3.68,1.00*06
$GPGSV,2,1,05,22,64,297,23,31,58,120,24,01,57,250,24,03,,,23*4A
$GPGSV,2,2,05,25,,,20*79
$GPRMC,201521.500,A,4739.3030,N,12219.2966,W,0.38,174.25,121120,,,A*78
$GPVTG,174.25,T,,M,0.38,N,0.71,K,A*35
$GPGGA,201521.750,4739.3029,N,12219.2967,W,1,03,3.68,167.3,M,-17.3,M,,*5E
$GPGSA,A,2,01,31,22,,,,,,,,,,3.81,3.68,1.00*06
$GPRMC,201521.750,A,4739.3029,N,12219.2967,W,0.40,173.91,121120,,,A*71
$GPVTG,173.91,T,,M,0.40,N,0.74,K,A*37
$GPGGA,201522.000,4739.3028,N,12219.2966,W,1,03,3.68,167.3,M,-17.3,M,,*5F
$GPGSA,A,2,01,31,22,,,,,,,,,,3.81,3.68,1.00*06
$GPRMC,201522.000,A,4739.3028,N,12219.2966,W,0.44,173.10,121120,,,A*7D
$GPVTG,173.10,T,,M,0.44,N,0.82,K,A*33
$GPGGA,201522.250,4739.3027,N,12219.2965,W,1,03,3.68,167.3,M,-17.3,M,,*54
$GPGSA,A,2,01,31,22,,,,,,,,,,3.82,3.68,1.00*05
$GPRMC,201522.250,A,4739.3027,N,12219.2965,W,0.47,173.45,121120,,,A*75
$GPVTG,173.45,T,,M,0.47,N,0.87,K,A*35
$GPGGA,201522.500,4739.3027,N,12219.2965,W,1,03,3.68,167.3,M,-17.3,M,,*56
$GPGSA,A,2,01,31,22,,,,,,,,,,3.82,3.68,1.00*05
$GPRMC,201522.500,A,4739.3027,N,12219.2965,W,0.50,173.93,121120,,,A*7A
$GPVTG,173.93,T,,M,0.50,N,0.92,K,A*3C
$GPGGA,201522.750,4739.3027,N,12219.2963,W,1,03,3.68,167.3,M,-17.3,M,,*57
$GPGSA,A,2,01,31,22,,,,,,,,,,3.81,3.68,1.00*06
$GPGSV,2,1,05,22,64,297,23,31,58,120,24,01,57,250,24,03,,,23*4A
$GPGSV,2,2,05,25,,,20*79
$GPRMC,201522.750,A,4739.3027,N,12219.2963,W,0.52,173.77,121120,,,A*73
$GPVTG,173.77,T,,M,0.52,N,0.96,K,A*30
$GPGGA,201523.000,4739.3027,N,12219.2962,W,1,03,3.68,167.3,M,-17.3,M,,*55
$GPGSA,A,2,01,31,22,,,,,,,,,,3.82,3.68,1.00*05
$GPRMC,201523.000,A,4739.3027,N,12219.2962,W,0.53,173.25,121120,,,A*77
$GPVTG,173.25,T,,M,0.53,N,0.98,K,A*38
$GPGGA,201523.250,4739.3027,N,12219.2961,W,1,03,3.68,167.3,M,-17.3,M,,*51
$GPGSA,A,2,01,31,22,,,,,,,,,,3.81,3.68,1.00*06
$GPRMC,201523.250,A,4739.3027,N,12219.2961,W,0.55,171.78,121120,,,A*7F
$GPVTG,171.78,T,,M,0.55,N,1.01,K,A*35
$GPGGA,201523.500,4739.3026,N,12219.2960,W,1,03,3.68,167.3,M,-17.3,M,,*53
$GPGSA,A,2,01,31,22,,,,,,,,,,3.82,3.68,1.00*05
$GPRMC,201523.500,A,4739.3026,N,12219.2960,W,0.55,169.29,121120,,,A*70
$GPVTG,169.29,T,,M,0.55,N,1.02,K,A*3B
$GPGGA,201523.750,4739.3026,N,12219.2959,W,1,03,3.68,167.3,M,-17.3,M,,*5E
$GPGSA,A,2,01,31,22,,,,,,,,,,3.81,3.68,1.00*06
$GPRMC,201523.750,A,4739.3026,N,12219.2959,W,0.56,167.72,121120,,,A*7E
$GPVTG,167.72,T,,M,0.56,N,1.03,K,A*39
$GPGGA,201524.000,4739.3026,N,12219.2958,W,1,03,3.68,167.3,M,-17.3,M,,*5A
$GPGSA,A,2,01,31,22,,,,,,,,,,3.81,3.68,1.00*06
$GPGSV,2,1,05,22,64,297,23,31,58,120,24,01,57,250,24,03,,,23*4A
$GPGSV,2,2,05,25,,,20*79
$GPRMC,201524.000,A,4739.3026,N,12219.2958,W,0.57,165.15,121120,,,A*78
$GPVTG,165.15,T,,M,0.57,N,1.06,K,A*3E
$GPGGA,201524.093,4739.3026,N,12219.2958,W,1,03,3.68,167.3,M,-17.3,M,,*50
$GPGSA,A,2,01,31,22,,,,,,,,,,3.81,3.68,1.00*06
$GPRMC,201524.093,A,4739.3026,N,12219.2958,W,0.58,164.77,121120,,,A*78
$GPVTG,164.77,T,,M,0.58,N,1.07,K,A*35
$GPGGA,201524.500,4739.3025,N,12219.2958,W,1,03,3.68,167.3,M,-17.3,M,,*5C
$GPGSA,A,2,01,31,22,,,,,,,,,,3.81,3.68,1.00*06
$GPRMC,201524.500,A,4739.3025,N,12219.2958,W,0.60,167.82,121120,,,A*76
$GPVTG,167.82,T,,M,0.60,N,1.11,K,A*30
$GPGGA,201524.750,4739.3025,N,12219.2958,W,1,03,3.68,167.3,M,-17.3,M,,*5B
$GPGSA,A,2,01,31,22,,,,,,,,,,3.81,3.68,1.00*06
$GPRMC,201524.750,A,4739.3025,N,12219.2958,W,0.61,168.80,121120,,,A*7D
$GPVTG,168.80,T,,M,0.61,N,1.13,K,A*3E
$GPGGA,201525.000,4739.3024,N,12219.2957,W,1,03,3.68,167.3,M,-17.3,M,,*56
$GPGSA,A,2,01,31,22,,,,,,,,,,3.81,3.68,1.00*06
$GPRMC,201525.000,A,4739.3024,N,12219.2957,W,0.63,170.26,121120,,,A*77
$GPVTG,170.26,T,,M,0.63,N,1.17,K,A*3D
$GPGGA,201525.250,4739.3023,N,12219.2958,W,1,03,3.68,167.3,M,-17.3,M,,*59
$GPGSA,A,2,01,31,22,,,,,,,,,,3.81,3.68,1.00*06
$GPGSV,2,1,05,22,64,297,23,31,58,120,24,01,57,250,24,03,,,24*4D
$GPGSV,2,2,05,25,,,20*79
$GPRMC,201525.250,A,4739.3023,N,12219.2958,W,0.68,174.65,121120,,,A*70
$GPVTG,174.65,T,,M,0.68,N,1.26,K,A*37
$GPGGA,201525.500,4739.3021,N,12219.2958,W,1,03,3.68,167.3,M,-17.3,M,,*59
$GPGSA,A,2,01,31,22,,,,,,,,,,3.81,3.68,1.00*06
$GPRMC,201525.500,A,4739.3021,N,12219.2958,W,0.74,178.09,121120,,,A*7B
$GPVTG,178.09,T,,M,0.74,N,1.37,K,A*3C
$GPGGA,201525.750,4739.3021,N,12219.2958,W,1,03,3.68,167.3,M,-17.3,M,,*5E
$GPGSA,A,2,01,31,22,,,,,,,,,,3.81,3.68,1.00*06
$GPRMC,201525.750,A,4739.3021,N,12219.2958,W,0.75,178.41,121120,,,A*71
$GPVTG,178.41,T,,M,0.75,N,1.38,K,A*3E
$GPGGA,201526.000,4739.3020,N,12219.2958,W,1,03,3.68,167.3,M,-17.3,M,,*5E
$GPGSA,A,2,01,31,22,,,,,,,,,,3.81,3.68,1.00*06
$GPRMC,201526.000,A,4739.3020,N,12219.2958,W,0.76,178.07,121120,,,A*70
$GPVTG,178.07,T,,M,0.76,N,1.41,K,A*31
$GPGGA,201526.250,4739.3018,N,12219.2957,W,1,03,3.68,167.3,M,-17.3,M,,*5D
$GPGSA,A,2,01,31,22,,,,,,,,,,3.81,3.68,1.00*06
$GPRMC,201526.250,A,4739.3018,N,12219.2957,W,0.79,175.26,121120,,,A*72
$GPVTG,175.26,T,,M,0.79,N,1.45,K,A*34
$GPGGA,201526.500,4739.3017,N,12219.2957,W,1,03,3.68,167.3,M,-17.3,M,,*50
$GPGSA,A,2,01,31,22,,,,,,,,,,3.81,3.68,1.00*06
$GPGSV,2,1,05,22,64,297,23,31,58,120,24,01,57,250,24,03,,,24*4D
$GPGSV,2,2,05,25,,,20*79
$GPRMC,201526.500,A,4739.3017,N,12219.2957,W,0.84,173.40,121120,,,A*7B
$GPVTG,173.40,T,,M,0.84,N,1.55,K,A*31
$GPGGA,201526.750,4739.3016,N,12219.2957,W,1,03,3.68,167.3,M,-17.3,M,,*56
$GPGSA,A,2,01,31,22,,,,,,,,,,3.81,3.68,1.00*06
$GPRMC,201526.750,A,4739.3016,N,12219.2957,W,0.85,172.95,121120,,,A*75
$GPVTG,172.95,T,,M,0.85,N,1.58,K,A*34
$GPGGA,201527.000,4739.3014,N,12219.2956,W,1,03,3.68,167.3,M,-17.3,M,,*56
$GPGSA,A,2,01,31,22,,,,,,,,,,3.81,3.68,1.00*06
$GPRMC,201527.000,A,4739.3014,N,12219.2956,W,0.87,171.80,121120,,,A*70
$GPVTG,171.80,T,,M,0.87,N,1.62,K,A*38
$GPGGA,201527.250,4739.3013,N,12219.2955,W,1,03,3.68,167.3,M,-17.3,M,,*55
$GPGSA,A,2,01,31,22,,,,,,,,,,3.81,3.68,1.00*06
$GPRMC,201527.250,A,4739.3013,N,12219.2955,W,0.89,168.97,121120,,,A*73
$GPVTG,168.97,T,,M,0.89,N,1.65,K,A*3F
$GPGGA,201527.500,4739.3011,N,12219.2955,W,1,03,3.68,167.3,M,-17.3,M,,*55
$GPGSA,A,2,01,31,22,,,,,,,,,,3.81,3.68,1.00*06
$GPRMC,201527.500,A,4739.3011,N,12219.2955,W,0.99,170.16,121120,,,A*72
$GPVTG,170.16,T,,M,0.99,N,1.83,K,A*36
$GPGGA,201527.750,4739.3010,N,12219.2955,W,1,03,3.68,167.3,M,-17.3,M,,*53
$GPGSA,A,2,01,31,22,,,,,,,,,,3.81,3.68,1.00*06
$GPGSV,2,1,05,22,64,297,23,31,58,120,24,01,57,250,25,03,,,24*4C
$GPGSV,2,2,05,25,,,21*78
$GPRMC,201527.750,A,4739.3010,N,12219.2955,W,1.00,169.88,121120,,,A*7A
$GPVTG,169.88,T,,M,1.00,N,1.86,K,A*3D
$GPGGA,201528.000,4739.3010,N,12219.2954,W,1,03,3.68,167.3,M,-17.3,M,,*5F
$GPGSA,A,2,01,31,22,,,,,,,,,,3.81,3.68,1.00*06
$GPRMC,201528.000,A,4739.3010,N,12219.2954,W,1.00,168.55,121120,,,A*77
$GPVTG,168.55,T,,M,1.00,N,1.85,K,A*3F
$GPGGA,201528.250,4739.3008,N,12219.2953,W,1,03,3.68,167.3,M,-17.3,M,,*56
$GPGSA,A,2,01,31,22,,,,,,,,,,3.81,3.68,1.00*06
$GPRMC,201528.250,A,4739.3008,N,12219.2953,W,0.98,167.51,121120,,,A*75
$GPVTG,167.51,T,,M,0.98,N,1.81,K,A*30
$GPGGA,201528.500,4739.3008,N,12219.2952,W,1,03,3.68,167.3,M,-17.3,M,,*55
$GPGSA,A,2,01,31,22,,,,,,,,,,3.81,3.68,1.00*06
$GPRMC,201528.500,A,4739.3008,N,12219.2952,W,0.96,165.17,121120,,,A*78
$GPVTG,165.17,T,,M,0.96,N,1.78,K,A*38
$GPGGA,201528.750,4739.3006,N,12219.2952,W,1,03,3.68,167.3,M,-17.3,M,,*5C
$GPGSA,A,2,01,31,22,,,,,,,,,,3.81,3.68,1.00*06
$GPRMC,201528.750,A,4739.3006,N,12219.2952,W,0.96,164.82,121120,,,A*7C
$GPVTG,164.82,T,,M,0.96,N,1.77,K,A*3A
$GPGGA,201529.000,4739.3006,N,12219.2951,W,1,03,3.68,167.3,M,-17.3,M,,*5C
$GPGSA,A,2,01,31,22,,,,,,,,,,3.81,3.68,1.00*06
$GPGSV,2,1,05,22,64,297,24,31,58,120,24,01,57,250,24,03,,,24*4A
$GPGSV,2,2,05,25,,,21*78
$GPRMC,201529.000,A,4739.3006,N,12219.2951,W,0.92,163.34,121120,,,A*72
$GPVTG,163.34,T,,M,0.92,N,1.71,K,A*32
$GPGGA,201529.250,4739.3005,N,12219.2950,W,1,03,3.68,167.3,M,-17.3,M,,*59
$GPGSA,A,2,01,31,22,,,,,,,,,,3.81,3.68,1.00*06
$GPRMC,201529.250,A,4739.3005,N,12219.2950,W,0.88,160.99,121120,,,A*78
$GPVTG,160.99,T,,M,0.88,N,1.63,K,A*3E
$GPGGA,201529.500,4739.3005,N,12219.2949,W,1,03,3.67,167.3,M,-17.3,M,,*5C
$GPGSA,A,2,01,31,22,,,,,,,,,,3.81,3.67,1.00*09
$GPRMC,201529.500,A,4739.3005,N,12219.2949,W,0.83,159.41,121120,,,A*76
$GPVTG,159.41,T,,M,0.83,N,1.55,K,A*3F
$GPGGA,201529.750,4739.3005,N,12219.2948,W,1,03,3.68,167.3,M,-17.3,M,,*55
$GPGSA,A,2,01,31,22,,,,,,,,,,3.81,3.68,1.00*06
$GPRMC,201529.750,A,4739.3005,N,12219.2948,W,0.82,158.61,121120,,,A*72
$GPVTG,158.61,T,,M,0.82,N,1.52,K,A*3A
$GPGGA,201530.000,4739.3004,N,12219.2947,W,1,03,3.68,167.3,M,-17.3,M,,*51
$GPGSA,A,2,01,31,22,,,,,,,,,,3.81,3.68,1.00*06
$GPRMC,201530.000,A,4739.3004,N,12219.2947,W,0.80,157.80,121120,,,A*74
$GPVTG,157.80,T,,M,0.80,N,1.49,K,A*32
$GPGGA,201530.089,4739.3004,N,12219.2947,W,1,03,3.68,167.3,M,-17.3,M,,*50
$GPGSA,A,2,01,31,22,,,,,,,,,,3.81,3.68,1.00*06
$GPGSV,2,1,05,22,64,297,24,31,58,120,24,01,57,250,24,03,,,24*4A
$GPGSV,2,2,05,25,,,20*79
$GPRMC,201530.089,A,4739.3004,N,12219.2947,W,0.78,156.15,121120,,,A*7F
$GPVTG,156.15,T,,M,0.78,N,1.45,K,A*34
$GPGGA,201530.149,4739.3004,N,12219.2946,W,1,03,3.68,167.3,M,-17.3,M,,*5C
$GPGSA,A,2,01,31,22,,,,,,,,,,3.81,3.68,1.00*06
$GPRMC,201530.149,A,4739.3004,N,12219.2946,W,0.75,154.26,121120,,,A*7C
$GPVTG,154.26,T,,M,0.75,N,1.40,K,A*3E
$GPGGA,201530.500,4739.3004,N,12219.2945,W,1,03,3.67,167.3,M,-17.3,M,,*59
$GPGSA,A,2,01,31,22,,,,,,,,,,3.81,3.67,1.00*09
$GPRMC,201530.500,A,4739.3004,N,12219.2945,W,0.72,151.82,121120,,,A*7A
$GPVTG,151.82,T,,M,0.72,N,1.33,K,A*36
$GPGGA,201530.750,4739.3004,N,12219.2944,W,1,03,3.67,167.3,M,-17.3,M,,*5F
$GPGSA,A,2,01,31,22,,,,,,,,,,3.81,3.67,1.00*09
$GPRMC,201530.750,A,4739.3004,N,12219.2944,W,0.71,151.08,121120,,,A*7D
$GPVTG,151.08,T,,M,0.71,N,1.32,K,A*36
$GPGGA,201531.000,4739.3004,N,12219.2943,W,1,03,3.68,167.3,M,-17.3,M,,*54
$GPGSA,A,2,01,31,22,,,,,,,,,,3.81,3.68,1.00*06
$GPRMC,201531.000,A,4739.3004,N,12219.2943,W,0.70,150.35,121120,,,A*77
$GPVTG,150.35,T,,M,0.70,N,1.29,K,A*32
$GPGGA,201531.250,4739.3005,N,12219.2942,W,1,03,3.67,167.3,M,-17.3,M,,*5C
$GPGSA,A,2,01,31,22,,,,,,,,,,3.81,3.67,1.00*09
$GPGSV,2,1,05,22,64,297,24,31,58,120,24,01,57,250,24,03,,,24*4A
$GPGSV,2,2,05,25,,,20*79
$GPRMC,201531.250,A,4739.3005,N,12219.2942,W,0.68,149.73,121120,,,A*73
$GPVTG,149.73,T,,M,0.68,N,1.25,K,A*3D
$GPGGA,201531.500,4739.3005,N,12219.2941,W,1,03,3.67,167.3,M,-17.3,M,,*5D
$GPGSA,A,2,01,31,22,,,,,,,,,,3.81,3.67,1.00*09
$GPRMC,201531.500,A,4739.3005,N,12219.2941,W,0.67,148.31,121120,,,A*7A
$GPVTG,148.31,T,,M,0.67,N,1.23,K,A*33
$GPGGA,201531.750,4739.3005,N,12219.2940,W,1,03,3.68,167.3,M,-17.3,M,,*54
$GPGSA,A,2,01,31,22,,,,,,,,,,3.81,3.68,1.00*06
$GPRMC,201531.750,A,4739.3005,N,12219.2940,W,0.66,147.84,121120,,,A*7C
$GPVTG,147.84,T,,M,0.66,N,1.22,K,A*32
$GPGGA,201532.000,4739.3006,N,12219.2939,W,1,03,3.68,167.3,M,-17.3,M,,*58
$GPGSA,A,2,01,31,22,,,,,,,,,,3.81,3.68,1.00*06
$GPRMC,201532.000,A,4739.3006,N,12219.2939,W,0.65,147.10,121120,,,A*7E
$GPVTG,147.10,T,,M,0.65,N,1.21,K,A*3F
$GPGGA,201532.250,4739.3006,N,12219.2938,W,1,03,3.67,167.3,M,-17.3,M,,*51
$GPGSA,A,2,01,31,22,,,,,,,,,,3.81,3.67,1.00*09
$GPRMC,201532.250,A,4739.3006,N,12219.2938,W,0.64,146.11,121120,,,A*79
$GPVTG,146.11,T,,M,0.64,N,1.18,K,A*34
$GPGGA,201532.500,4739.3006,N,12219.2937,W,1,03,3.67,167.3,M,-17.3,M,,*5C
$GPGSA,A,2,01,31,22,,,,,,,,,,3.81,3.67,1.00*09
$GPGSV,2,1,05,22,64,297,24,31,58,120,24,01,57,250,24,03,,,24*4A
$GPGSV,2,2,05,25,,,21*78
$GPRMC,201532.500,A,4739.3006,N,12219.2937,W,0.62,147.03,121120,,,A*70
$GPVTG,147.03,T,,M,0.62,N,1.15,K,A*3D
$GPGGA,201532.750,4739.3007,N,12219.2937,W,1,03,3.67,167.3,M,-17.3,M,,*5A
$GPGSA,A,2,01,31,22,,,,,,,,,,3.81,3.67,1.00*09
$GPRMC,201532.750,A,4739.3007,N,12219.2937,W,0.62,147.77,121120,,,A*75
$GPVTG,147.77,T,,M,0.62,N,1.15,K,A*3E
$GPGGA,201533.000,4739.3006,N,12219.2937,W,1,03,3.67,167.3,M,-17.3,M,,*58
$GPGSA,A,2,01,31,22,,,,,,,,,,3.81,3.67,1.00*09
$GPRMC,201533.000,A,4739.3006,N,12219.2937,W,0.62,150.18,121120,,,A*78
$GPVTG,150.18,T,,M,0.62,N,1.15,K,A*31
$GPGGA,201533.250,4739.3006,N,12219.2937,W,1,03,3.67,167.3,M,-17.3,M,,*5F
$GPGSA,A,2,01,31,22,,,,,,,,,,3.80,3.67,1.00*08
$GPRMC,201533.250,A,4739.3006,N,12219.2937,W,0.61,152.83,121120,,,A*7C
$GPVTG,152.83,T,,M,0.61,N,1.14,K,A*33
$GPGGA,201533.500,4739.3005,N,12219.2937,W,1,03,3.67,167.3,M,-17.3,M,,*5E
$GPGSA,A,2,01,31,22,,,,,,,,,,3.81,3.67,1.00*09
$GPRMC,201533.500,A,4739.3005,N,12219.2937,W,0.60,154.63,121120,,,A*74
$GPVTG,154.63,T,,M,0.60,N,1.11,K,A*3F
$GPGGA,201533.750,4739.3005,N,12219.2937,W,1,03,3.67,167.3,M,-17.3,M,,*59
$GPGSA,A,2,01,31,22,,,,,,,,,,3.81,3.67,1.00*09
$GPGSV,2,1,05,22,64,297,23,31,58,120,23,01,57,250,22,03,,,23*4B
$GPGSV,2,2,05,25,,,21*78
$GPRMC,201533.750,A,4739.3005,N,12219.2937,W,0.58,156.84,121120,,,A*73
$GPVTG,156.84,T,,M,0.58,N,1.08,K,A*37
$GPGGA,201534.000,4739.3005,N,12219.2937,W,1,03,3.67,167.3,M,-17.3,M,,*5C
$GPGSA,A,2,01,31,22,,,,,,,,,,3.80,3.67,1.00*08
$GPRMC,201534.000,A,4739.3005,N,12219.2937,W,0.58,157.60,121120,,,A*7D
$GPVTG,157.60,T,,M,0.58,N,1.07,K,A*33
$GPGGA,201534.250,4739.3005,N,12219.2937,W,1,03,3.67,167.3,M,-17.3,M,,*5B
$GPGSA,A,2,01,31,22,,,,,,,,,,3.81,3.67,1.00*09
$GPRMC,201534.250,A,4739.3005,N,12219.2937,W,0.57,158.34,121120,,,A*7B
$GPVTG,158.34,T,,M,0.57,N,1.06,K,A*33
$GPGGA,201534.500,4739.3004,N,12219.2937,W,1,03,3.67,167.3,M,-17.3,M,,*58
$GPGSA,A,2,01,31,22,,,,,,,,,,3.81,3.67,1.00*09
$GPRMC,201534.500,A,4739.3004,N,12219.2937,W,0.56,159.32,121120,,,A*7E
$GPVTG,159.32,T,,M,0.56,N,1.04,K,A*37
$GPGGA,201534.750,4739.3004,N,12219.2936,W,1,03,3.67,167.3,M,-17.3,M,,*5E
$GPGSA,A,2,01,31,22,,,,,,,,,,3.81,3.67,1.00*09
$GPRMC,201534.750,A,4739.3004,N,12219.2936,W,0.57,160.65,121120,,,A*71
$GPVTG,160.65,T,,M,0.57,N,1.05,K,A*3F
$GPGGA,201535.000,4739.3003,N,12219.2937,W,1,03,3.67,167.3,M,-17.3,M,,*5B
$GPGSA,A,2,01,31,22,,,,,,,,,,3.81,3.67,1.00*09
$GPGSV,2,1,05,22,64,297,22,31,58,120,22,01,57,250,22,03,,,23*4B
$GPGSV,2,2,05,25,,,21*78
$GPRMC,201535.000,A,4739.3003,N,12219.2937,W,0.57,162.78,121120,,,A*7A
$GPVTG,162.78,T,,M,0.57,N,1.06,K,A*32
$GPGGA,201535.250,4739.3003,N,12219.2937,W,1,03,3.67,167.3,M,-17.3,M,,*5C
$GPGSA,A,2,01,31,22,,,,,,,,,,3.81,3.67,1.00*09
$GPRMC,201535.250,A,4739.3003,N,12219.2937,W,0.58,164.32,121120,,,A*7A
$GPVTG,164.32,T,,M,0.58,N,1.07,K,A*34
$GPGGA,201535.500,4739.3003,N,12219.2936,W,1,03,3.67,167.3,M,-17.3,M,,*5F
$GPGSA,A,2,01,31,22,,,,,,,,,,3.80,3.67,1.00*08
$GPRMC,201535.500,A,4739.3003,N,12219.2936,W,0.59,166.13,121120,,,A*79
$GPVTG,166.13,T,,M,0.59,N,1.09,K,A*3A
$GPGGA,201535.750,4739.3002,N,12219.2936,W,1,03,3.67,167.3,M,-17.3,M,,*59
$GPGSA,A,2,01,31,22,,,,,,,,,,3.81,3.67,1.00*09
$GPRMC,201535.750,A,4739.3002,N,12219.2936,W,0.61,168.62,121120,,,A*7C
$GPVTG,168.62,T,,M,0.61,N,1.12,K,A*33
$GPGGA,201536.000,4739.3002,N,12219.2937,W,1,03,3.67,167.3,M,-17.3,M,,*59
$GPGSA,A,2,01,31,22,,,,,,,,,,3.81,3.67,1.00*09
$GPRMC,201536.000,A,4739.3002,N,12219.2937,W,0.60,170.24,121120,,,A*76
$GPVTG,170.24,T,,M,0.60,N,1.12,K,A*39
$GPGGA,201536.088,4739.3002,N,12219.2937,W,1,03,3.68,167.3,M,-17.3,M,,*56
$GPGSA,A,2,01,31,22,,,,,,,,,,3.81,3.68,1.00*06
$GPGSV,2,1,05,22,64,297,23,31,58,120,23,01,57,249,22,25,14,063,21*75
$GPGSV,2,2,05,03,,,23*7E
$GPRMC,201536.088,A,4739.3002,N,12219.2937,W,0.60,171.32,121120,,,A*70
$GPVTG,171.32,T,,M,0.60,N,1.11,K,A*3C
$GPGGA,201536.148,4739.3002,N,12219.2937,W,1,03,3.67,167.3,M,-17.3,M,,*54
$GPGSA,A,2,01,31,22,,,,,,,,,,3.81,3.67,1.00*09
$GPRMC,201536.148,A,4739.3002,N,12219.2937,W,0.60,172.22,121120,,,A*7F
$GPVTG,172.22,T,,M,0.60,N,1.10,K,A*3F
$GPGGA,201536.500,4739.3001,N,12219.2937,W,1,03,3.67,167.3,M,-17.3,M,,*5F
$GPGSA,A,2,01,31,22,,,,,,,,,,3.80,3.67,1.00*08
$GPRMC,201536.500,A,4739.3001,N,12219.2937,W,0.61,173.73,121120,,,A*70
$GPVTG,173.73,T,,M,0.61,N,1.12,K,A*39
$GPGGA,201536.750,4739.3001,N,12219.2937,W,1,03,3.67,167.3,M,-17.3,M,,*58
$GPGSA,A,2,01,31,22,,,,,,,,,,3.81,3.67,1.00*09
$GPRMC,201536.750,A,4739.3001,N,12219.2937,W,0.62,175.32,121120,,,A*77
$GPVTG,175.32,T,,M,0.62,N,1.15,K,A*3E
$GPGGA,201537.000,4739.3000,N,12219.2937,W,1,03,3.68,167.3,M,-17.3,M,,*55
$GPGSA,A,2,01,31,22,,,,,,,,,,3.81,3.68,1.00*06
$GPRMC,201537.000,A,4739.3000,N,12219.2937,W,0.61,175.80,121120,,,A*7F
$GPVTG,175.80,T,,M,0.61,N,1.14,K,A*35
$GPGGA,201537.250,4739.3000,N,12219.2937,W,1,03,3.67,167.3,M,-17.3,M,,*5D
$GPGSA,A,2,01,31,22,,,,,,,,,,3.80,3.67,1.00*08
$GPGSV,2,1,05,22,64,297,23,31,58,120,23,01,57,249,22,25,14,063,21*75
$GPGSV,2,2,05,03,,,23*7E
$GPRMC,201537.250,A,4739.3000,N,12219.2937,W,0.61,176.69,121120,,,A*7C
$GPVTG,176.69,T,,M,0.61,N,1.14,K,A*31
$GPGGA,201537.500,4739.2999,N,12219.2937,W,1,03,3.67,167.3,M,-17.3,M,,*57
$GPGSA,A,2,01,31,22,,,,,,,,,,3.80,3.67,1.00*08
$GPRMC,201537.500,A,4739.2999,N,12219.2937,W,0.62,177.35,121120,,,A*7D
$GPVTG,177.35,T,,M,0.62,N,1.15,K,A*3B
$GPGGA,201537.750,4739.2999,N,12219.2937,W,1,03,3.67,167.3,M,-17.3,M,,*50
$GPGSA,A,2,01,31,22,,,,,,,,,,3.80,3.67,1.00*08
$GPRMC,201537.750,A,4739.2999,N,12219.2937,W,0.62,177.60,121120,,,A*7A
$GPVTG,177.60,T,,M,0.62,N,1.15,K,A*3B
$GPGGA,201538.000,4739.2998,N,12219.2937,W,1,03,3.67,167.3,M,-17.3,M,,*5C
$GPGSA,A,2,01,31,22,,,,,,,,,,3.80,3.67,1.00*08
$GPGSA,A,3,32,10,23,27,20,,,,,,,,3.94,3.82,0.98*02
$GPRMC,180653.750,A,4739.3277,N,12219.3079,W,0.17,77.27,131120,,,A*48
$GPVTG,77.27,T,,M,0.17,N,0.31,K,A*0C
$GPGGA,180654.000,4739.3277,N,12219.3079,W,1,05,3.81,19.1,M,-17.3,M,,*62
$GPGSA,A,3,32,10,23,27,20,,,,,,,,3.94,3.81,0.98*01
$GPRMC,180654.000,A,4739.3277,N,12219.3079,W,0.15,78.78,131120,,,A*4A
$GPVTG,78.78,T,,M,0.15,N,0.28,K,A*03
$GPGGA,180654.250,4739.3277,N,12219.3079,W,1,05,3.81,19.1,M,-17.3,M,,*65
$GPGSA,A,3,32,10,23,27,20,,,,,,,,3.94,3.81,0.98*01
$GPGSV,3,1,11,32,79,158,21,10,53,077,22,21,51,299,20,08,32,252,17*71
$GPGSV,3,2,11,01,24,311,20,23,22,087,20,20,19,094,19,27,19,215,19*7E
$GPGSV,3,3,11,22,15,279,,24,15,040,,31,08,164,18*47
$GPRMC,180654.250,A,4739.3277,N,12219.3079,W,0.15,82.78,131120,,,A*48
$GPVTG,82.78,T,,M,0.15,N,0.28,K,A*06
$GPGGA,180654.500,4739.3277,N,12219.3079,W,1,05,3.81,19.1,M,-17.3,M,,*67
$GPGSA,A,3,32,10,23,27,20,,,,,,,,3.94,3.81,0.98*01
$GPRMC,180654.500,A,4739.3277,N,12219.3079,W,0.15,86.43,131120,,,A*46
$GPVTG,86.43,T,,M,0.15,N,0.28,K,A*0A
$GPGGA,180654.750,4739.3277,N,12219.3078,W,1,05,3.81,19.1,M,-17.3,M,,*61
$GPGSA,A,3,32,10,23,27,20,,,,,,,,3.94,3.81,0.98*01
$GPRMC,180654.750,A,4739.3277,N,12219.3078,W,0.15,89.30,131120,,,A*4B
$GPVTG,89.30,T,,M,0.15,N,0.29,K,A*00
$GPGGA,180655.000,4739.3277,N,12219.3078,W,1,05,3.82,19.1,M,-17.3,M,,*61
$GPGSA,A,3,32,10,23,27,20,,,,,,,,3.94,3.82,0.98*02
$GPRMC,180655.000,A,4739.3277,N,12219.3078,W,0.16,91.26,131120,,,A*45
$GPVTG,91.26,T,,M,0.16,N,0.29,K,A*0D
$GPGGA,180655.250,4739.3277,N,12219.3078,W,1,05,3.81,19.1,M,-17.3,M,,*65
$GPGSA,A,3,32,10,23,27,20,,,,,,,,3.94,3.81,0.98*01
$GPRMC,180655.250,A,4739.3277,N,12219.3078,W,0.15,92.60,131120,,,A*40
$GPVTG,92.60,T,,M,0.15,N,0.28,K,A*0E
$GPGGA,180655.500,4739.3277,N,12219.3078,W,1,05,3.81,19.1,M,-17.3,M,,*67
$GPGSA,A,3,32,10,23,27,20,,,,,,,,3.94,3.81,0.98*01
$GPGSV,3,1,11,32,79,158,20,10,53,077,21,21,51,299,19,08,32,252,18*76
$GPGSV,3,2,11,01,25,311,20,23,22,087,19,20,19,094,19,27,19,215,19*75
$GPGSV,3,3,11,22,15,279,,24,15,040,,31,08,164,18*47
$GPRMC,180655.500,A,4739.3277,N,12219.3078,W,0.14,94.89,131120,,,A*42
$GPVTG,94.89,T,,M,0.14,N,0.27,K,A*01
$GPGGA,180655.750,4739.3277,N,12219.3078,W,1,05,3.81,19.1,M,-17.3,M,,*60
$GPGSA,A,3,32,10,23,27,20,,,,,,,,3.94,3.81,0.98*01
$GPRMC,180655.750,A,4739.3277,N,12219.3078,W,0.14,97.67,131120,,,A*46
$GPVTG,97.67,T,,M,0.14,N,0.25,K,A*00
$GPGGA,180656.000,4739.3277,N,12219.3078,W,1,05,3.81,19.1,M,-17.3,M,,*61
$GPGSA,A,3,32,10,23,27,20,,,,,,,,3.94,3.81,0.98*01
$GPRMC,180656.000,A,4739.3277,N,12219.3078,W,0.13,102.23,131120,,,A*7D
$GPVTG,102.23,T,,M,0.13,N,0.24,K,A*3B
$GPGGA,180656.250,4739.3277,N,12219.3078,W,1,05,3.82,19.1,M,-17.3,M,,*65
$GPGSA,A,3,32,10,23,27,20,,,,,,,,3.94,3.82,0.98*02
$GPRMC,180656.250,A,4739.3277,N,12219.3078,W,0.13,107.88,131120,,,A*7E
$GPVTG,107.88,T,,M,0.13,N,0.23,K,A*38
$GPGGA,180656.500,4739.3277,N,12219.3077,W,1,05,3.82,19.1,M,-17.3,M,,*68
$GPGSA,A,3,32,10,23,27,20,,,,,,,,3.94,3.82,0.98*02
$GPRMC,180656.500,A,4739.3277,N,12219.3077,W,0.12,122.19,131120,,,A*7D
$GPVTG,122.19,T,,M,0.12,N,0.22,K,A*37
$GPGGA,180656.750,4739.3277,N,12219.3077,W,1,05,3.82,19.1,M,-17.3,M,,*6F
$GPGSA,A,3,32,10,23,27,20,,,,,,,,3.94,3.82,0.98*02
$GPGSV,3,1,11,32,79,158,22,10,52,077,21,21,51,299,19,08,32,252,18*75
$GPGSV,3,2,11,01,25,311,20,23,22,087,19,20,19,094,19,27,19,215,19*75
$GPGSV,3,3,11,22,15,279,,24,15,040,,31,08,164,17*48
$GPRMC,180656.750,A,4739.3277,N,12219.3077,W,0.13,136.58,131120,,,A*7B
$GPVTG,136.58,T,,M,0.13,N,0.25,K,A*31
$GPGGA,180657.000,4739.3277,N,12219.3077,W,1,05,3.81,19.1,M,-17.3,M,,*6F
$GPGSA,A,3,32,10,23,27,20,,,,,,,,3.94,3.81,0.98*01
$GPRMC,180657.000,A,4739.3277,N,12219.3077,W,0.16,141.92,131120,,,A*7B
$GPVTG,141.92,T,,M,0.16,N,0.29,K,A*3E
$GPGGA,180657.250,4739.3276,N,12219.3077,W,1,05,3.81,19.1,M,-17.3,M,,*69
$GPGSA,A,3,32,10,23,27,20,,,,,,,,3.94,3.81,0.98*01
$GPRMC,180657.250,A,4739.3276,N,12219.3077,W,0.17,147.40,131120,,,A*75
$GPVTG,147.40,T,,M,0.17,N,0.31,K,A*3F
$GPGGA,180657.500,4739.3276,N,12219.3077,W,1,05,3.81,19.1,M,-17.3,M,,*6B
$GPGSA,A,3,32,10,23,27,20,,,,,,,,3.94,3.81,0.98*01
$GPRMC,180657.500,A,4739.3276,N,12219.3077,W,0.18,155.22,131120,,,A*7F
$GPVTG,155.22,T,,M,0.18,N,0.34,K,A*32
$GPGGA,180657.750,4739.3276,N,12219.3077,W,1,05,3.81,19.1,M,-17.3,M,,*6C
$GPGSA,A,3,32,10,23,27,20,,,,,,,,3.93,3.81,0.98*06
$GPRMC,180657.750,A,4739.3276,N,12219.3077,W,0.19,158.42,131120,,,A*72
$GPVTG,158.42,T,,M,0.19,N,0.36,K,A*3A
$GPGGA,180658.000,4739.3276,N,12219.3077,W,1,05,3.82,19.1,M,-17.3,M,,*62
$GPGSA,A,3,32,10,23,27,20,,,,,,,,3.94,3.82,0.98*02
$GPGSV,3,1,11,32,79,158,23,10,52,077,23,21,51,299,21,08,32,252,18*7D
$GPGSV,3,2,11,01,25,311,20,23,22,087,20,20,19,094,19,27,19,215,19*7F
$GPGSV,3,3,11,22,15,279,,24,15,040,,31,08,164,19*46
$GPRMC,180658.000,A,4739.3276,N,12219.3077,W,0.20,160.24,131120,,,A*7E
$GPVTG,160.24,T,,M,0.20,N,0.38,K,A*35
$GPGGA,180658.250,4739.3276,N,12219.3077,W,1,05,3.81,19.1,M,-17.3,M,,*66
$GPGSA,A,3,32,10,23,27,20,,,,,,,,3.94,3.81,0.98*01
$GPRMC,180658.250,A,4739.3276,N,12219.3077,W,0.22,160.23,131120,,,A*7C
$GPVTG,160.23,T,,M,0.22,N,0.40,K,A*3F
$GPGGA,180658.500,4739.3276,N,12219.3077,W,1,05,3.81,19.1,M,-17.3,M,,*64
$GPGSA,A,3,32,10,23,27,20,,,,,,,,3.94,3.81,0.98*01
$GPRMC,180658.500,A,4739.3276,N,12219.3077,W,0.23,158.61,131120,,,A*72
$GPVTG,158.61,T,,M,0.23,N,0.43,K,A*30
$GPGGA,180658.750,4739.3275,N,12219.3077,W,1,05,3.81,19.1,M,-17.3,M,,*60
$GPGSA,A,3,32,10,23,27,20,,,,,,,,3.94,3.81,0.98*01
$GPRMC,180658.750,A,4739.3275,N,12219.3077,W,0.25,158.41,131120,,,A*72
$GPVTG,158.41,T,,M,0.25,N,0.46,K,A*31
$GPGGA,180659.000,4739.3275,N,12219.3076,W,1,05,3.81,19.1,M,-17.3,M,,*62
$GPGSA,A,3,32,10,23,27,20,,,,,,,,3.94,3.81,0.98*01
$GPRMC,180659.000,A,4739.3275,N,12219.3076,W,0.26,156.83,131120,,,A*73
$GPVTG,156.83,T,,M,0.26,N,0.49,K,A*3D
$GPGGA,180659.250,4739.3275,N,12219.3076,W,1,05,3.81,19.1,M,-17.3,M,,*65
$GPGSA,A,3,32,10,23,27,20,,,,,,,,3.93,3.81,0.98*06
$GPGSV,3,1,11,32,79,158,22,10,52,077,21,21,51,299,20,08,32,252,17*70
$GPGSV,3,2,11,01,25,311,20,23,22,087,20,20,19,094,18,27,19,215,18*7F
$GPGSV,3,3,11,22,15,279,,24,15,040,,31,08,164,18*47
$GPRMC,180659.250,A,4739.3275,N,12219.3076,W,0.28,155.97,131120,,,A*7C
$GPVTG,155.97,T,,M,0.28,N,0.52,K,A*3F
$GPGGA,180659.500,4739.3275,N,12219.3076,W,1,05,3.81,19.1,M,-17.3,M,,*67
$GPGSA,A,3,32,10,23,27,20,,,,,,,,3.94,3.81,0.98*01
$GPRMC,180659.500,A,4739.3275,N,12219.3076,W,0.30,155.13,131120,,,A*7B
$GPVTG,155.13,T,,M,0.30,N,0.55,K,A*3D
$GPGGA,180659.750,4739.3275,N,12219.3076,W,1,05,3.81,19.1,M,-17.3,M,,*60
$GPGSA,A,3,32,10,23,27,20,,,,,,,,3.93,3.81,0.98*06
$GPRMC,180659.750,A,4739.3275,N,12219.3076,W,0.31,154.62,131120,,,A*7A
$GPVTG,154.62,T,,M,0.31,N,0.58,K,A*36
$GPGGA,180700.000,4739.3275,N,12219.3076,W,1,05,3.81,19.1,M,-17.3,M,,*6F
$GPGSA,A,3,32,10,23,27,20,,,,,,,,3.93,3.81,0.98*06
$GPRMC,180700.000,A,4739.3275,N,12219.3076,W,0.33,153.80,131120,,,A*7C
$GPVTG,153.80,T,,M,0.33,N,0.61,K,A*35
$GPGGA,180700.250,4739.3274,N,12219.3076,W,1,05,3.81,19.1,M,-17.3,M,,*69
$GPGSA,A,3,32,10,23,27,20,,,,,,,,3.93,3.81,0.98*06
$GPRMC,180700.250,A,4739.3274,N,12219.3076,W,0.34,152.97,131120,,,A*7A
$GPVTG,152.97,T,,M,0.34,N,0.64,K,A*30
$GPGGA,180700.500,4739.3274,N,12219.3076,W,1,05,3.82,19.1,M,-17.3,M,,*68
$GPGSA,A,3,32,10,23,27,20,,,,,,,,3.94,3.82,0.98*02
$GPGSV,3,1,11,32,79,158,20,10,52,077,20,21,51,299,19,08,32,252,17*79
$GPGSV,3,2,11,01,25,311,18,23,22,087,19,20,19,094,18,27,19,215,18*7E
$GPGSV,3,3,11,22,15,279,,24,15,040,,31,08,164,17*48
$GPRMC,180700.500,A,4739.3274,N,12219.3076,W,0.36,152.22,131120,,,A*74
$GPVTG,152.22,T,,M,0.36,N,0.66,K,A*3E
$GPGGA,180700.750,4739.3274,N,12219.3075,W,1,05,3.81,19.1,M,-17.3,M,,*6F
$GPGSA,A,3,32,10,23,27,20,,,,,,,,3.94,3.81,0.98*01
$GPRMC,180700.750,A,4739.3274,N,12219.3075,W,0.39,150.45,131120,,,A*7C
$GPVTG,150.45,T,,M,0.39,N,0.72,K,A*37
$GPGGA,180701.000,4739.3274,N,12219.3075,W,1,05,3.81,19.1,M,-17.3,M,,*6C
$GPGSA,A,3,32,10,23,27,20,,,,,,,,3.94,3.81,0.98*01
$GPRMC,180701.000,A,4739.3274,N,12219.3075,W,0.43,149.19,131120,,,A*73
$GPVTG,149.19,T,,M,0.43,N,0.79,K,A*30
$GPGGA,180701.250,4739.3273,N,12219.3075,W,1,05,3.81,19.1,M,-17.3,M,,*6C
$GPGSA,A,3,32,10,23,27,20,,,,,,,,3.94,3.81,0.98*01
$GPRMC,180701.250,A,4739.3273,N,12219.3075,W,0.45,148.94,131120,,,A*71
$GPVTG,148.94,T,,M,0.45,N,0.84,K,A*30
$GPGGA,180701.500,4739.3273,N,12219.3075,W,1,05,3.81,19.1,M,-17.3,M,,*6E
$GPGSA,A,3,32,10,23,27,20,,,,,,,,3.93,3.81,0.98*06
$GPRMC,180701.500,A,4739.3273,N,12219.3075,W,0.48,149.04,131120,,,A*76
$GPVTG,149.04,T,,M,0.48,N,0.89,K,A*38
$GPGGA,180701.750,4739.3273,N,12219.3074,W,1,05,3.81,19.1,M,-17.3,M,,*68
$GPGSA,A,3,32,10,23,27,20,,,,,,,,3.93,3.81,0.98*06
$GPGSV,3,1,11,32,79,158,20,10,52,077,19,21,51,299,18,08,32,252,14*71
$GPGSV,3,2,11,01,25,311,18,23,22,087,18,20,19,094,18,27,19,215,18*7F
$GPGSV,3,3,11,22,15,279,,24,15,040,,31,08,164,16*49
$GPRMC,180701.750,A,4739.3273,N,12219.3074,W,0.51,148.97,131120,,,A*73
$GPVTG,148.97,T,,M,0.51,N,0.94,K,A*37
$GPGGA,180702.000,4739.3272,N,12219.3074,W,1,05,3.81,19.1,M,-17.3,M,,*68
$GPGSA,A,3,32,10,23,27,20,,,,,,,,3.93,3.81,0.98*06
$GPRMC,180702.000,A,4739.3272,N,12219.3074,W,0.54,148.15,131120,,,A*7C
$GPVTG,148.15,T,,M,0.54,N,0.99,K,A*35
$GPGGA,180702.250,4739.3272,N,12219.3074,W,1,05,3.81,19.1,M,-17.3,M,,*6F
$GPGSA,A,3,32,10,23,27,20,,,,,,,,3.93,3.81,0.98*06
$GPRMC,180702.250,A,4739.3272,N,12219.3074,W,0.56,147.76,131120,,,A*73
$GPVTG,147.76,T,,M,0.56,N,1.04,K,A*38
$GPGGA,180702.500,4739.3272,N,12219.3073,W,1,05,3.81,19.1,M,-17.3,M,,*6A
$GPGSA,A,3,32,10,23,27,20,,,,,,,,3.93,3.81,0.98*06
$GPRMC,180702.500,A,4739.3272,N,12219.3073,W,0.58,147.83,131120,,,A*72
$GPVTG,147.83,T,,M,0.58,N,1.08,K,A*30
$GPGGA,180702.750,4739.3270,N,12219.3072,W,1,05,3.81,19.1,M,-17.3,M,,*6E
$GPGSA,A,3,32,10,23,27,20,,,,,,,,3.93,3.81,0.98*06
$GPRMC,180702.750,A,4739.3270,N,12219.3072,W,0.60,148.26,131120,,,A*7D
$GPVTG,148.26,T,,M,0.60,N,1.12,K,A*30
$GPGGA,180703.000,4739.3268,N,12219.3070,W,1,05,3.81,19.2,M,-17.3,M,,*65
$GPGSA,A,3,32,10,23,27,20,,,,,,,,3.94,3.81,0.98*01
$GPGSV,3,1,11,32,79,158,19,10,52,077,19,21,51,299,18,08,32,252,15*7A
$GPGSV,3,2,11,01,25,311,18,23,22,087,18,20,19,094,17,27,19,215,18*70
$GPGSV,3,3,11,22,15,279,,24,15,040,,31,08,164,16*49
$GPRMC,180703.000,A,4739.3268,N,12219.3070,W,0.63,148.13,131120,,,A*70
$GPVTG,148.13,T,,M,0.63,N,1.16,K,A*31
$GPGGA,180703.250,4739.3267,N,12219.3070,W,1,05,3.81,19.2,M,-17.3,M,,*6D
$GPGSA,A,3,32,10,23,27,20,,,,,,,,3.93,3.81,0.98*06
$GPRMC,180703.250,A,4739.3267,N,12219.3070,W,0.63,148.65,131120,,,A*79
$GPVTG,148.65,T,,M,0.63,N,1.17,K,A*31
$GPGGA,180703.500,4739.3267,N,12219.3069,W,1,05,3.81,19.2,M,-17.3,M,,*67
$GPGSA,A,3,32,10,23,27,20,,,,,,,,3.93,3.81,0.98*06
$GPRMC,180703.500,A,4739.3267,N,12219.3069,W,0.64,148.63,131120,,,A*72
$GPVTG,148.63,T,,M,0.64,N,1.18,K,A*3F
$GPGGA,180703.750,4739.3266,N,12219.3068,W,1,05,3.81,19.2,M,-17.3,M,,*60
$GPGSA,A,3,32,10,23,27,20,,,,,,,,3.94,3.81,0.98*01
$GPRMC,180703.750,A,4739.3266,N,12219.3068,W,0.64,147.98,131120,,,A*7E
$GPVTG,147.98,T,,M,0.64,N,1.19,K,A*35
$GPGGA,180704.000,4739.3265,N,12219.3068,W,1,05,3.81,19.2,M,-17.3,M,,*66
$GPGSA,A,3,32,10,23,27,20,,,,,,,,3.93,3.81,0.98*06
$GPRMC,180704.000,A,4739.3265,N,12219.3068,W,0.65,147.75,131120,,,A*7A
$GPVTG,147.75,T,,M,0.65,N,1.20,K,A*3D
$GPGGA,180704.250,4739.3264,N,12219.3067,W,1,05,3.81,19.2,M,-17.3,M,,*6F
$GPGSA,A,3,32,10,23,27,20,,,,,,,,3.93,3.81,0.98*06
$GPGSV,3,1,11,32,79,158,20,10,52,077,19,21,51,299,18,08,32,252,15*70
$GPGSV,3,2,11,01,25,311,18,23,22,087,19,20,19,094,17,27,19,215,18*71
$GPGSV,3,3,11,22,15,279,,24,15,040,,31,08,164,16*49
$GPRMC,180704.250,A,4739.3264,N,12219.3067,W,0.65,148.01,131120,,,A*7F
$GPVTG,148.01,T,,M,0.65,N,1.21,K,A*30
$GPGGA,180704.500,4739.3264,N,12219.3067,W,1,05,3.81,19.2,M,-17.3,M,,*6D
$GPGSA,A,3,32,10,23,27,20,,,,,,,,3.93,3.81,0.98*06
$GPRMC,180704.500,A,4739.3264,N,12219.3067,W,0.65,148.45,131120,,,A*7D
$GPVTG,148.45,T,,M,0.65,N,1.21,K,A*30
$GPGGA,180704.750,4739.3264,N,12219.3067,W,1,05,3.81,19.2,M,-17.3,M,,*6A
$GPGSA,A,3,32,10,23,27,20,,,,,,,,3.93,3.81,0.98*06
$GPRMC,180704.750,A,4739.3264,N,12219.3067,W,0.64,147.95,131120,,,A*79
$GPVTG,147.95,T,,M,0.64,N,1.18,K,A*39
$GPGGA,180705.000,4739.3264,N,12219.3066,W,1,05,3.81,19.2,M,-17.3,M,,*68
$GPGSA,A,3,32,10,23,27,20,,,,,,,,3.93,3.81,0.98*06
$GPRMC,180705.000,A,4739.3264,N,12219.3066,W,0.63,147.75,131120,,,A*72
$GPVTG,147.75,T,,M,0.63,N,1.16,K,A*3E
$GPGGA,180705.250,4739.3264,N,12219.3066,W,1,05,3.81,19.3,M,-17.3,M,,*6E
$GPGSA,A,3,32,10,23,27,20,,,,,,,,3.93,3.81,0.98*06
$GPRMC,180705.250,A,4739.3264,N,12219.3066,W,0.62,147.93,131120,,,A*7C
$GPVTG,147.93,T,,M,0.62,N,1.15,K,A*34
$GPGGA,180705.500,4739.3264,N,12219.3066,W,1,05,3.81,19.3,M,-17.3,M,,*6C
$GPGSA,A,3,32,10,23,27,20,,,,,,,,3.93,3.81,0.98*06
$GPGSV,3,1,11,32,79,158,21,10,52,078,20,21,51,299,18,08,31,252,15*77
$GPGSV,3,2,11,01,25,311,19,23,22,087,19,20,19,094,17,27,19,215,18*70
$GPGSV,3,3,11,22,15,279,,24,15,040,,31,08,164,17*48
$GPRMC,180705.500,A,4739.3264,N,12219.3066,W,0.61,148.55,131120,,,A*78
$GPVTG,148.55,T,,M,0.61,N,1.13,K,A*34
$GPGGA,180705.750,4739.3265,N,12219.3066,W,1,05,3.81,19.3,M,-17.3,M,,*6A
$GPGSA,A,3,32,10,23,27,20,,,,,,,,3.93,3.81,0.98*06
$GPRMC,180705.750,A,4739.3265,N,12219.3066,W,0.60,148.97,131120,,,A*71
$GPVTG,148.97,T,,M,0.60,N,1.10,K,A*38
$GPGGA,180706.000,4739.3265,N,12219.3066,W,1,05,3.81,19.3,M,-17.3,M,,*6B
$GPGSA,A,3,32,10,23,27,20,,,,,,,,3.93,3.81,0.98*06
$GPRMC,180706.000,A,4739.3265,N,12219.3066,W,0.59,149.50,131120,,,A*70
$GPVTG,149.50,T,,M,0.59,N,1.09,K,A*30
$GPGGA,180706.250,4739.3265,N,12219.3066,W,1,05,3.81,19.4,M,-17.3,M,,*6B
$GPGSA,A,3,32,10,23,27,20,,,,,,,,3.93,3.81,0.98*06
$GPRMC,180706.250,A,4739.3265,N,12219.3066,W,0.58,148.83,131120,,,A*79
$GPVTG,148.83,T,,M,0.58,N,1.07,K,A*30
$GPGGA,180706.500,4739.3265,N,12219.3065,W,1,05,3.81,19.4,M,-17.3,M,,*6A
$GPGSA,A,3,32,10,23,27,20,,,,,,,,3.93,3.81,0.98*06
$GPRMC,180706.500,A,4739.3265,N,12219.3065,W,0.56,148.15,131120,,,A*79
$GPVTG,148.15,T,,M,0.56,N,1.04,K,A*32
$GPGGA,180706.750,4739.3265,N,12219.3066,W,1,05,3.81,19.4,M,-17.3,M,,*6E
$GPGSA,A,3,32,10,23,27,20,,,,,,,,3.93,3.81,0.98*06
$GPGSV,3,1,11,32,79,158,21,10,52,078,21,21,51,299,19,08,31,252,16*74
$GPGSV,3,2,11,01,25,311,19,23,22,087,19,20,19,094,17,27,19,215,18*70
$GPGSV,3,3,11,22,15,279,,24,15,040,,31,08,164,17*48
$GPRMC,180706.750,A,4739.3265,N,12219.3066,W,0.55,147.92,131120,,,A*7E
$GPVTG,147.92,T,,M,0.55,N,1.02,K,A*37
$GPGGA,180707.000,4739.3264,N,12219.3066,W,1,05,3.81,19.4,M,-17.3,M,,*6C
$GPGSA,A,3,32,10,23,27,20,,,,,,,,3.93,3.81,0.98*06
$GPRMC,180707.000,A,4739.3264,N,12219.3066,W,0.54,148.53,131120,,,A*7F
$GPVTG,148.53,T,,M,0.54,N,1.00,K,A*36
$GPGGA,180707.250,4739.3264,N,12219.3066,W,1,05,3.81,19.4,M,-17.3,M,,*6B
$GPGSA,A,3,32,10,23,27,20,,,,,,,,3.93,3.81,0.98*06
$GPRMC,180707.250,A,4739.3264,N,12219.3066,W,0.53,149.27,131120,,,A*7D
$GPVTG,149.27,T,,M,0.53,N,0.98,K,A*33
$GPGGA,180707.500,4739.3264,N,12219.3066,W,1,05,3.81,19.4,M,-17.3,M,,*69
$GPGSA,A,3,32,10,23,27,20,,,,,,,,3.93,3.81,0.98*06
$GPRMC,180707.500,A,4739.3264,N,12219.3066,W,0.52,149.41,131120,,,A*7E
$GPVTG,149.41,T,,M,0.52,N,0.97,K,A*3D
$GPGGA,180707.750,4739.3265,N,12219.3066,W,1,05,3.81,19.4,M,-17.3,M,,*6F
$GPGSA,A,3,32,10,23,27,20,,,,,,,,3.93,3.81,0.98*06
$GPRMC,180707.750,A,4739.3265,N,12219.3066,W,0.51,149.44,131120,,,A*7E
$GPVTG,149.44,T,,M,0.51,N,0.94,K,A*38
$GPGGA,180708.000,4739.3265,N,12219.3067,W,1,05,3.81,19.4,M,-17.3,M,,*63
$GPGSA,A,3,32,10,23,27,20,,,,,,,,3.93,3.81,0.98*06
$GPGSV,3,1,11,32,79,158,21,10,52,078,21,21,51,299,19,08,31,252,16*74
$GPGSV,3,2,11,01,25,311,19,23,22,087,18,20,19,094,17,27,19,215,18*71
$GPGSV,3,3,11,22,15,279,,24,15,040,,31,08,164,17*48
$GPRMC,180708.000,A,4739.3265,N,12219.3067,W,0.49,149.49,131120,,,A*76
$GPVTG,149.49,T,,M,0.49,N,0.91,K,A*39
$GPGGA,180708.250,4739.3265,N,12219.3067,W,1,05,3.81,19.4,M,-17.3,M,,*64
$GPGSA,A,3,32,10,23,27,20,,,,,,,,3.93,3.81,0.98*06
$GPRMC,180708.250,A,4739.3265,N,12219.3067,W,0.49,150.03,131120,,,A*77
$GPVTG,150.03,T,,M,0.49,N,0.90,K,A*3E
$GPGGA,180708.500,4739.3265,N,12219.3067,W,1,05,3.81,19.4,M,-17.3,M,,*66
$GPGSA,A,3,32,10,23,27,20,,,,,,,,3.93,3.81,0.98*06
$GPRMC,180708.500,A,4739.3265,N,12219.3067,W,0.48,150.56,131120,,,A*74
$GPVTG,150.56,T,,M,0.48,N,0.89,K,A*37
$GPGGA,180708.750,4739.3265,N,12219.3067,W,1,05,3.81,19.4,M,-17.3,M,,*61
$GPGSA,A,3,32,10,23,27,20,,,,,,,,3.93,3.81,0.98*06
$GPRMC,180708.750,A,4739.3265,N,12219.3067,W,0.46,150.62,131120,,,A*7A
$GPVTG,150.62,T,,M,0.46,N,0.86,K,A*31
$GPGGA,180709.000,4739.3265,N,12219.3067,W,1,05,3.81,19.4,M,-17.3,M,,*62
$GPGSA,A,3,32,10,23,27,20,,,,,,,,3.93,3.81,0.98*06
$GPRMC,180709.000,A,4739.3265,N,12219.3067,W,0.45,150.07,131120,,,A*79
$GPVTG,150.07,T,,M,0.45,N,0.84,K,A*33
$GPGGA,180709.250,4739.3266,N,12219.3068,W,1,05,3.81,19.4,M,-17.3,M,,*69
$GPGSA,A,3,32,10,23,27,20,,,,,,,,3.93,3.81,0.98*06
$GPGSV,3,1,11,32,79,158,20,10,52,078,20,21,51,299,19,08,31,252,16*74
$GPGSV,3,2,11,01,25,311,19,23,22,088,18,20,19,094,17,27,19,215,18*7E
$GPGSV,3,3,11,22,15,279,,24,15,040,,31,08,164,17*48
$GPRMC,180709.250,A,4739.3266,N,12219.3068,W,0.44,150.09,131120,,,A*7D
$GPVTG,150.09,T,,M,0.44,N,0.81,K,A*39
$GPGGA,180709.500,4739.3266,N,12219.3068,W,1,05,3.81,19.4,M,-17.3,M,,*6B
$GPGSA,A,3,32,10,23,27,20,,,,,,,,3.93,3.81,0.98*06
$GPRMC,180709.500,A,4739.3266,N,12219.3068,W,0.43,150.17,131120,,,A*77
$GPVTG,150.17,T,,M,0.43,N,0.79,K,A*36
$GPGGA,180709.750,4739.3266,N,12219.3068,W,1,05,3.81,19.4,M,-17.3,M,,*6C
$GPGSA,A,3,32,10,23,27,20,,,,,,,,3.93,3.81,0.98*06
$GPRMC,180709.750,A,4739.3266,N,12219.3068,W,0.41,150.18,131120,,,A*7D
$GPVTG,150.18,T,,M,0.41,N,0.77,K,A*35
$GPGGA,180710.000,4739.3265,N,12219.3068,W,1,05,3.81,19.4,M,-17.3,M,,*65
$GPGSA,A,3,32,10,23,27,20,,,,,,,,3.93,3.81,0.98*06
$GPRMC,180710.000,A,4739.3265,N,12219.3068,W,0.40,150.02,131120,,,A*7E
$GPVTG,150.02,T,,M,0.40,N,0.74,K,A*3C
$GPGGA,180710.250,4739.3265,N,12219.3067,W,1,05,3.81,19.4,M,-17.3,M,,*6D
$GPGSA,A,3,32,10,23,27,20,,,,,,,,3.93,3.81,0.98*06
$GPRMC,180710.250,A,4739.3265,N,12219.3067,W,0.39,149.93,131120,,,A*78
$GPVTG,149.93,T,,M,0.39,N,0.72,K,A*34
$GPGGA,180710.500,4739.3265,N,12219.3067,W,1,05,3.81,19.4,M,-17.3,M,,*6F
$GPGSA,A,3,32,10,23,27,20,,,,,,,,3.93,3.81,0.98*06
$GPGSV,3,1,11,32,79,158,20,10,52,078,20,21,51,299,19,08,31,252,16*74
$GPGSV,3,2,11,01,25,311,19,23,22,088,18,20,19,094,17,27,19,215,18*7E
$GPGSV,3,3,11,22,15,279,,24,15,040,,31,08,164,17*48
$GPRMC,180710.500,A,4739.3265,N,12219.3067,W,0.38,150.19,131120,,,A*71
$GPVTG,150.19,T,,M,0.38,N,0.70,K,A*3D
$GPGGA,180710.750,4739.3265,N,12219.3067,W,1,05,3.80,19.4,M,-17.3,M,,*69
$GPGSA,A,3,32,10,23,27,20,,,,,,,,3.93,3.80,0.98*07
$GPRMC,180710.750,A,4739.3265,N,12219.3067,W,0.37,150.81,131120,,,A*78
$GPVTG,150.81,T,,M,0.37,N,0.68,K,A*3A
$GPGGA,180711.000,4739.3264,N,12219.3067,W,1,05,3.81,19.4,M,-17.3,M,,*6A
$GPGSA,A,3,32,10,23,27,20,,,,,,,,3.93,3.81,0.98*06
$GPRMC,180711.000,A,4739.3264,N,12219.3067,W,0.36,150.85,131120,,,A*7F
$GPVTG,150.85,T,,M,0.36,N,0.66,K,A*31
