
$GPVTG,60.24,T,,M,0.24,N,0.44,K,A*0B
$GPGGA,233745.000,4730.1469,N,12215.7765,W,1,04,2.70,75.1,M,-17.4,M,,*6B
$GPGSA,A,3,22,09,03,04,,,,,,,,,2.88,2.70,0.98*0A
$GPRMC,233745.000,A,4730.1469,N,12215.7765,W,0.25,81.14,101120,,,A*4C
$GPVTG,81.14,T,,M,0.25,N,0.47,K,A*05
$GPGGA,233745.250,4730.1469,N,12215.7765,W,1,04,2.70,75.1,M,-17.4,M,,*6C
$GPGSA,A,3,22,09,03,04,,,,,,,,,2.88,2.70,0.98*0A
$GPRMC,233745.250,A,4730.1469,N,12215.7765,W,0.28,90.51,101120,,,A*47
$GPVTG,90.51,T,,M,0.28,N,0.52,K,A*0D
$GPGGA,233745.500,4730.1469,N,12215.7764,W,1,04,2.70,75.1,M,-17.4,M,,*6F
$GPGSA,A,3,22,09,03,04,,,,,,,,,2.87,2.70,0.98*05
$GPRMC,233745.500,A,4730.1469,N,12215.7764,W,0.30,95.11,101120,,,A*4C
$GPVTG,95.11,T,,M,0.30,N,0.55,K,A*02
$GPGGA,233745.750,4730.1469,N,12215.7764,W,1,04,2.70,75.1,M,-17.4,M,,*68
$GPGSA,A,3,22,09,03,04,,,,,,,,,2.88,2.70,0.98*0A
$GPRMC,233745.750,A,4730.1469,N,12215.7764,W,0.31,99.31,101120,,,A*44
$GPVTG,99.31,T,,M,0.31,N,0.57,K,A*0F
$GPGGA,233746.000,4730.1469,N,12215.7764,W,1,04,2.70,75.1,M,-17.4,M,,*69
$GPGSA,A,3,22,09,03,04,,,,,,,,,2.88,2.70,0.98*0A
$GPGSV,2,1,06,04,81,055,24,09,53,297,23,03,40,176,24,22,20,168,26*7D
$GPGSV,2,2,06,46,,,30,16,,,24*7F
$GPRMC,233746.000,A,4730.1469,N,12215.7764,W,0.31,103.30,101120,,,A*76
$GPVTG,103.30,T,,M,0.31,N,0.58,K,A*33
$GPGGA,233746.250,4730.1469,N,12215.7763,W,1,04,2.71,75.1,M,-17.4,M,,*68
$GPGSA,A,3,22,09,03,04,,,,,,,,,2.88,2.71,0.98*0B
$GPRMC,233746.250,A,4730.1469,N,12215.7763,W,0.32,102.87,101120,,,A*78
$GPVTG,102.87,T,,M,0.32,N,0.59,K,A*3C
$GPGGA,233746.500,4730.1469,N,12215.7763,W,1,04,2.70,75.1,M,-17.4,M,,*6B
$GPGSA,A,3,22,09,03,04,,,,,,,,,2.87,2.70,0.98*05
$GPRMC,233746.500,A,4730.1469,N,12215.7763,W,0.33,102.16,101120,,,A*73
$GPVTG,102.16,T,,M,0.33,N,0.61,K,A*3E
$GPGGA,233746.750,4730.1469,N,12215.7763,W,1,04,2.70,75.1,M,-17.4,M,,*6C
$GPGSA,A,3,22,09,03,04,,,,,,,,,2.88,2.70,0.98*0A
$GPRMC,233746.750,A,4730.1469,N,12215.7763,W,0.33,103.31,101120,,,A*70
$GPVTG,103.31,T,,M,0.33,N,0.62,K,A*39
$GPGGA,233747.000,4730.1469,N,12215.7762,W,1,04,2.70,75.1,M,-17.4,M,,*6E
$GPGSA,A,3,22,09,03,04,,,,,,,,,2.88,2.70,0.98*0A
$GPRMC,233747.000,A,4730.1469,N,12215.7762,W,0.33,101.67,101120,,,A*73
$GPVTG,101.67,T,,M,0.33,N,0.60,K,A*3A
$GPGGA,233747.250,4730.1469,N,12215.7762,W,1,04,2.70,75.1,M,-17.4,M,,*69
$GPGSA,A,3,22,09,03,04,,,,,,,,,2.88,2.70,0.98*0A
$GPGSV,2,1,06,04,80,055,24,09,53,297,24,03,40,176,24,22,20,168,26*7B
$GPGSV,2,2,06,46,,,31,16,,,24*7E
$GPRMC,233747.250,A,4730.1469,N,12215.7762,W,0.33,100.67,101120,,,A*75
$GPVTG,100.67,T,,M,0.33,N,0.60,K,A*3B
$GPGGA,233747.500,4730.1469,N,12215.7762,W,1,04,2.70,75.1,M,-17.4,M,,*6B
$GPGSA,A,3,22,09,03,04,,,,,,,,,2.88,2.70,0.98*0A
$GPRMC,233747.500,A,4730.1469,N,12215.7762,W,0.33,99.12,101120,,,A*44
$GPVTG,99.12,T,,M,0.33,N,0.60,K,A*08
$GPGGA,233747.750,4730.1469,N,12215.7761,W,1,04,2.70,75.1,M,-17.4,M,,*6F
$GPGSA,A,3,22,09,03,04,,,,,,,,,2.88,2.70,0.98*0A
$GPRMC,233747.750,A,4730.1469,N,12215.7761,W,0.32,99.53,101120,,,A*44
$GPVTG,99.53,T,,M,0.32,N,0.60,K,A*0C
$GPGGA,233748.000,4730.1469,N,12215.7761,W,1,04,2.71,75.1,M,-17.4,M,,*63
$GPGSA,A,3,22,09,03,04,,,,,,,,,2.88,2.71,0.98*0B
$GPRMC,233748.000,A,4730.1469,N,12215.7761,W,0.32,100.26,101120,,,A*7A
$GPVTG,100.26,T,,M,0.32,N,0.59,K,A*35
$GPGGA,233748.250,4730.1469,N,12215.7761,W,1,04,2.70,75.1,M,-17.4,M,,*65
$GPGSA,A,3,22,09,03,04,,,,,,,,,2.88,2.70,0.98*0A
$GPRMC,233748.250,A,4730.1469,N,12215.7761,W,0.33,99.33,101120,,,A*49
$GPVTG,99.33,T,,M,0.33,N,0.61,K,A*0A
$GPGGA,233748.500,4730.1469,N,12215.7760,W,1,04,2.70,75.1,M,-17.4,M,,*66
$GPGSA,A,3,22,09,03,04,,,,,,,,,2.88,2.70,0.98*0A
$GPGSV,2,1,06,04,80,055,26,09,53,297,24,03,40,176,23,22,20,168,25*7D
$GPGSV,2,2,06,46,,,31,16,,,25*7F
$GPRMC,233748.500,A,4730.1469,N,12215.7760,W,0.33,98.19,101120,,,A*43
$GPVTG,98.19,T,,M,0.33,N,0.60,K,A*02
$GPGGA,233748.750,4730.1469,N,12215.7760,W,1,04,2.70,75.1,M,-17.4,M,,*61
$GPGSA,A,3,22,09,03,04,,,,,,,,,2.88,2.70,0.98*0A
$GPRMC,233748.750,A,4730.1469,N,12215.7760,W,0.32,96.13,101120,,,A*41
$GPVTG,96.13,T,,M,0.32,N,0.59,K,A*0D
$GPGGA,233749.000,4730.1469,N,12215.7760,W,1,04,2.70,75.1,M,-17.4,M,,*62
$GPGSA,A,3,22,09,03,04,,,,,,,,,2.88,2.70,0.98*0A
$GPRMC,233749.000,A,4730.1469,N,12215.7760,W,0.31,92.45,101120,,,A*46
$GPVTG,92.45,T,,M,0.31,N,0.58,K,A*08
$GPGGA,233749.250,4730.1469,N,12215.7759,W,1,04,2.70,75.1,M,-17.4,M,,*6F
$GPGSA,A,3,22,09,03,04,,,,,,,,,2.88,2.70,0.98*0A
$GPRMC,233749.250,A,4730.1469,N,12215.7759,W,0.32,88.32,101120,,,A*43
$GPVTG,88.32,T,,M,0.32,N,0.59,K,A*01
$GPGGA,233749.500,4730.1469,N,12215.7759,W,1,04,2.70,75.1,M,-17.4,M,,*6D
$GPGSA,A,3,22,09,03,04,,,,,,,,,2.88,2.70,0.98*0A
$GPRMC,233749.500,A,4730.1469,N,12215.7759,W,0.31,84.89,101120,,,A*4E
$GPVTG,84.89,T,,M,0.31,N,0.57,K,A*00
$GPGGA,233749.750,4730.1469,N,12215.7759,W,1,04,2.70,75.1,M,-17.4,M,,*6A
$GPGSA,A,3,22,09,03,04,,,,,,,,,2.88,2.70,0.98*0A
$GPGSV,2,1,06,04,80,055,25,09,53,297,24,03,40,176,23,22,20,168,25*7E
$GPGSV,2,2,06,46,,,31,16,,,26*7C
$GPRMC,233749.750,A,4730.1469,N,12215.7759,W,0.30,81.79,101120,,,A*42
$GPVTG,81.79,T,,M,0.30,N,0.56,K,A*0A
$GPGGA,233750.000,4730.1469,N,12215.7759,W,1,04,2.70,75.1,M,-17.4,M,,*60
$GPGSA,A,3,22,09,03,04,,,,,,,,,2.88,2.70,0.98*0A
$GPRMC,233750.000,A,4730.1469,N,12215.7759,W,0.28,82.14,101120,,,A*49
$GPVTG,82.14,T,,M,0.28,N,0.53,K,A*0E
$GPGGA,233750.250,4730.1469,N,12215.7758,W,1,04,2.70,75.1,M,-17.4,M,,*66
$GPGSA,A,3,22,09,03,04,,,,,,,,,2.87,2.70,0.98*05
$GPRMC,233750.250,A,4730.1469,N,12215.7758,W,0.28,81.73,101120,,,A*4D
$GPVTG,81.73,T,,M,0.28,N,0.51,K,A*0E
$GPGGA,233750.500,4730.1469,N,12215.7758,W,1,04,2.70,75.1,M,-17.4,M,,*64
$GPGSA,A,3,22,09,03,04,,,,,,,,,2.88,2.70,0.98*0A
$GPRMC,233750.500,A,4730.1469,N,12215.7758,W,0.28,82.45,101120,,,A*49
$GPVTG,82.45,T,,M,0.28,N,0.52,K,A*0B
$GPGGA,233750.750,4730.1469,N,12215.7758,W,1,04,2.70,75.1,M,-17.4,M,,*63
$GPGSA,A,3,22,09,03,04,,,,,,,,,2.87,2.70,0.98*05
$GPRMC,233750.750,A,4730.1469,N,12215.7758,W,0.28,81.79,101120,,,A*42
$GPVTG,81.79,T,,M,0.28,N,0.53,K,A*06
$GPGGA,233751.000,4730.1469,N,12215.7757,W,1,04,2.70,75.1,M,-17.4,M,,*6F
$GPGSA,A,3,22,09,03,04,,,,,,,,,2.87,2.70,0.98*05
$GPGSV,2,1,06,04,80,055,25,09,53,297,21,03,40,176,21,22,20,168,24*78
$GPGSV,2,2,06,46,,,30,16,,,24*7F
$GPRMC,233751.000,A,4730.1469,N,12215.7757,W,0.28,79.72,101120,,,A*42
$GPVTG,79.72,T,,M,0.28,N,0.53,K,A*0A
$GPGGA,233751.250,4730.1469,N,12215.7757,W,1,04,2.70,75.1,M,-17.4,M,,*68
$GPGSA,A,3,22,09,03,04,,,,,,,,,2.88,2.70,0.98*0A
$GPRMC,233751.250,A,4730.1469,N,12215.7757,W,0.29,78.57,101120,,,A*42
$GPVTG,78.57,T,,M,0.29,N,0.53,K,A*0D
$GPGGA,233751.500,4730.1469,N,12215.7757,W,1,04,2.70,75.1,M,-17.4,M,,*6A
$GPGSA,A,3,22,09,03,04,,,,,,,,,2.88,2.70,0.98*0A
$GPRMC,233751.500,A,4730.1469,N,12215.7757,W,0.28,78.37,101120,,,A*47
$GPVTG,78.37,T,,M,0.28,N,0.51,K,A*08
$GPGGA,233751.750,4730.1469,N,12215.7756,W,1,04,2.70,75.1,M,-17.4,M,,*6C
$GPGSA,A,3,22,09,03,04,,,,,,,,,2.88,2.70,0.98*0A
$GPRMC,233751.750,A,4730.1469,N,12215.7756,W,0.27,78.46,101120,,,A*48
$GPVTG,78.46,T,,M,0.27,N,0.49,K,A*08
$GPGGA,233752.000,4730.1469,N,12215.7756,W,1,04,2.70,75.1,M,-17.4,M,,*6D
$GPGSA,A,3,22,09,03,04,,,,,,,,,2.88,2.70,0.98*0A
$GPRMC,233752.000,A,4730.1469,N,12215.7756,W,0.26,78.71,101120,,,A*4C
$GPVTG,78.71,T,,M,0.26,N,0.48,K,A*0C
$GPGGA,233752.250,4730.1469,N,12215.7756,W,1,04,2.70,75.1,M,-17.4,M,,*6A
$GPGSA,A,3,22,09,03,04,,,,,,,,,2.87,2.70,0.98*05
$GPGSV,2,1,06,04,80,055,25,09,53,297,21,03,40,176,20,22,20,168,24*79
$GPGSV,2,2,06,46,,,29,16,,,23*70
$GPRMC,233752.250,A,4730.1469,N,12215.7756,W,0.24,79.62,101120,,,A*4A
$GPVTG,79.62,T,,M,0.24,N,0.45,K,A*00
$GPGGA,233752.500,4730.1469,N,12215.7756,W,1,04,2.70,75.1,M,-17.4,M,,*68
$GPGSA,A,3,22,09,03,04,,,,,,,,,2.88,2.70,0.98*0A
$GPRMC,233752.500,A,4730.1469,N,12215.7756,W,0.23,83.32,101120,,,A*4F
$GPVTG,83.32,T,,M,0.23,N,0.43,K,A*01
$GPGGA,233752.750,4730.1469,N,12215.7755,W,1,04,2.70,75.1,M,-17.4,M,,*6C
$GPGSA,A,3,22,09,03,04,,,,,,,,,2.88,2.70,0.98*0A
$GPRMC,233752.750,A,4730.1469,N,12215.7755,W,0.23,88.04,101120,,,A*45
$GPVTG,88.04,T,,M,0.23,N,0.42,K,A*0E
$GPGGA,233753.000,4730.1469,N,12215.7755,W,1,04,2.70,75.1,M,-17.4,M,,*6F
$GPGSA,A,3,22,09,03,04,,,,,,,,,2.88,2.70,0.98*0A
$GPRMC,233753.000,A,4730.1469,N,12215.7755,W,0.22,92.24,101120,,,A*4E
$GPVTG,92.24,T,,M,0.22,N,0.41,K,A*05
$GPGGA,233753.250,4730.1469,N,12215.7755,W,1,04,2.70,75.1,M,-17.4,M,,*68
$GPGSA,A,3,22,09,03,04,,,,,,,,,2.87,2.70,0.98*05
$GPRMC,233753.250,A,4730.1469,N,12215.7755,W,0.22,92.97,101120,,,A*41
$GPVTG,92.97,T,,M,0.22,N,0.40,K,A*0C
$GPGGA,233753.500,4730.1469,N,12215.7755,W,1,04,2.70,75.1,M,-17.4,M,,*6A
$GPGSA,A,3,22,09,03,04,,,,,,,,,2.88,2.70,0.98*0A
$GPGSV,2,1,06,04,80,055,25,09,53,297,21,03,40,176,20,22,20,168,23*7E
$GPGSV,2,2,06,46,,,29,16,,,23*70
$GPRMC,233753.500,A,4730.1469,N,12215.7755,W,0.21,93.65,101120,,,A*4C
$GPVTG,93.65,T,,M,0.21,N,0.40,K,A*03
$GPGGA,233753.750,4730.1469,N,12215.7755,W,1,04,2.70,75.1,M,-17.4,M,,*6D
$GPGSA,A,3,22,09,03,04,,,,,,,,,2.88,2.70,0.98*0A
$GPRMC,233753.750,A,4730.1469,N,12215.7755,W,0.20,97.51,101120,,,A*49
$GPVTG,97.51,T,,M,0.20,N,0.37,K,A*01
$GPGGA,233754.000,4730.1469,N,12215.7754,W,1,04,2.70,75.1,M,-17.4,M,,*69
$GPGSA,A,3,22,09,03,04,,,,,,,,,2.88,2.70,0.98*0A
$GPRMC,233754.000,A,4730.1469,N,12215.7754,W,0.18,104.76,101120,,,A*78
$GPVTG,104.76,T,,M,0.18,N,0.34,K,A*37
$GPGGA,233754.250,4730.1469,N,12215.7754,W,1,04,2.70,75.1,M,-17.4,M,,*6E
$GPGSA,A,3,22,09,03,04,,,,,,,,,2.87,2.70,0.98*05
$GPRMC,233754.250,A,4730.1469,N,12215.7754,W,0.18,107.72,101120,,,A*78
$GPVTG,107.72,T,,M,0.18,N,0.33,K,A*37
$GPGGA,233754.500,4730.1469,N,12215.7754,W,1,04,2.70,75.1,M,-17.4,M,,*6C
$GPGSA,A,3,22,09,03,04,,,,,,,,,2.87,2.70,0.98*05
$GPRMC,233754.500,A,4730.1469,N,12215.7754,W,0.17,112.09,101120,,,A*7D
$GPVTG,112.09,T,,M,0.17,N,0.32,K,A*31
$GPGGA,233754.750,4730.1469,N,12215.7754,W,1,04,2.70,75.1,M,-17.4,M,,*6B
$GPGSA,A,3,22,09,03,04,,,,,,,,,2.88,2.70,0.98*0A
$GPGSV,2,1,06,04,80,055,24,09,53,297,21,03,40,176,20,22,20,168,23*7F
$GPGSV,2,2,06,46,,,29,16,,,23*70
$GPRMC,233754.750,A,4730.1469,N,12215.7754,W,0.17,117.07,101120,,,A*71
$GPVTG,117.07,T,,M,0.17,N,0.32,K,A*3A
$GPGGA,233755.000,4730.1469,N,12215.7754,W,1,04,2.70,75.1,M,-17.4,M,,*68
$GPGSA,A,3,22,09,03,04,,,,,,,,,2.87,2.70,0.98*05
$GPRMC,233755.000,A,4730.1469,N,12215.7754,W,0.17,121.98,101120,,,A*71
$GPVTG,121.98,T,,M,0.17,N,0.32,K,A*39
$GPGGA,233755.250,4730.1469,N,12215.7754,W,1,04,2.70,75.1,M,-17.4,M,,*6F
$GPGSA,A,3,22,09,03,04,,,,,,,,,2.87,2.70,0.98*05
$GPRMC,233755.250,A,4730.1469,N,12215.7754,W,0.17,123.79,101120,,,A*7B
$GPVTG,123.79,T,,M,0.17,N,0.32,K,A*34
$GPGGA,233755.500,4730.1469,N,12215.7753,W,1,04,2.70,75.1,M,-17.4,M,,*6A
$GPGSA,A,3,22,09,03,04,,,,,,,,,2.87,2.70,0.98*05
$GPRMC,233755.500,A,4730.1469,N,12215.7753,W,0.18,125.20,101120,,,A*7B
$GPVTG,125.20,T,,M,0.18,N,0.33,K,A*30
$GPGGA,233755.750,4730.1469,N,12215.7753,W,1,04,2.70,75.1,M,-17.4,M,,*6D
$GPGSA,A,3,22,09,03,04,,,,,,,,,2.87,2.70,0.98*05
$GPRMC,233755.750,A,4730.1469,N,12215.7753,W,0.18,129.20,101120,,,A*70
$GPVTG,129.20,T,,M,0.18,N,0.33,K,A*3C
$GPGGA,233756.000,4730.1469,N,12215.7753,W,1,04,2.70,75.1,M,-17.4,M,,*6C
$GPGSA,A,3,22,09,03,04,,,,,,,,,2.87,2.70,0.98*05
$GPGSV,2,1,06,04,80,055,24,09,53,297,21,03,40,176,20,22,20,168,23*7F
$GPGSV,2,2,06,46,,,29,16,,,24*77
$GPRMC,233756.000,A,4730.1469,N,12215.7753,W,0.17,129.91,101120,,,A*74
$GPVTG,129.91,T,,M,0.17,N,0.32,K,A*38
$GPGGA,233756.250,4730.1469,N,12215.7753,W,1,04,2.70,75.1,M,-17.4,M,,*6B
$GPGSA,A,3,22,09,03,04,,,,,,,,,2.87,2.70,0.98*05
$GPRMC,233756.250,A,4730.1469,N,12215.7753,W,0.17,130.61,101120,,,A*74
$GPVTG,130.61,T,,M,0.17,N,0.32,K,A*3F
$GPGGA,233756.500,4730.1469,N,12215.7753,W,1,04,2.70,75.1,M,-17.4,M,,*69
$GPGSA,A,3,22,09,03,04,,,,,,,,,2.87,2.70,0.98*05
$GPRMC,233756.500,A,4730.1469,N,12215.7753,W,0.17,130.09,101120,,,A*78
$GPVTG,130.09,T,,M,0.17,N,0.31,K,A*32
$GPGGA,233756.750,4730.1469,N,12215.7753,W,1,04,2.70,75.1,M,-17.4,M,,*6E
$GPGSA,A,3,22,09,03,04,,,,,,,,,2.87,2.70,0.98*05
$GPRMC,233756.750,A,4730.1469,N,12215.7753,W,0.17,130.11,101120,,,A*76
$GPVTG,130.11,T,,M,0.17,N,0.31,K,A*3B
$GPGGA,233757.000,4730.1468,N,12215.7753,W,1,04,2.70,75.1,M,-17.4,M,,*6C
$GPGSA,A,3,22,09,03,04,,,,,,,,,2.87,2.70,0.98*05
$GPRMC,233757.000,A,4730.1468,N,12215.7753,W,0.15,127.91,101120,,,A*78
$GPVTG,127.91,T,,M,0.15,N,0.29,K,A*3E
$GPGGA,233757.250,4730.1468,N,12215.7753,W,1,04,2.70,75.1,M,-17.4,M,,*6B
$GPGSA,A,3,22,09,03,04,,,,,,,,,2.87,2.70,0.98*05
$GPGSV,2,1,06,04,80,055,24,09,53,297,21,03,40,176,20,22,20,168,23*7F
$GPGSV,2,2,06,46,,,29,16,,,24*77
$GPRMC,233757.250,A,4730.1468,N,12215.7753,W,0.14,127.26,101120,,,A*72
$GPVTG,127.26,T,,M,0.14,N,0.27,K,A*3D
$GPGGA,233757.500,4730.1468,N,12215.7752,W,1,04,2.70,75.1,M,-17.4,M,,*68
$GPGSA,A,3,22,09,03,04,,,,,,,,,2.87,2.70,0.98*05
$GPRMC,233757.500,A,4730.1468,N,12215.7752,W,0.13,126.31,101120,,,A*71
$GPVTG,126.31,T,,M,0.13,N,0.24,K,A*3E
$GPGGA,233757.750,4730.1468,N,12215.7752,W,1,04,2.70,75.1,M,-17.4,M,,*6F
$GPGSA,A,3,22,09,03,04,,,,,,,,,2.87,2.70,0.98*05
$GPRMC,233757.750,A,4730.1468,N,12215.7752,W,0.12,128.94,101120,,,A*76
$GPVTG,128.94,T,,M,0.12,N,0.22,K,A*38
$GPGGA,233758.000,4730.1468,N,12215.7752,W,1,04,2.70,75.1,M,-17.4,M,,*62
$GPGSA,A,3,22,09,03,04,,,,,,,,,2.87,2.70,0.98*05
$GPRMC,233758.000,A,4730.1468,N,12215.7752,W,0.11,131.20,101120,,,A*7F
$GPVTG,131.20,T,,M,0.11,N,0.21,K,A*3F
$GPGGA,233758.250,4730.1468,N,12215.7752,W,1,04,2.70,75.1,M,-17.4,M,,*65
$GPGSA,A,3,22,09,03,04,,,,,,,,,2.88,2.70,0.98*0A
$GPRMC,233758.250,A,4730.1468,N,12215.7752,W,0.11,134.39,101120,,,A*75
$GPVTG,134.39,T,,M,0.11,N,0.20,K,A*33
$GPGGA,233758.500,4730.1468,N,12215.7752,W,1,04,2.70,75.1,M,-17.4,M,,*67
$GPGSA,A,3,22,09,03,04,,,,,,,,,2.87,2.70,0.98*05
$GPGSV,2,1,06,04,80,055,24,09,53,297,20,03,40,176,19,22,20,168,23*74
$GPGSV,2,2,06,46,,,29,16,,,23*70
$GPRMC,233758.500,A,4730.1468,N,12215.7752,W,0.11,135.54,101120,,,A*7D
$GPVTG,135.54,T,,M,0.11,N,0.21,K,A*38
$GPGGA,233758.750,4730.1468,N,12215.7752,W,1,04,2.70,75.1,M,-17.4,M,,*60
$GPGSA,A,3,22,09,03,04,,,,,,,,,2.87,2.70,0.98*05
$GPRMC,233758.750,A,4730.1468,N,12215.7752,W,0.11,136.73,101120,,,A*7C
$GPVTG,136.73,T,,M,0.11,N,0.21,K,A*3E
$GPGGA,233759.000,4730.1468,N,12215.7752,W,1,04,2.70,75.1,M,-17.4,M,,*63
$GPGSA,A,3,22,09,03,04,,,,,,,,,2.87,2.70,0.98*05
$GPRMC,233759.000,A,4730.1468,N,12215.7752,W,0.11,137.57,101120,,,A*78
$GPVTG,137.57,T,,M,0.11,N,0.21,K,A*39
$GPGGA,233759.250,4730.1468,N,12215.7752,W,1,04,2.70,75.1,M,-17.4,M,,*64
$GPGSA,A,3,22,09,03,04,,,,,,,,,2.87,2.70,0.98*05
$GPRMC,233759.250,A,4730.1468,N,12215.7752,W,0.12,138.17,101120,,,A*77
$GPVTG,138.17,T,,M,0.12,N,0.22,K,A*32
$GPGGA,233759.500,4730.1468,N,12215.7752,W,1,04,2.70,75.1,M,-17.4,M,,*66
$GPGSA,A,3,22,09,03,04,,,,,,,,,2.87,2.70,0.98*05
$GPRMC,233759.500,A,4730.1468,N,12215.7752,W,0.12,139.56,101120,,,A*71
$GPVTG,139.56,T,,M,0.12,N,0.22,K,A*36
$GPGGA,233759.750,4730.1468,N,12215.7752,W,1,04,2.70,75.1,M,-17.4,M,,*61
$GPGSA,A,3,22,09,03,04,,,,,,,,,2.87,2.70,0.98*05
$GPGSV,2,1,06,04,80,055,24,09,53,297,19,03,40,176,19,22,20,168,22*7F
$GPGSV,2,2,06,46,,,30,16,,,23*78
$GPRMC,233759.750,A,4730.1468,N,12215.7752,W,0.12,138.27,101120,,,A*71
$GPVTG,138.27,T,,M,0.12,N,0.22,K,A*31
$GPGGA,233800.000,4730.1468,N,12215.7752,W,1,04,2.70,75.1,M,-17.4,M,,*60
$GPGSA,A,3,22,09,03,04,,,,,,,,,2.88,2.70,0.98*0A
$GPRMC,233800.000,A,4730.1468,N,12215.7752,W,0.12,147.60,101120,,,A*7B
$GPVTG,147.60,T,,M,0.12,N,0.22,K,A*3A
$GPGGA,233800.250,4730.1468,N,12215.7752,W,1,04,2.70,75.1,M,-17.4,M,,*67
$GPGSA,A,3,22,09,03,04,,,,,,,,,2.87,2.70,0.98*05
$GPRMC,233800.250,A,4730.1468,N,12215.7752,W,0.12,152.37,101120,,,A*7A
$GPVTG,152.37,T,,M,0.12,N,0.22,K,A*3C
$GPGGA,233800.500,4730.1468,N,12215.7752,W,1,04,2.70,75.1,M,-17.4,M,,*65
$GPGSA,A,3,22,09,03,04,,,,,,,,,2.87,2.70,0.98*05
$GPRMC,233800.500,A,4730.1468,N,12215.7752,W,0.12,157.56,101120,,,A*7A
$GPVTG,157.56,T,,M,0.12,N,0.22,K,A*3E
$GPGGA,233800.750,4730.1468,N,12215.7751,W,1,04,2.70,75.1,M,-17.4,M,,*61
$GPGSA,A,3,22,09,03,04,,,,,,,,,2.87,2.70,0.98*05
$GPRMC,233800.750,A,4730.1468,N,12215.7751,W,0.12,164.48,101120,,,A*71
$GPVTG,164.48,T,,M,0.12,N,0.22,K,A*31
$GPGGA,233801.000,4730.1467,N,12215.7751,W,1,04,2.70,75.1,M,-17.4,M,,*6D
$GPGSA,A,3,22,09,03,04,,,,,,,,,2.87,2.70,0.98*05
$GPGSV,2,1,06,04,80,055,24,09,53,297,19,03,40,176,19,22,20,168,22*7F
$GPGSV,2,2,06,46,,,30,16,,,23*78
$GPRMC,233801.000,A,4730.1467,N,12215.7751,W,0.12,177.81,101120,,,A*7A
$GPVTG,177.81,T,,M,0.12,N,0.22,K,A*36
$GPGGA,233801.250,4730.1467,N,12215.7751,W,1,04,2.70,75.1,M,-17.4,M,,*6A
$GPGSA,A,3,22,09,03,04,,,,,,,,,2.87,2.70,0.98*05
$GPRMC,233801.250,A,4730.1467,N,12215.7751,W,0.12,188.03,101120,,,A*77
$GPVTG,188.03,T,,M,0.12,N,0.22,K,A*3C
$GPGGA,233801.500,4730.1467,N,12215.7752,W,1,04,2.70,75.1,M,-17.4,M,,*6B
$GPGSA,A,3,22,09,03,04,,,,,,,,,2.87,2.70,0.98*05
$GPRMC,233801.500,A,4730.1467,N,12215.7752,W,0.11,198.32,101120,,,A*76
$GPVTG,198.32,T,,M,0.11,N,0.21,K,A*3F
$GPGGA,233801.750,4730.1467,N,12215.7752,W,1,04,2.70,75.1,M,-17.4,M,,*6C
$GPGSA,A,3,22,09,03,04,,,,,,,,,2.87,2.70,0.98*05
$GPRMC,233801.750,A,4730.1467,N,12215.7752,W,0.10,207.55,101120,,,A*74
$GPVTG,207.55,T,,M,0.10,N,0.19,K,A*31
$GPGGA,233802.000,4730.1467,N,12215.7752,W,1,04,2.70,75.1,M,-17.4,M,,*6D
$GPGSA,A,3,22,09,03,04,,,,,,,,,2.87,2.70,0.98*05
$GPRMC,233802.000,A,4730.1467,N,12215.7752,W,0.09,226.80,101120,,,A*76
$GPVTG,226.80,T,,M,0.09,N,0.16,K,A*3D
$GPGGA,233802.250,4730.1467,N,12215.7752,W,1,04,2.70,75.1,M,-17.4,M,,*6A
$GPGSA,A,3,22,09,03,04,,,,,,,,,2.87,2.70,0.98*05
$GPGSV,2,1,06,04,80,055,24,09,53,297,19,03,40,176,19,22,20,168,22*7F
$GPGSV,2,2,06,46,,,30,16,,,24*7F
$GPRMC,233802.250,A,4730.1467,N,12215.7752,W,0.10,239.43,101120,,,A*78
$GPVTG,239.43,T,,M,0.10,N,0.18,K,A*3A
$GPGGA,233802.500,4730.1467,N,12215.7752,W,1,04,2.70,75.1,M,-17.4,M,,*68
$GPGSA,A,3,22,09,03,04,,,,,,,,,2.87,2.70,0.98*05
$GPRMC,233802.500,A,4730.1467,N,12215.7752,W,0.11,249.76,101120,,,A*7A
$GPVTG,249.76,T,,M,0.11,N,0.20,K,A*31
$GPGGA,233802.750,4730.1467,N,12215.7752,W,1,04,2.70,75.1,M,-17.4,M,,*6F
$GPGSA,A,3,22,09,03,04,,,,,,,,,2.87,2.70,0.98*05
$GPRMC,233802.750,A,4730.1467,N,12215.7752,W,0.11,256.21,101120,,,A*71
$GPVTG,256.21,T,,M,0.11,N,0.20,K,A*3D
$GPGGA,233803.000,4730.1467,N,12215.7752,W,1,04,2.70,75.1,M,-17.4,M,,*6C
$GPGSA,A,3,22,09,03,04,,,,,,,,,2.87,2.70,0.98*05
$GPRMC,233803.000,A,4730.1467,N,12215.7752,W,0.12,260.19,101120,,,A*7F
$GPVTG,260.19,T,,M,0.12,N,0.22,K,A*32
$GPGGA,233803.250,4730.1467,N,12215.7752,W,1,04,2.70,75.1,M,-17.4,M,,*6B
$GPGSA,A,3,22,09,03,04,,,,,,,,,2.87,2.70,0.98*05
$GPRMC,233803.250,A,4730.1467,N,12215.7752,W,0.13,264.23,101120,,,A*74
$GPVTG,264.23,T,,M,0.13,N,0.25,K,A*39
$GPGGA,233803.500,4730.1467,N,12215.7752,W,1,04,2.70,75.1,M,-17.4,M,,*69
$GPGSA,A,3,22,09,03,04,,,,,,,,,2.87,2.70,0.98*05
$GPGSV,2,1,06,04,80,055,24,09,53,297,19,03,40,176,19,22,20,168,22*7F
$GPGSV,2,2,06,46,,,30,16,,,23*78
$GPRMC,233803.500,A,4730.1467,N,12215.7752,W,0.15,267.84,101120,,,A*7E
$GPVTG,267.84,T,,M,0.15,N,0.28,K,A*3C
$GPGGA,233803.750,4730.1467,N,12215.7753,W,1,04,2.70,75.1,M,-17.4,M,,*6F
$GPGSA,A,3,22,09,03,04,,,,,,,,,2.87,2.70,0.98*05
$GPRMC,233803.750,A,4730.1467,N,12215.7753,W,0.17,268.88,101120,,,A*79
$GPVTG,268.88,T,,M,0.17,N,0.31,K,A*35
$GPGGA,233804.000,4730.1467,N,12215.7753,W,1,04,2.70,75.1,M,-17.4,M,,*6A
$GPGSA,A,3,22,09,03,04,,,,,,,,,2.87,2.70,0.98*05
$GPRMC,233804.000,A,4730.1467,N,12215.7753,W,0.19,271.23,101120,,,A*7B
$GPVTG,271.23,T,,M,0.19,N,0.36,K,A*35
$GPGGA,233804.250,4730.1467,N,12215.7753,W,1,04,2.70,75.1,M,-17.4,M,,*6D
$GPGSA,A,3,22,09,03,04,,,,,,,,,2.87,2.70,0.98*05
$GPRMC,233804.250,A,4730.1467,N,12215.7753,W,0.21,273.86,101120,,,A*7A
$GPVTG,273.86,T,,M,0.21,N,0.39,K,A*3C
$GPGGA,233804.500,4730.1467,N,12215.7753,W,1,04,2.70,75.1,M,-17.4,M,,*6F
$GPGSA,A,3,22,09,03,04,,,,,,,,,2.87,2.70,0.98*05
$GPRMC,233804.500,A,4730.1467,N,12215.7753,W,0.22,277.43,101120,,,A*76
$GPVTG,277.43,T,,M,0.22,N,0.41,K,A*3D
$GPGGA,233804.750,4730.1467,N,12215.7753,W,1,04,2.70,75.1,M,-17.4,M,,*68
$GPGSA,A,3,22,09,03,04,,,,,,,,,2.87,2.70,0.98*05
$GPGSV,2,1,06,04,80,056,24,09,53,297,19,03,40,176,19,22,20,168,22*7C
$GPGSV,2,2,06,46,,,30,16,,,23*78
$GPRMC,233804.750,A,4730.1467,N,12215.7753,W,0.24,282.12,101120,,,A*79
$GPVTG,282.12,T,,M,0.24,N,0.44,K,A*30
$GPGGA,233805.000,4730.1467,N,12215.7754,W,1,04,2.70,75.1,M,-17.4,M,,*6C
$GPGSA,A,3,22,09,03,04,,,,,,,,,2.87,2.70,0.98*05
$GPRMC,233805.000,A,4730.1467,N,12215.7754,W,0.24,288.31,101120,,,A*76
$GPVTG,288.31,T,,M,0.24,N,0.45,K,A*3A
$GPGGA,233805.250,4730.1467,N,12215.7754,W,1,04,2.70,75.1,M,-17.4,M,,*6B
$GPGSA,A,3,22,09,03,04,,,,,,,,,2.87,2.70,0.98*05
$GPRMC,233805.250,A,4730.1467,N,12215.7754,W,0.26,290.35,101120,,,A*7E
$GPVTG,290.35,T,,M,0.26,N,0.49,K,A*39
$GPGGA,233805.500,4730.1467,N,12215.7754,W,1,04,2.70,75.1,M,-17.4,M,,*69
$GPGSA,A,3,22,09,03,04,,,,,,,,,2.87,2.70,0.98*05
$GPRMC,233805.500,A,4730.1467,N,12215.7754,W,0.28,292.62,101120,,,A*72
$GPVTG,292.62,T,,M,0.28,N,0.52,K,A*3D
$GPGGA,233805.750,4730.1467,N,12215.7754,W,1,04,2.70,75.1,M,-17.4,M,,*6E
$GPGSA,A,3,22,09,03,04,,,,,,,,,2.87,2.70,0.98*05
$GPRMC,233805.750,A,4730.1467,N,12215.7754,W,0.29,294.50,101120,,,A*73
$GPVTG,294.50,T,,M,0.29,N,0.54,K,A*3D
$GPGGA,233806.000,4730.1467,N,12215.7755,W,1,04,2.70,75.1,M,-17.4,M,,*6E
$GPGSA,A,3,22,09,03,04,,,,,,,,,2.87,2.70,0.98*05
$GPGSV,2,1,06,04,80,056,24,09,53,297,19,03,40,176,19,22,20,168,22*7C
$GPGSV,2,2,06,46,,,29,16,,,22*71
$GPRMC,233806.000,A,4730.1467,N,12215.7755,W,0.30,295.83,101120,,,A*74
$GPVTG,295.83,T,,M,0.30,N,0.56,K,A*38
$GPGGA,233806.250,4730.1468,N,12215.7755,W,1,04,2.70,75.1,M,-17.4,M,,*66
$GPGSA,A,3,22,09,03,04,,,,,,,,,2.88,2.70,0.98*0A
$GPRMC,233806.250,A,4730.1468,N,12215.7755,W,0.31,294.31,101120,,,A*75
$GPVTG,294.31,T,,M,0.31,N,0.57,K,A*30
$GPGGA,233806.500,4730.1468,N,12215.7755,W,1,04,2.70,75.1,M,-17.4,M,,*64
$GPGSA,A,3,22,09,03,04,,,,,,,,,2.87,2.70,0.98*05
$GPRMC,233806.500,A,4730.1468,N,12215.7755,W,0.30,293.27,101120,,,A*76
$GPVTG,293.27,T,,M,0.30,N,0.56,K,A*30
$GPGGA,233806.750,4730.1468,N,12215.7756,W,1,04,2.70,75.1,M,-17.4,M,,*60
$GPGSA,A,3,22,09,03,04,,,,,,,,,2.87,2.70,0.98*05
$GPRMC,233806.750,A,4730.1468,N,12215.7756,W,0.29,289.31,101120,,,A*76
$GPVTG,289.31,T,,M,0.29,N,0.55,K,A*37
$GPGGA,233807.000,4730.1468,N,12215.7756,W,1,04,2.70,75.1,M,-17.4,M,,*63
$GPGSA,A,3,22,09,03,04,,,,,,,,,2.87,2.70,0.98*05
$GPRMC,233807.000,A,4730.1468,N,12215.7756,W,0.30,286.78,101120,,,A*7F
$GPVTG,286.78,T,,M,0.30,N,0.55,K,A*3D
$GPGGA,233807.250,4730.1468,N,12215.7756,W,1,04,2.70,75.1,M,-17.4,M,,*64
$GPGSA,A,3,22,09,03,04,,,,,,,,,2.87,2.70,0.98*05
$GPGSV,2,1,06,04,80,056,25,09,53,297,19,03,40,176,19,22,20,168,22*7D
$GPGSV,2,2,06,46,,,29,16,,,23*70
$GPRMC,233807.250,A,4730.1468,N,12215.7756,W,0.31,285.58,101120,,,A*78
$GPVTG,285.58,T,,M,0.31,N,0.57,K,A*3F
$GPGGA,233807.500,4730.1468,N,12215.7757,W,1,04,2.70,75.1,M,-17.4,M,,*67
$GPGSA,A,3,22,09,03,04,,,,,,,,,2.87,2.70,0.98*05
$GPRMC,233807.500,A,4730.1468,N,12215.7757,W,0.31,283.85,101120,,,A*7D
$GPVTG,283.85,T,,M,0.31,N,0.58,K,A*36
$GPGGA,233807.750,4730.1468,N,12215.7757,W,1,04,2.70,75.1,M,-17.4,M,,*60
$GPGSA,A,3,22,09,03,04,,,,,,,,,2.87,2.70,0.98*05
$GPRMC,233807.750,A,4730.1468,N,12215.7757,W,0.31,281.55,101120,,,A*75
$GPVTG,281.55,T,,M,0.31,N,0.58,K,A*39
$GPGGA,233808.000,4730.1468,N,12215.7757,W,1,04,2.70,75.1,M,-17.4,M,,*6D
$GPGSA,A,3,22,09,03,04,,,,,,,,,2.87,2.70,0.98*05
$GPRMC,233808.000,A,4730.1468,N,12215.7757,W,0.31,278.75,101120,,,A*7C
$GPVTG,278.75,T,,M,0.31,N,0.57,K,A*32
$GPGGA,233808.250,4730.1468,N,12215.7758,W,1,04,2.70,75.1,M,-17.4,M,,*65
$GPGSA,A,3,22,09,03,04,,,,,,,,,2.87,2.70,0.98*05
$GPRMC,233808.250,A,4730.1468,N,12215.7758,W,0.31,277.77,101120,,,A*79
$GPVTG,277.77,T,,M,0.31,N,0.57,K,A*3F
$GPGGA,233808.500,4730.1468,N,12215.7758,W,1,04,2.70,75.1,M,-17.4,M,,*67
$GPGSA,A,3,22,09,03,04,,,,,,,,,2.87,2.70,0.98*05
$GPGSV,2,1,06,04,80,056,24,09,53,297,19,03,40,176,20,22,20,168,21*75
$GPGSV,2,2,06,46,,,29,16,,,23*70
$GPRMC,233808.500,A,4730.1468,N,12215.7758,W,0.31,276.36,101120,,,A*7F
$GPVTG,276.36,T,,M,0.31,N,0.58,K,A*34
$GPGGA,233808.750,4730.1468,N,12215.7758,W,1,04,2.70,75.1,M,-17.4,M,,*60
$GPGSA,A,3,22,09,03,04,,,,,,,,,2.87,2.70,0.98*05
$GPRMC,233808.750,A,4730.1468,N,12215.7758,W,0.32,276.15,101120,,,A*7A
$GPVTG,276.15,T,,M,0.32,N,0.59,K,A*37
$GPGGA,233809.000,4730.1468,N,12215.7759,W,1,04,2.70,75.1,M,-17.4,M,,*62
$GPGSA,A,3,22,09,03,04,,,,,,,,,2.87,2.70,0.98*05
$GPRMC,233809.000,A,4730.1468,N,12215.7759,W,0.33,275.06,101120,,,A*78
$GPVTG,275.06,T,,M,0.33,N,0.62,K,A*3F
$GPGGA,233809.250,4730.1468,N,12215.7759,W,1,04,2.70,75.1,M,-17.4,M,,*65
$GPGSA,A,3,22,09,03,04,,,,,,,,,2.87,2.70,0.98*05
$GPRMC,233809.250,A,4730.1468,N,12215.7759,W,0.34,275.06,101120,,,A*78
$GPVTG,275.06,T,,M,0.34,N,0.64,K,A*3E
$GPGGA,233809.500,4730.1468,N,12215.7759,W,1,04,2.70,75.1,M,-17.4,M,,*67
$GPGSA,A,3,22,09,03,04,,,,,,,,,2.87,2.70,0.98*05
$GPRMC,233809.500,A,4730.1468,N,12215.7759,W,0.36,275.63,101120,,,A*7B
$GPVTG,275.63,T,,M,0.36,N,0.66,K,A*3D
$GPGGA,233809.750,4730.1468,N,12215.7760,W,1,04,2.70,75.1,M,-17.4,M,,*6A
$GPGSA,A,3,22,09,03,04,,,,,,,,,2.87,2.70,0.98*05
$GPGSV,2,1,06,04,80,056,24,09,53,297,19,03,40,176,20,22,20,168,22*76
$GPGSV,2,2,06,46,,,29,16,,,23*70
$GPRMC,233809.750,A,4730.1468,N,12215.7760,W,0.37,274.61,101120,,,A*74
$GPVTG,274.61,T,,M,0.37,N,0.69,K,A*30
$GPGGA,233810.000,4730.1468,N,12215.7760,W,1,04,2.70,75.1,M,-17.4,M,,*60
$GPGSA,A,3,22,09,03,04,,,,,,,,,2.87,2.70,0.98*05
$GPRMC,233810.000,A,4730.1468,N,12215.7760,W,0.38,274.76,101120,,,A*77
$GPVTG,274.76,T,,M,0.38,N,0.71,K,A*30
$GPGGA,233810.250,4730.1468,N,12215.7760,W,1,04,2.70,75.1,M,-17.4,M,,*67
$GPGSA,A,3,22,09,03,04,,,,,,,,,2.87,2.70,0.98*05
$GPRMC,233810.250,A,4730.1468,N,12215.7760,W,0.40,275.55,101120,,,A*7F
$GPVTG,275.55,T,,M,0.40,N,0.75,K,A*3B
$GPGGA,233810.500,4730.1468,N,12215.7761,W,1,04,2.70,75.1,M,-17.4,M,,*64
$GPGSA,A,3,22,09,03,04,,,,,,,,,2.87,2.70,0.98*05
$GPRMC,233810.500,A,4730.1468,N,12215.7761,W,0.42,276.18,101120,,,A*74
$GPVTG,276.18,T,,M,0.42,N,0.78,K,A*3E
$GPGGA,233810.750,4730.1468,N,12215.7761,W,1,04,2.70,75.1,M,-17.4,M,,*63
$GPGSA,A,3,22,09,03,04,,,,,,,,,2.87,2.70,0.98*05
$GPRMC,233810.750,A,4730.1468,N,12215.7761,W,0.44,277.21,101120,,,A*7E
$GPVTG,277.21,T,,M,0.44,N,0.82,K,A*36
$GPGGA,233811.000,4730.1468,N,12215.7762,W,1,04,2.70,75.1,M,-17.4,M,,*63
$GPGSA,A,3,22,09,03,04,,,,,,,,,2.87,2.70,0.98*05
$GPGSV,2,1,06,04,80,056,25,09,53,297,20,03,40,176,20,22,20,168,22*7D
$GPGSV,2,2,06,46,,,29,16,,,22*71
$GPRMC,233811.000,A,4730.1468,N,12215.7762,W,0.47,279.05,101120,,,A*75
$GPVTG,279.05,T,,M,0.47,N,0.87,K,A*38
$GPGGA,233811.250,4730.1468,N,12215.7762,W,1,04,2.70,75.1,M,-17.4,M,,*64
$GPGSA,A,3,22,09,03,04,,,,,,,,,2.87,2.70,0.98*05
$GPRMC,233811.250,A,4730.1468,N,12215.7762,W,0.49,279.24,101120,,,A*7F
$GPVTG,279.24,T,,M,0.49,N,0.90,K,A*33
$GPGGA,233811.500,4730.1468,N,12215.7763,W,1,04,2.70,75.1,M,-17.4,M,,*67
$GPGSA,A,3,22,09,03,04,,,,,,,,,2.87,2.70,0.98*05
$GPRMC,233811.500,A,4730.1468,N,12215.7763,W,0.50,279.29,101120,,,A*79
$GPVTG,279.29,T,,M,0.50,N,0.92,K,A*34
$GPGGA,233811.750,4730.1468,N,12215.7763,W,1,04,2.70,75.1,M,-17.4,M,,*60
$GPGSA,A,3,22,09,03,04,,,,,,,,,2.87,2.70,0.98*05
$GPRMC,233811.750,A,4730.1468,N,12215.7763,W,0.51,279.22,101120,,,A*74
$GPVTG,279.22,T,,M,0.51,N,0.95,K,A*39
$GPGGA,233812.000,4730.1468,N,12215.7764,W,1,04,2.70,75.1,M,-17.4,M,,*66
$GPGSA,A,3,22,09,03,04,,,,,,,,,2.87,2.70,0.98*05
$GPRMC,233812.000,A,4730.1468,N,12215.7764,W,0.53,278.35,101120,,,A*77
$GPVTG,278.35,T,,M,0.53,N,0.99,K,A*30
$GPGGA,233812.250,4730.1469,N,12215.7765,W,1,04,2.70,75.1,M,-17.4,M,,*61
$GPGSA,A,3,22,09,03,04,,,,,,,,,2.87,2.70,0.98*05
$GPGSV,2,1,06,04,80,056,25,09,53,297,20,03,40,176,20,22,20,168,22*7D
$GPGSV,2,2,06,46,,,29,16,,,21*72
$GPRMC,233812.250,A,4730.1469,N,12215.7765,W,0.54,278.50,101120,,,A*74
$GPVTG,278.50,T,,M,0.54,N,1.01,K,A*34
$GPGGA,233812.500,4730.1469,N,12215.7765,W,1,04,2.70,75.1,M,-17.4,M,,*63
$GPGSA,A,3,22,09,03,04,,,,,,,,,2.87,2.70,0.98*05
$GPRMC,233812.500,A,4730.1469,N,12215.7765,W,0.56,277.53,101120,,,A*78
$GPVTG,277.53,T,,M,0.56,N,1.03,K,A*38
$GPGGA,233812.750,4730.1469,N,12215.7766,W,1,04,2.70,75.1,M,-17.4,M,,*67
$GPGSA,A,3,22,09,03,04,,,,,,,,,2.87,2.70,0.98*05
$GPRMC,233812.750,A,4730.1469,N,12215.7766,W,0.56,276.36,101120,,,A*7E
$GPVTG,276.36,T,,M,0.56,N,1.04,K,A*3D
$GPGGA,233813.000,4730.1469,N,12215.7766,W,1,04,2.70,75.1,M,-17.4,M,,*64
$GPGSA,A,3,22,09,03,04,,,,,,,,,2.87,2.70,0.98*05
$GPRMC,233813.000,A,4730.1469,N,12215.7766,W,0.56,274.61,101120,,,A*7D
$GPVTG,274.61,T,,M,0.56,N,1.03,K,A*3A
$GPGGA,233813.250,4730.1469,N,12215.7767,W,1,04,2.70,75.1,M,-17.4,M,,*62
$GPGSA,A,3,22,09,03,04,,,,,,,,,2.87,2.70,0.98*05
$GPRMC,233813.250,A,4730.1469,N,12215.7767,W,0.54,273.77,101120,,,A*79
$GPVTG,273.77,T,,M,0.54,N,1.01,K,A*3A
$GPGGA,233813.500,4730.1469,N,12215.7767,W,1,04,2.70,75.1,M,-17.4,M,,*60
$GPGSA,A,3,22,09,03,04,,,,,,,,,2.87,2.70,0.98*05
$GPGSV,2,1,06,04,80,056,25,09,53,297,20,03,40,176,19,22,20,168,22*77
$GPGSV,2,2,06,46,,,29,16,,,21*72
$GPRMC,233813.500,A,4730.1469,N,12215.7767,W,0.55,273.80,101120,,,A*72
$GPVTG,273.80,T,,M,0.55,N,1.02,K,A*30
$GPGGA,233813.750,4730.1469,N,12215.7768,W,1,04,2.70,75.1,M,-17.4,M,,*68
$GPGSA,A,3,22,09,03,04,,,,,,,,,2.87,2.70,0.98*05
$GPRMC,233813.750,A,4730.1469,N,12215.7768,W,0.55,274.95,101120,,,A*79
$GPVTG,274.95,T,,M,0.55,N,1.02,K,A*33
$GPGGA,233814.000,4730.1469,N,12215.7769,W,1,04,2.70,75.1,M,-17.4,M,,*6C
$GPGSA,A,3,22,09,03,04,,,,,,,,,2.87,2.70,0.98*05
$GPRMC,233814.000,A,4730.1469,N,12215.7769,W,0.56,275.48,101120,,,A*7F
$GPVTG,275.48,T,,M,0.56,N,1.03,K,A*30
$GPGGA,233814.250,4730.1469,N,12215.7769,W,1,04,2.70,75.1,M,-17.4,M,,*6B
$GPGSA,A,3,22,09,03,04,,,,,,,,,2.87,2.70,0.98*05
$GPRMC,233814.250,A,4730.1469,N,12215.7769,W,0.56,275.30,101120,,,A*77
$GPVTG,275.30,T,,M,0.56,N,1.05,K,A*39
$GPGGA,233814.500,4730.1469,N,12215.7770,W,1,04,2.70,75.1,M,-17.4,M,,*61
$GPGSA,A,3,22,09,03,04,,,,,,,,,2.87,2.70,0.98*05
$GPRMC,233814.500,A,4730.1469,N,12215.7770,W,0.56,276.46,101120,,,A*7F
$GPVTG,276.46,T,,M,0.56,N,1.04,K,A*3A
$GPGGA,233814.750,4730.1469,N,12215.7770,W,1,04,2.70,75.1,M,-17.4,M,,*66
$GPGSA,A,3,22,09,03,04,,,,,,,,,2.87,2.70,0.98*05
$GPGSV,2,1,06,04,80,056,25,09,53,297,20,03,40,176,19,22,20,168,22*77
$GPGSV,2,2,06,46,,,29,16,,,22*71
$GPRMC,233814.750,A,4730.1469,N,12215.7770,W,0.56,279.19,101120,,,A*7D
$GPVTG,279.19,T,,M,0.56,N,1.03,K,A*38
$GPGGA,233815.000,4730.1469,N,12215.7771,W,1,04,2.70,75.1,M,-17.4,M,,*64
$GPGSA,A,3,22,09,03,04,,,,,,,,,2.87,2.70,0.98*05
$GPRMC,233815.000,A,4730.1469,N,12215.7771,W,0.55,281.16,101120,,,A*74
$GPVTG,281.16,T,,M,0.55,N,1.02,K,A*32
$GPGGA,233815.250,4730.1469,N,12215.7771,W,1,04,2.70,75.1,M,-17.4,M,,*63
$GPGSA,A,3,22,09,03,04,,,,,,,,,2.87,2.70,0.98*05
$GPRMC,233815.250,A,4730.1469,N,12215.7771,W,0.57,281.51,101120,,,A*72
$GPVTG,281.51,T,,M,0.57,N,1.05,K,A*34
$GPGGA,233815.500,4730.1469,N,12215.7772,W,1,04,2.70,75.1,M,-17.4,M,,*62
$GPGSA,A,3,22,09,03,04,,,,,,,,,2.87,2.70,0.98*05
$GPRMC,233815.500,A,4730.1469,N,12215.7772,W,0.58,281.85,101120,,,A*75
$GPVTG,281.85,T,,M,0.58,N,1.08,K,A*3F
$GPGGA,233815.750,4730.1469,N,12215.7775,W,1,04,2.70,75.1,M,-17.4,M,,*62
$GPGSA,A,3,22,09,03,04,,,,,,,,,2.87,2.70,0.98*05
$GPRMC,233815.750,A,4730.1469,N,12215.7775,W,0.61,281.65,101120,,,A*71
$GPVTG,281.65,T,,M,0.61,N,1.13,K,A*31
$GPGGA,233816.000,4730.1469,N,12215.7777,W,1,04,2.70,75.1,M,-17.4,M,,*61
$GPGSA,A,3,22,09,03,04,,,,,,,,,2.87,2.70,0.98*05
$GPGSV,2,1,06,04,80,056,25,09,53,297,20,03,40,176,20,22,20,168,23*7C
$GPGSV,2,2,06,46,,,29,16,,,22*71
$GPRMC,233816.000,A,4730.1469,N,12215.7777,W,0.63,282.08,101120,,,A*78
$GPVTG,282.08,T,,M,0.63,N,1.17,K,A*3F
$GPGGA,233816.250,4730.1470,N,12215.7779,W,1,04,2.70,75.1,M,-17.4,M,,*60
$GPGSA,A,3,22,09,03,04,,,,,,,,,2.87,2.70,0.98*05
$GPRMC,233816.250,A,4730.1470,N,12215.7779,W,0.65,282.73,101120,,,A*73
$GPVTG,282.73,T,,M,0.65,N,1.20,K,A*31
$GPGGA,233816.500,4730.1470,N,12215.7780,W,1,04,2.70,75.1,M,-17.4,M,,*64
$GPGSA,A,3,22,09,03,04,,,,,,,,,2.87,2.70,0.98*05
$GPRMC,233816.500,A,4730.1470,N,12215.7780,W,0.65,283.32,101120,,,A*73
$GPVTG,283.32,T,,M,0.65,N,1.20,K,A*35
$GPGGA,233816.750,4730.1470,N,12215.7781,W,1,04,2.70,75.1,M,-17.4,M,,*62
$GPGSA,A,3,22,09,03,04,,,,,,,,,2.87,2.70,0.98*05
$GPRMC,233816.750,A,4730.1470,N,12215.7781,W,0.66,283.03,101120,,,A*74
$GPVTG,283.03,T,,M,0.66,N,1.21,K,A*35
$GPGGA,233817.000,4730.1470,N,12215.7783,W,1,04,2.70,75.1,M,-17.4,M,,*63
$GPGSA,A,3,22,09,03,04,,,,,,,,,2.87,2.70,0.98*05
$GPRMC,233817.000,A,4730.1470,N,12215.7783,W,0.67,283.18,101120,,,A*7E
$GPVTG,283.18,T,,M,0.67,N,1.24,K,A*3B
$GPGGA,233817.250,4730.1471,N,12215.7784,W,1,04,2.70,75.1,M,-17.4,M,,*62
$GPGSA,A,3,22,09,03,04,,,,,,,,,2.87,2.70,0.98*05
$GPGSV,2,1,06,04,80,056,25,09,53,297,20,03,40,176,20,22,20,168,23*7C
$GPGSV,2,2,06,46,,,29,16,,,22*71
$GPRMC,233817.250,A,4730.1471,N,12215.7784,W,0.67,283.94,101120,,,A*7B
$GPVTG,283.94,T,,M,0.67,N,1.23,K,A*38
$GPGGA,233817.500,4730.1471,N,12215.7784,W,1,04,2.70,75.1,M,-17.4,M,,*60
$GPGSA,A,3,22,09,03,04,,,,,,,,,2.87,2.70,0.98*05
$GPRMC,233817.500,A,4730.1471,N,12215.7784,W,0.65,284.92,101120,,,A*7A
$GPVTG,284.92,T,,M,0.65,N,1.21,K,A*39
$GPGGA,233817.750,4730.1471,N,12215.7785,W,1,04,2.70,75.1,M,-17.4,M,,*66
$GPGSA,A,3,22,09,03,04,,,,,,,,,2.87,2.70,0.98*05
$GPRMC,233817.750,A,4730.1471,N,12215.7785,W,0.65,284.76,101120,,,A*76
$GPVTG,284.76,T,,M,0.65,N,1.21,K,A*33
$GPGGA,233818.000,4730.1471,N,12215.7786,W,1,04,2.70,75.2,M,-17.4,M,,*6B
$GPGSA,A,3,22,09,03,04,,,,,,,,,2.87,2.70,0.98*05
$GPRMC,233818.000,A,4730.1471,N,12215.7786,W,0.65,284.05,101120,,,A*7C
$GPVTG,284.05,T,,M,0.65,N,1.21,K,A*37
$GPGGA,233818.250,4730.1471,N,12215.7788,W,1,04,2.70,75.2,M,-17.4,M,,*62
$GPGSA,A,3,22,09,03,04,,,,,,,,,2.87,2.70,0.98*05
$GPRMC,233818.250,A,4730.1471,N,12215.7788,W,0.66,283.83,101120,,,A*7F
$GPVTG,283.83,T,,M,0.66,N,1.23,K,A*3F
$GPGGA,233818.500,4730.1471,N,12215.7790,W,1,04,2.70,75.2,M,-17.4,M,,*69
$GPGSA,A,3,22,09,03,04,,,,,,,,,2.87,2.70,0.98*05
$GPGSV,2,1,06,04,80,056,25,09,53,297,21,03,40,176,20,22,20,168,22*7C
$GPGSV,2,2,06,46,,,29,16,,,21*72
$GPRMC,233818.500,A,4730.1471,N,12215.7790,W,0.67,282.40,101120,,,A*7B
$GPVTG,282.40,T,,M,0.67,N,1.25,K,A*36
$GPGGA,233818.750,4730.1471,N,12215.7791,W,1,04,2.70,75.2,M,-17.4,M,,*6F
$GPGSA,A,3,22,09,03,04,,,,,,,,,2.87,2.70,0.98*05
$GPRMC,233818.750,A,4730.1471,N,12215.7791,W,0.68,280.67,101120,,,A*75
$GPVTG,280.67,T,,M,0.68,N,1.25,K,A*3E
$GPGGA,233819.000,4730.1471,N,12215.7793,W,1,04,2.70,75.2,M,-17.4,M,,*6E
$GPGSA,A,3,22,09,03,04,,,,,,,,,2.87,2.70,0.98*05
$GPRMC,233819.000,A,4730.1471,N,12215.7793,W,0.68,279.78,101120,,,A*7C
$GPVTG,279.78,T,,M,0.68,N,1.26,K,A*35
$GPGGA,233819.250,4730.1471,N,12215.7795,W,1,04,2.70,75.2,M,-17.4,M,,*6F
$GPGSA,A,3,22,09,03,04,,,,,,,,,2.87,2.70,0.98*05
$GPRMC,233819.250,A,4730.1471,N,12215.7795,W,0.69,279.62,101120,,,A*77
$GPVTG,279.62,T,,M,0.69,N,1.28,K,A*31
$GPGGA,233819.500,4730.1470,N,12215.7796,W,1,04,2.70,75.2,M,-17.4,M,,*6F
$GPGSA,A,3,22,09,03,04,,,,,,,,,2.87,2.70,0.98*05
$GPRMC,233819.500,A,4730.1470,N,12215.7796,W,0.70,279.01,101120,,,A*7A
$GPVTG,279.01,T,,M,0.70,N,1.29,K,A*3D
$GPGGA,233819.750,4730.1470,N,12215.7798,W,1,04,2.70,75.2,M,-17.4,M,,*66
$GPGSA,A,3,22,09,03,04,,,,,,,,,2.87,2.70,0.98*05
$GPGSV,2,1,06,04,80,056,26,09,53,297,21,03,40,176,20,22,20,168,22*7F
$GPGSV,2,2,06,46,,,29,16,,,21*72
$GPRMC,233819.750,A,4730.1470,N,12215.7798,W,0.69,278.56,101120,,,A*78
$GPVTG,278.56,T,,M,0.69,N,1.29,K,A*36
$GPGGA,233820.000,4730.1470,N,12215.7799,W,1,04,2.70,75.2,M,-17.4,M,,*6F
$GPGSA,A,3,22,09,03,04,,,,,,,,,2.87,2.70,0.98*05
$GPRMC,233820.000,A,4730.1470,N,12215.7799,W,0.69,277.85,101120,,,A*70
$GPVTG,277.85,T,,M,0.69,N,1.28,K,A*36
$GPGGA,233820.250,4730.1470,N,12215.7800,W,1,04,2.70,75.2,M,-17.4,M,,*67
$GPGSA,A,3,22,09,03,04,,,,,,,,,2.87,2.70,0.98*05
$GPRMC,233820.250,A,4730.1470,N,12215.7800,W,0.67,276.82,101120,,,A*70
$GPVTG,276.82,T,,M,0.67,N,1.25,K,A*33
$GPGGA,233820.500,4730.1470,N,12215.7801,W,1,04,2.70,75.2,M,-17.4,M,,*64
$GPGSA,A,3,22,09,03,04,,,,,,,,,2.87,2.70,0.98*05
$GPRMC,233820.500,A,4730.1470,N,12215.7801,W,0.67,276.44,101120,,,A*79
$GPVTG,276.44,T,,M,0.67,N,1.25,K,A*39
$GPGGA,233820.750,4730.1470,N,12215.7802,W,1,04,2.70,75.2,M,-17.4,M,,*60
$GPGSA,A,3,22,09,03,04,,,,,,,,,2.87,2.70,0.98*05
$GPRMC,233820.750,A,4730.1470,N,12215.7802,W,0.66,275.00,101120,,,A*7F
$GPVTG,275.00,T,,M,0.66,N,1.23,K,A*3D
$GPGGA,233821.000,4730.1469,N,12215.7803,W,1,04,2.70,75.3,M,-17.4,M,,*6B
$GPGSA,A,3,22,09,03,04,,,,,,,,,2.87,2.70,0.98*05
$GPGSV,2,1,06,04,80,056,26,09,53,297,21,03,40,176,21,22,20,168,22*7E
$GPGSV,2,2,06,46,,,29,16,,,21*72
$GPRMC,233821.000,A,4730.1469,N,12215.7803,W,0.64,272.54,101120,,,A*71
$GPVTG,272.54,T,,M,0.64,N,1.19,K,A*30
$GPGGA,233821.250,4730.1469,N,12215.7803,W,1,04,2.70,75.3,M,-17.4,M,,*6C
$GPGSA,A,3,22,09,03,04,,,,,,,,,2.87,2.70,0.98*05
$GPRMC,233821.250,A,4730.1469,N,12215.7803,W,0.63,270.11,101120,,,A*72
$GPVTG,270.11,T,,M,0.63,N,1.16,K,A*3B
$GPGGA,233821.500,4730.1469,N,12215.7804,W,1,04,2.70,75.3,M,-17.4,M,,*69
$GPGSA,A,3,22,09,03,04,,,,,,,,,2.87,2.70,0.98*05
$GPRMC,233821.500,A,4730.1469,N,12215.7804,W,0.62,269.12,101120,,,A*7D
$GPVTG,269.12,T,,M,0.62,N,1.16,K,A*31
$GPGGA,233821.750,4730.1469,N,12215.7805,W,1,04,2.70,75.3,M,-17.4,M,,*6F
$GPGSA,A,3,22,09,03,04,,,,,,,,,2.87,2.70,0.98*05
$GPRMC,233821.750,A,4730.1469,N,12215.7805,W,0.62,268.02,101120,,,A*7B
$GPVTG,268.02,T,,M,0.62,N,1.14,K,A*33
$GPGGA,233822.000,4730.1468,N,12215.7806,W,1,04,2.70,75.3,M,-17.4,M,,*6C
$GPGSA,A,3,22,09,03,04,,,,,,,,,2.87,2.70,0.98*05
$GPRMC,233822.000,A,4730.1468,N,12215.7806,W,0.61,266.70,101120,,,A*70
$GPVTG,266.70,T,,M,0.61,N,1.13,K,A*3C
$GPGGA,233822.250,4730.1468,N,12215.7807,W,1,04,2.70,75.3,M,-17.4,M,,*6A
$GPGSA,A,3,22,09,03,04,,,,,,,,,2.87,2.70,0.98*05
$GPGSV,2,1,06,04,80,056,26,09,53,297,21,03,40,176,21,22,20,168,22*7E
$GPGSV,2,2,06,46,,,29,16,,,21*72
$GPRMC,233822.250,A,4730.1468,N,12215.7807,W,0.61,266.08,101120,,,A*79
$GPVTG,266.08,T,,M,0.61,N,1.13,K,A*33
$GPGGA,233822.500,4730.1468,N,12215.7809,W,1,04,2.70,75.3,M,-17.4,M,,*66
$GPGSA,A,3,22,09,03,04,,,,,,,,,2.87,2.70,0.98*05
$GPRMC,233822.500,A,4730.1468,N,12215.7809,W,0.62,265.62,101120,,,A*79
$GPVTG,265.62,T,,M,0.62,N,1.15,K,A*39
$GPGGA,233822.750,4730.1468,N,12215.7810,W,1,04,2.70,75.3,M,-17.4,M,,*69
$GPGSA,A,3,22,09,03,04,,,,,,,,,2.87,2.70,0.98*05
$GPRMC,233822.750,A,4730.1468,N,12215.7810,W,0.62,265.35,101120,,,A*74
$GPVTG,265.35,T,,M,0.62,N,1.16,K,A*38
$GPGGA,233823.000,4730.1467,N,12215.7812,W,1,04,2.70,75.3,M,-17.4,M,,*67
$GPGSA,A,3,22,09,03,04,,,,,,,,,2.87,2.70,0.98*05
$GPRMC,233823.000,A,4730.1467,N,12215.7812,W,0.64,264.96,101120,,,A*74
$GPVTG,264.96,T,,M,0.64,N,1.18,K,A*38
$GPGGA,233823.250,4730.1467,N,12215.7813,W,1,04,2.70,75.3,M,-17.4,M,,*61
$GPGSA,A,3,22,09,03,04,,,,,,,,,2.87,2.70,0.98*05
$GPRMC,233823.250,A,4730.1467,N,12215.7813,W,0.64,265.77,101120,,,A*7C
$GPVTG,265.77,T,,M,0.64,N,1.19,K,A*37
$GPGGA,233823.500,4730.1467,N,12215.7814,W,1,04,2.70,75.4,M,-17.4,M,,*63
$GPGSA,A,3,22,09,03,04,,,,,,,,,2.87,2.70,0.98*05
$GPGSV,2,1,06,04,80,056,26,09,53,297,21,03,40,176,20,22,20,168,22*7F
$GPGSV,2,2,06,46,,,29,16,,,21*72
$GPRMC,233823.500,A,4730.1467,N,12215.7814,W,0.65,266.50,101120,,,A*7E
$GPVTG,266.50,T,,M,0.65,N,1.20,K,A*3A
$GPGGA,233823.750,4730.1467,N,12215.7815,W,1,04,2.70,75.4,M,-17.4,M,,*65
$GPGSA,A,3,22,09,03,04,,,,,,,,,2.87,2.70,0.98*05
$GPRMC,233823.750,A,4730.1467,N,12215.7815,W,0.66,266.94,101120,,,A*73
$GPVTG,266.94,T,,M,0.66,N,1.21,K,A*30
$GPGGA,233824.000,4730.1467,N,12215.7816,W,1,04,2.70,75.4,M,-17.4,M,,*63
$GPGSA,A,3,22,09,03,04,,,,,,,,,2.87,2.70,0.98*05
$GPRMC,233824.000,A,4730.1467,N,12215.7816,W,0.65,266.24,101120,,,A*7D
$GPVTG,266.24,T,,M,0.65,N,1.20,K,A*39
$GPGGA,233824.250,4730.1467,N,12215.7817,W,1,04,2.70,75.4,M,-17.4,M,,*65
$GPGSA,A,3,22,09,03,04,,,,,,,,,2.87,2.70,0.98*05
$GPRMC,233824.250,A,4730.1467,N,12215.7817,W,0.64,265.36,101120,,,A*7A
$GPVTG,265.36,T,,M,0.64,N,1.19,K,A*32
$GPGGA,233824.500,4730.1467,N,12215.7817,W,1,04,2.70,75.4,M,-17.4,M,,*67
$GPGSA,A,3,22,09,03,04,,,,,,,,,2.87,2.70,0.98*05
$GPRMC,233824.500,A,4730.1467,N,12215.7817,W,0.63,264.41,101120,,,A*7E
$GPVTG,264.41,T,,M,0.63,N,1.17,K,A*3A
$GPGGA,233824.750,4730.1467,N,12215.7817,W,1,04,2.70,75.4,M,-17.4,M,,*60
$GPGSA,A,3,22,09,03,04,,,,,,,,,2.87,2.70,0.98*05
$GPGSV,2,1,06,04,80,056,26,09,53,297,21,03,40,176,20,22,20,168,22*7F
$GPGSV,2,2,06,46,,,29,16,,,21*72
$GPRMC,233824.750,A,4730.1467,N,12215.7817,W,0.61,264.26,101120,,,A*7A
$GPVTG,264.26,T,,M,0.61,N,1.13,K,A*3D
$GPGGA,233825.000,4730.1467,N,12215.7817,W,1,04,2.70,75.4,M,-17.4,M,,*63
$GPGSA,A,3,22,09,03,04,,,,,,,,,2.87,2.70,0.98*05
$GPRMC,233825.000,A,4730.1467,N,12215.7817,W,0.59,264.46,101120,,,A*74
$GPVTG,264.46,T,,M,0.59,N,1.09,K,A*3B
$GPGGA,233825.250,4730.1466,N,12215.7818,W,1,04,2.70,75.4,M,-17.4,M,,*6A
$GPGSA,A,3,22,09,03,04,,,,,,,,,2.87,2.70,0.98*05
$GPRMC,233825.250,A,4730.1466,N,12215.7818,W,0.59,263.85,101120,,,A*75
$GPVTG,263.85,T,,M,0.59,N,1.10,K,A*3B
$GPGGA,233825.500,4730.1466,N,12215.7819,W,1,04,2.70,75.4,M,-17.4,M,,*69
$GPGSA,A,3,22,09,03,04,,,,,,,,,2.87,2.70,0.98*05
$GPRMC,233825.500,A,4730.1466,N,12215.7819,W,0.59,263.61,101120,,,A*7C
$GPVTG,263.61,T,,M,0.59,N,1.10,K,A*31
$GPGGA,233825.750,4730.1466,N,12215.7819,W,1,04,2.70,75.4,M,-17.4,M,,*6E
$GPGSA,A,3,22,09,03,04,,,,,,,,,2.87,2.70,0.98*05
$GPRMC,233825.750,A,4730.1466,N,12215.7819,W,0.59,263.23,101120,,,A*7D
$GPVTG,263.23,T,,M,0.59,N,1.08,K,A*3E
$GPGGA,233826.000,4730.1465,N,12215.7820,W,1,04,2.70,75.4,M,-17.4,M,,*66
$GPGSA,A,3,22,09,03,04,,,,,,,,,2.87,2.70,0.98*05
$GPGSV,2,1,06,04,80,056,26,09,53,297,22,03,40,176,20,22,20,168,22*7C
$GPGSV,2,2,06,46,,,29,16,,,21*72
$GPRMC,233826.000,A,4730.1465,N,12215.7820,W,0.59,261.95,101120,,,A*7A
$GPVTG,261.95,T,,M,0.59,N,1.09,K,A*30
$GPGGA,233826.250,4730.1465,N,12215.7821,W,1,04,2.70,75.4,M,-17.4,M,,*60
$GPGSA,A,3,22,09,03,04,,,,,,,,,2.87,2.70,0.98*05
$GPRMC,233826.250,A,4730.1465,N,12215.7821,W,0.59,261.06,101120,,,A*76
$GPVTG,261.06,T,,M,0.59,N,1.09,K,A*3A
$GPGGA,233826.500,4730.1464,N,12215.7822,W,1,04,2.70,75.5,M,-17.4,M,,*61
$GPGSA,A,3,22,09,03,04,,,,,,,,,2.87,2.70,0.98*05
$GPRMC,233826.500,A,4730.1464,N,12215.7822,W,0.59,259.37,101120,,,A*7F
$GPVTG,259.37,T,,M,0.59,N,1.10,K,A*3B
$GPGGA,233826.750,4730.1464,N,12215.7823,W,1,04,2.70,75.5,M,-17.4,M,,*67
$GPGSA,A,3,22,09,03,04,,,,,,,,,2.87,2.70,0.98*05
$GPRMC,233826.750,A,4730.1464,N,12215.7823,W,0.59,258.70,101120,,,A*7B
$GPVTG,258.70,T,,M,0.59,N,1.09,K,A*31
$GPGGA,233827.000,4730.1465,N,12215.7822,W,1,04,2.70,75.5,M,-17.4,M,,*64
$GPGSA,A,3,22,09,03,04,,,,,,,,,2.87,2.70,0.98*05
$GPRMC,233827.000,A,4730.1465,N,12215.7822,W,0.56,262.37,101120,,,A*7D
$GPVTG,262.37,T,,M,0.56,N,1.03,K,A*3E
$GPGGA,233827.250,4730.1465,N,12215.7822,W,1,04,2.70,75.5,M,-17.4,M,,*63
$GPGSA,A,3,22,09,03,04,,,,,,,,,2.87,2.70,0.98*05
$GPGSV,2,1,06,04,80,056,26,09,53,297,22,03,40,176,21,22,19,168,21*74
$GPGSV,2,2,06,46,,,30,16,,,21*7A
$GPRMC,233827.250,A,4730.1465,N,12215.7822,W,0.56,263.73,101120,,,A*7B
$GPVTG,263.73,T,,M,0.56,N,1.03,K,A*3F
$GPGGA,233827.500,4730.1465,N,12215.7823,W,1,04,2.70,75.5,M,-17.4,M,,*60
$GPGSA,A,3,22,09,03,04,,,,,,,,,2.87,2.70,0.98*05
$GPRMC,233827.500,A,4730.1465,N,12215.7823,W,0.55,264.97,101120,,,A*76
$GPVTG,264.97,T,,M,0.55,N,1.02,K,A*30
$GPGGA,233827.750,4730.1466,N,12215.7823,W,1,04,2.70,75.5,M,-17.4,M,,*64
$GPGSA,A,3,22,09,03,04,,,,,,,,,2.87,2.70,0.98*05
$GPRMC,233827.750,A,4730.1466,N,12215.7823,W,0.54,266.26,101120,,,A*7B
$GPVTG,266.26,T,,M,0.54,N,1.01,K,A*3A
$GPGGA,233828.000,4730.1466,N,12215.7823,W,1,04,2.70,75.5,M,-17.4,M,,*69
$GPGSA,A,3,22,09,03,04,,,,,,,,,2.87,2.70,0.98*05
$GPRMC,233828.000,A,4730.1466,N,12215.7823,W,0.53,267.25,101120,,,A*73
$GPVTG,267.25,T,,M,0.53,N,0.99,K,A*3F
$GPGGA,233828.250,4730.1466,N,12215.7824,W,1,04,2.70,75.5,M,-17.4,M,,*69
$GPGSA,A,3,22,09,03,04,,,,,,,,,2.87,2.70,0.98*05
$GPRMC,233828.250,A,4730.1466,N,12215.7824,W,0.53,266.96,101120,,,A*7A
$GPVTG,266.96,T,,M,0.53,N,0.97,K,A*38
$GPGGA,233828.500,4730.1466,N,12215.7824,W,1,04,2.70,75.5,M,-17.4,M,,*6B
$GPGSA,A,3,22,09,03,04,,,,,,,,,2.87,2.70,0.98*05
$GPGSV,2,1,06,04,80,056,25,09,53,297,22,03,40,176,21,22,19,168,21*77
$GPGSV,2,2,06,46,,,30,16,,,20*7B
$GPRMC,233828.500,A,4730.1466,N,12215.7824,W,0.52,266.48,101120,,,A*7A
$GPVTG,266.48,T,,M,0.52,N,0.97,K,A*3A
$GPGGA,233828.750,4730.1466,N,12215.7825,W,1,04,2.70,75.5,M,-17.4,M,,*6D
$GPGSA,A,3,22,09,03,04,,,,,,,,,2.87,2.70,0.98*05
$GPRMC,233828.750,A,4730.1466,N,12215.7825,W,0.53,264.91,101120,,,A*7B
$GPVTG,264.91,T,,M,0.53,N,0.98,K,A*32
$GPGGA,233829.000,4730.1466,N,12215.7825,W,1,04,2.70,75.5,M,-17.4,M,,*6E
$GPGSA,A,3,22,09,03,04,,,,,,,,,2.87,2.70,0.98*05
$GPRMC,233829.000,A,4730.1466,N,12215.7825,W,0.52,263.94,101120,,,A*7B
$GPVTG,263.94,T,,M,0.52,N,0.96,K,A*3F
$GPGGA,233829.250,4730.1465,N,12215.7825,W,1,04,2.70,75.5,M,-17.4,M,,*6A
$GPGSA,A,3,22,09,03,04,,,,,,,,,2.87,2.70,0.98*05
$GPRMC,233829.250,A,4730.1465,N,12215.7825,W,0.52,262.61,101120,,,A*74
$GPVTG,262.61,T,,M,0.52,N,0.97,K,A*35
$GPGGA,233829.500,4730.1465,N,12215.7826,W,1,04,2.70,75.5,M,-17.4,M,,*6B
$GPGSA,A,3,22,09,03,04,,,,,,,,,2.87,2.70,0.98*05
$GPRMC,233829.500,A,4730.1465,N,12215.7826,W,0.52,262.05,101120,,,A*77
$GPVTG,262.05,T,,M,0.52,N,0.97,K,A*37
$GPGGA,233829.750,4730.1465,N,12215.7826,W,1,04,2.70,75.5,M,-17.4,M,,*6C
$GPGSA,A,3,22,09,03,04,,,,,,,,,2.87,2.70,0.98*05
$GPGSV,2,1,06,04,80,056,25,09,53,297,22,03,40,176,21,22,19,168,22*74
$GPGSV,2,2,06,46,,,30,16,,,22*79
$GPRMC,233829.750,A,4730.1465,N,12215.7826,W,0.52,261.14,101120,,,A*73
$GPVTG,261.14,T,,M,0.52,N,0.96,K,A*35
$GPGGA,233830.000,4730.1465,N,12215.7826,W,1,04,2.70,75.5,M,-17.4,M,,*66
$GPGSA,A,3,22,09,03,04,,,,,,,,,2.87,2.70,0.98*05
$GPRMC,233830.000,A,4730.1465,N,12215.7826,W,0.51,259.82,101120,,,A*7E
$GPVTG,259.82,T,,M,0.51,N,0.95,K,A*31
$GPGGA,233830.250,4730.1465,N,12215.7826,W,1,04,2.70,75.5,M,-17.4,M,,*61
$GPGSA,A,3,22,09,03,04,,,,,,,,,2.87,2.70,0.98*05
$GPRMC,233830.250,A,4730.1465,N,12215.7826,W,0.51,259.04,101120,,,A*77
$GPVTG,259.04,T,,M,0.51,N,0.94,K,A*3E
$GPGGA,233830.500,4730.1464,N,12215.7827,W,1,04,2.70,75.5,M,-17.4,M,,*63
$GPGSA,A,3,22,09,03,04,,,,,,,,,2.87,2.70,0.98*05
$GPRMC,233830.500,A,4730.1464,N,12215.7827,W,0.50,258.50,101120,,,A*74
$GPVTG,258.50,T,,M,0.50,N,0.94,K,A*3F
$GPGGA,233830.750,4730.1464,N,12215.7827,W,1,04,2.70,75.5,M,-17.4,M,,*64
$GPGSA,A,3,22,09,03,04,,,,,,,,,2.87,2.70,0.98*05
$GPRMC,233830.750,A,4730.1464,N,12215.7827,W,0.50,257.08,101120,,,A*71
$GPVTG,257.08,T,,M,0.50,N,0.93,K,A*3A
$GPGGA,233831.000,4730.1464,N,12215.7828,W,1,04,2.70,75.5,M,-17.4,M,,*68
$GPGSA,A,3,22,09,03,04,,,,,,,,,2.87,2.70,0.98*05
$GPGSV,2,1,06,04,80,057,25,09,53,297,22,03,40,176,21,22,19,168,21*76
$GPGSV,2,2,06,46,,,30,16,,,22*79
$GPRMC,233831.000,A,4730.1464,N,12215.7828,W,0.50,255.08,101120,,,A*7F
$GPVTG,255.08,T,,M,0.50,N,0.93,K,A*38
$GPGGA,233831.250,4730.1464,N,12215.7828,W,1,04,2.70,75.5,M,-17.4,M,,*6F
$GPGSA,A,3,22,09,03,04,,,,,,,,,2.87,2.70,0.98*05
$GPRMC,233831.250,A,4730.1464,N,12215.7828,W,0.50,254.87,101120,,,A*7E
$GPVTG,254.87,T,,M,0.50,N,0.92,K,A*3F
$GPGGA,233831.500,4730.1464,N,12215.7829,W,1,04,2.70,75.5,M,-17.4,M,,*6C
$GPGSA,A,3,22,09,03,04,,,,,,,,,2.87,2.70,0.98*05
$GPRMC,233831.500,A,4730.1464,N,12215.7829,W,0.49,254.92,101120,,,A*71
$GPVTG,254.92,T,,M,0.49,N,0.91,K,A*30
$GPGGA,233831.750,4730.1464,N,12215.7829,W,1,04,2.70,75.5,M,-17.4,M,,*6B
$GPGSA,A,3,22,09,03,04,,,,,,,,,2.87,2.70,0.98*05
$GPRMC,233831.750,A,4730.1464,N,12215.7829,W,0.49,255.27,101120,,,A*79
$GPVTG,255.27,T,,M,0.49,N,0.90,K,A*3E
$GPGGA,233832.000,4730.1464,N,12215.7830,W,1,04,2.70,75.5,M,-17.4,M,,*62
$GPGSA,A,3,22,09,03,04,,,,,,,,,2.87,2.70,0.98*05
$GPRMC,233832.000,A,4730.1464,N,12215.7830,W,0.47,256.12,101120,,,A*7B
$GPVTG,256.12,T,,M,0.47,N,0.87,K,A*33
$GPGGA,233832.250,4730.1464,N,12215.7830,W,1,04,2.70,75.5,M,-17.4,M,,*65
$GPGSA,A,3,22,09,03,04,,,,,,,,,2.87,2.70,0.98*05
$GPGSV,2,1,06,04,80,057,26,09,53,297,23,03,40,176,21,22,19,168,21*74
$GPGSV,2,2,06,46,,,30,16,,,22*79
$GPRMC,233832.250,A,4730.1464,N,12215.7830,W,0.47,256.44,101120,,,A*7F
$GPVTG,256.44,T,,M,0.47,N,0.86,K,A*31
$GPGGA,233832.500,4730.1464,N,12215.7831,W,1,04,2.70,75.5,M,-17.4,M,,*66
$GPGSA,A,3,22,09,03,04,,,,,,,,,2.87,2.70,0.98*05
$GPRMC,233832.500,A,4730.1464,N,12215.7831,W,0.46,256.06,101120,,,A*7B
$GPVTG,256.06,T,,M,0.46,N,0.85,K,A*35
$GPGGA,233832.750,4730.1464,N,12215.7831,W,1,04,2.70,75.5,M,-17.4,M,,*61
$GPGSA,A,3,22,09,03,04,,,,,,,,,2.87,2.70,0.98*05
$GPRMC,233832.750,A,4730.1464,N,12215.7831,W,0.45,254.41,101120,,,A*7E
$GPVTG,254.41,T,,M,0.45,N,0.84,K,A*36
$GPGGA,233833.000,4730.1464,N,12215.7831,W,1,04,2.70,75.5,M,-17.4,M,,*62
$GPGSA,A,3,22,09,03,04,,,,,,,,,2.87,2.70,0.98*05
$GPRMC,233833.000,A,4730.1464,N,12215.7831,W,0.43,251.87,101120,,,A*74
$GPVTG,251.87,T,,M,0.43,N,0.80,K,A*3B
$GPGGA,233833.250,4730.1464,N,12215.7832,W,1,04,2.70,75.5,M,-17.4,M,,*66
$GPGSA,A,3,22,09,03,04,,,,,,,,,2.87,2.70,0.98*05
$GPRMC,233833.250,A,4730.1464,N,12215.7832,W,0.42,250.45,101120,,,A*7E
$GPVTG,250.45,T,,M,0.42,N,0.78,K,A*32
$GPGGA,233833.500,4730.1463,N,12215.7832,W,1,04,2.70,75.5,M,-17.4,M,,*63
$GPGSA,A,3,22,09,03,04,,,,,,,,,2.87,2.70,0.98*05
$GPGSV,2,1,06,04,80,057,26,09,53,297,23,03,40,176,21,22,19,168,21*74
$GPGSV,2,2,06,46,,,30,16,,,22*79
$GPRMC,233833.500,A,4730.1463,N,12215.7832,W,0.41,249.94,101120,,,A*7C
$GPVTG,249.94,T,,M,0.41,N,0.77,K,A*3A
$GPGGA,233833.750,4730.1463,N,12215.7833,W,1,04,2.70,75.5,M,-17.4,M,,*65
$GPGSA,A,3,22,09,03,04,,,,,,,,,2.87,2.70,0.98*05
$GPRMC,233833.750,A,4730.1463,N,12215.7833,W,0.41,249.52,101120,,,A*70
$GPVTG,249.52,T,,M,0.41,N,0.76,K,A*31
$GPGGA,233834.000,4730.1463,N,12215.7833,W,1,04,2.70,75.5,M,-17.4,M,,*60
$GPGSA,A,3,22,09,03,04,,,,,,,,,2.87,2.70,0.98*05
$GPRMC,233834.000,A,4730.1463,N,12215.7833,W,0.40,248.50,101120,,,A*77
$GPVTG,248.50,T,,M,0.40,N,0.75,K,A*30
$GPGGA,233834.250,4730.1463,N,12215.7833,W,1,04,2.70,75.5,M,-17.4,M,,*67
$GPGSA,A,3,22,09,03,04,,,,,,,,,2.87,2.70,0.98*05
$GPRMC,233834.250,A,4730.1463,N,12215.7833,W,0.40,247.26,101120,,,A*7E
$GPVTG,247.26,T,,M,0.40,N,0.74,K,A*3F
$GPGGA,233834.500,4730.1463,N,12215.7834,W,1,04,2.70,75.5,M,-17.4,M,,*62
$GPGSA,A,3,22,09,03,04,,,,,,,,,2.87,2.70,0.98*05
$GPRMC,233834.500,A,4730.1463,N,12215.7834,W,0.38,245.80,101120,,,A*7A
$GPVTG,245.80,T,,M,0.38,N,0.70,K,A*3A
$GPGGA,233834.750,4730.1463,N,12215.7834,W,1,04,2.70,75.5,M,-17.4,M,,*65
$GPGSA,A,3,22,09,03,04,,,,,,,,,2.87,2.70,0.98*05
$GPGSV,2,1,06,04,80,057,26,09,53,297,23,03,40,176,21,22,19,168,21*74
$GPGSV,2,2,06,46,,,30,16,,,22*79
$GPRMC,233834.750,A,4730.1463,N,12215.7834,W,0.35,245.11,101120,,,A*78
$GPVTG,245.11,T,,M,0.35,N,0.66,K,A*38
$GPGGA,233835.000,4730.1463,N,12215.7834,W,1,04,2.70,75.5,M,-17.4,M,,*66
$GPGSA,A,3,22,09,03,04,,,,,,,,,2.87,2.70,0.98*05
$GPRMC,233835.000,A,4730.1463,N,12215.7834,W,0.34,244.08,101120,,,A*73
$GPVTG,244.08,T,,M,0.34,N,0.63,K,A*35
$GPGGA,233835.250,4730.1463,N,12215.7835,W,1,04,2.70,75.5,M,-17.4,M,,*60
$GPGSA,A,3,22,09,03,04,,,,,,,,,2.87,2.70,0.98*05
$GPRMC,233835.250,A,4730.1463,N,12215.7835,W,0.33,243.70,101120,,,A*7A
$GPVTG,243.70,T,,M,0.33,N,0.61,K,A*38
$GPGGA,233835.500,4730.1463,N,12215.7835,W,1,04,2.70,75.5,M,-17.4,M,,*62
$GPGSA,A,3,22,09,03,04,,,,,,,,,2.87,2.70,0.98*05
$GPRMC,233835.500,A,4730.1463,N,12215.7835,W,0.32,244.55,101120,,,A*79
$GPVTG,244.55,T,,M,0.32,N,0.59,K,A*32
$GPGGA,233835.750,4730.1462,N,12215.7835,W,1,04,2.70,75.5,M,-17.4,M,,*64
$GPGSA,A,3,22,09,03,04,,,,,,,,,2.87,2.70,0.98*05
$GPRMC,233835.750,A,4730.1462,N,12215.7835,W,0.32,244.86,101120,,,A*71
$GPVTG,244.86,T,,M,0.32,N,0.60,K,A*36
$GPGGA,233836.000,4730.1462,N,12215.7836,W,1,04,2.70,75.5,M,-17.4,M,,*66
$GPGSA,A,3,22,09,03,04,,,,,,,,,2.87,2.70,0.98*05
$GPGSV,2,1,06,04,80,057,26,09,53,297,23,03,40,176,21,22,19,168,21*74
$GPGSV,2,2,06,46,,,30,16,,,22*79
$GPRMC,233836.000,A,4730.1462,N,12215.7836,W,0.32,243.43,101120,,,A*7D
$GPVTG,243.43,T,,M,0.32,N,0.59,K,A*32
$GPGGA,233836.250,4730.1462,N,12215.7836,W,1,04,2.70,75.5,M,-17.4,M,,*61
$GPGSA,A,3,22,09,03,04,,,,,,,,,2.87,2.70,0.98*05
$GPRMC,233836.250,A,4730.1462,N,12215.7836,W,0.31,242.61,101120,,,A*78
$GPVTG,242.61,T,,M,0.31,N,0.57,K,A*3E
$GPGGA,233836.500,4730.1462,N,12215.7836,W,1,04,2.70,75.5,M,-17.4,M,,*63
$GPGSA,A,3,22,09,03,04,,,,,,,,,2.87,2.70,0.98*05
$GPRMC,233836.500,A,4730.1462,N,12215.7836,W,0.29,243.51,101120,,,A*71
$GPVTG,243.51,T,,M,0.29,N,0.55,K,A*37
$GPGGA,233836.750,4730.1462,N,12215.7836,W,1,04,2.70,75.5,M,-17.4,M,,*64
$GPGSA,A,3,22,09,03,04,,,,,,,,,2.87,2.70,0.98*05
$GPRMC,233836.750,A,4730.1462,N,12215.7836,W,0.30,244.25,101120,,,A*7A
$GPVTG,244.25,T,,M,0.30,N,0.55,K,A*3B
$GPGGA,233837.000,4730.1462,N,12215.7837,W,1,04,2.70,75.5,M,-17.4,M,,*66
$GPGSA,A,3,22,09,03,04,,,,,,,,,2.87,2.70,0.98*05
$GPRMC,233837.000,A,4730.1462,N,12215.7837,W,0.29,246.64,101120,,,A*77
$GPVTG,246.64,T,,M,0.29,N,0.53,K,A*32
$GPGGA,233837.250,4730.1462,N,12215.7837,W,1,04,2.70,75.5,M,-17.4,M,,*61
$GPGSA,A,3,22,09,03,04,,,,,,,,,2.87,2.70,0.98*05
$GPGSV,2,1,06,04,80,057,26,09,53,297,23,03,40,176,22,22,19,168,20*76
$GPGSV,2,2,06,46,,,30,16,,,22*79
$GPRMC,233837.250,A,4730.1462,N,12215.7837,W,0.28,248.44,101120,,,A*7D
$GPVTG,248.44,T,,M,0.28,N,0.52,K,A*3E
$GPGGA,233837.500,4730.1462,N,12215.7837,W,1,04,2.69,75.5,M,-17.4,M,,*6B
$GPGSA,A,3,22,09,03,04,,,,,,,,,2.87,2.69,0.98*0D
$GPRMC,233837.500,A,4730.1462,N,12215.7837,W,0.27,249.41,101120,,,A*74
$GPVTG,249.41,T,,M,0.27,N,0.50,K,A*37
$GPGGA,233837.750,4730.1462,N,12215.7837,W,1,04,2.70,75.5,M,-17.4,M,,*64
$GPGSA,A,3,22,09,03,04,,,,,,,,,2.87,2.70,0.98*05
$GPRMC,233837.750,A,4730.1462,N,12215.7837,W,0.27,250.73,101120,,,A*7A
$GPVTG,250.73,T,,M,0.27,N,0.49,K,A*36
$GPGGA,233838.000,4730.1462,N,12215.7838,W,1,04,2.70,75.5,M,-17.4,M,,*66
$GPGSA,A,3,22,09,03,04,,,,,,,,,2.87,2.70,0.98*05
$GPRMC,233838.000,A,4730.1462,N,12215.7838,W,0.26,250.04,101120,,,A*79
$GPVTG,250.04,T,,M,0.26,N,0.47,K,A*39
$GPGGA,233838.250,4730.1462,N,12215.7838,W,1,04,2.70,75.5,M,-17.4,M,,*61
$GPGSA,A,3,22,09,03,04,,,,,,,,,2.87,2.70,0.98*05
$GPRMC,233838.250,A,4730.1462,N,12215.7838,W,0.25,247.77,101120,,,A*7F
$GPVTG,247.77,T,,M,0.25,N,0.47,K,A*38
$GPGGA,233838.500,4730.1462,N,12215.7838,W,1,04,2.70,75.5,M,-17.4,M,,*63
$GPGSA,A,3,22,09,03,04,,,,,,,,,2.87,2.70,0.98*05
$GPGSV,2,1,06,04,80,057,26,09,53,297,23,03,40,176,22,22,19,168,20*76
$GPGSV,2,2,06,46,,,30,16,,,22*79
$GPRMC,233838.500,A,4730.1462,N,12215.7838,W,0.25,246.01,101120,,,A*7D
$GPVTG,246.01,T,,M,0.25,N,0.46,K,A*39
$GPGGA,233838.750,4730.1462,N,12215.7838,W,1,04,2.70,75.5,M,-17.4,M,,*64
$GPGSA,A,3,22,09,03,04,,,,,,,,,2.87,2.70,0.98*05
$GPRMC,233838.750,A,4730.1462,N,12215.7838,W,0.21,241.60,101120,,,A*7E
$GPVTG,241.60,T,,M,0.21,N,0.40,K,A*3B
$GPGGA,233839.000,4730.1461,N,12215.7838,W,1,04,2.69,75.5,M,-17.4,M,,*6C
$GPGSA,A,3,22,09,03,04,,,,,,,,,2.87,2.69,0.98*0D
$GPRMC,233839.000,A,4730.1461,N,12215.7838,W,0.19,236.43,101120,,,A*74
$GPVTG,236.43,T,,M,0.19,N,0.36,K,A*30
$GPGGA,233839.250,4730.1461,N,12215.7839,W,1,04,2.70,75.5,M,-17.4,M,,*62
$GPGSA,A,3,22,09,03,04,,,,,,,,,2.87,2.70,0.98*05
$GPRMC,233839.250,A,4730.1461,N,12215.7839,W,0.19,233.05,101120,,,A*75
$GPVTG,233.05,T,,M,0.19,N,0.34,K,A*35
$GPGGA,233839.500,4730.1461,N,12215.7839,W,1,04,2.70,75.5,M,-17.4,M,,*60
$GPGSA,A,3,22,09,03,04,,,,,,,,,2.87,2.70,0.98*05
$GPRMC,233839.500,A,4730.1461,N,12215.7839,W,0.18,228.13,101120,,,A*7B
$GPVTG,228.13,T,,M,0.18,N,0.33,K,A*3E
$GPGGA,233839.750,4730.1461,N,12215.7839,W,1,04,2.70,75.5,M,-17.4,M,,*67
$GPGSA,A,3,22,09,03,04,,,,,,,,,2.87,2.70,0.98*05
$GPGSV,2,1,06,04,80,057,26,09,53,297,23,03,40,176,22,22,19,168,20*76
$GPGSV,2,2,06,46,,,30,16,,,22*79
$GPRMC,233839.750,A,4730.1461,N,12215.7839,W,0.17,221.49,101120,,,A*75
$GPVTG,221.49,T,,M,0.17,N,0.31,K,A*35
$GPGGA,233840.000,4730.1461,N,12215.7839,W,1,04,2.69,75.5,M,-17.4,M,,*63
$GPGSA,A,3,22,09,03,04,,,,,,,,,2.87,2.69,0.98*0D
$GPRMC,233840.000,A,4730.1461,N,12215.7839,W,0.16,215.23,101120,,,A*73
$GPVTG,215.23,T,,M,0.16,N,0.30,K,A*3E
$GPGGA,233840.250,4730.1461,N,12215.7839,W,1,04,2.69,75.5,M,-17.4,M,,*64
$GPGSA,A,3,22,09,03,04,,,,,,,,,2.87,2.69,0.98*0D
$GPRMC,233840.250,A,4730.1461,N,12215.7839,W,0.16,212.32,101120,,,A*73
$GPVTG,212.32,T,,M,0.16,N,0.29,K,A*31
$GPGGA,233840.500,4730.1461,N,12215.7839,W,1,04,2.70,75.5,M,-17.4,M,,*6E
$GPGSA,A,3,22,09,03,04,,,,,,,,,2.87,2.70,0.98*05
$GPRMC,233840.500,A,4730.1461,N,12215.7839,W,0.15,208.67,101120,,,A*79
$GPVTG,208.67,T,,M,0.15,N,0.28,K,A*38
$GPGGA,233840.750,4730.1461,N,12215.7839,W,1,04,2.70,75.5,M,-17.4,M,,*69
$GPGSA,A,3,22,09,03,04,,,,,,,,,2.87,2.70,0.98*05
$GPRMC,233840.750,A,4730.1461,N,12215.7839,W,0.16,202.46,101120,,,A*74
$GPVTG,202.46,T,,M,0.16,N,0.29,K,A*33
$GPGGA,233841.000,4730.1461,N,12215.7839,W,1,04,2.69,75.5,M,-17.4,M,,*62
$GPGSA,A,3,22,09,03,04,,,,,,,,,2.87,2.69,0.98*0D
$GPGSV,2,1,06,04,80,057,26,09,53,297,23,03,40,176,20,22,19,168,20*74
$GPGSV,2,2,06,46,,,30,16,,,23*78
$GPRMC,233841.000,A,4730.1461,N,12215.7839,W,0.15,196.06,101120,,,A*7E
$GPVTG,196.06,T,,M,0.15,N,0.28,K,A*3B
$GPGGA,233841.250,4730.1461,N,12215.7839,W,1,04,2.70,75.5,M,-17.4,M,,*6D
$GPGSA,A,3,22,09,03,04,,,,,,,,,2.87,2.70,0.98*05
$GPRMC,233841.250,A,4730.1461,N,12215.7839,W,0.16,191.66,101120,,,A*7B
$GPVTG,191.66,T,,M,0.16,N,0.29,K,A*38
$GPGGA,233841.500,4730.1461,N,12215.7839,W,1,04,2.70,75.5,M,-17.4,M,,*6F
$GPGSA,A,3,22,09,03,04,,,,,,,,,2.87,2.70,0.98*05
$GPRMC,233841.500,A,4730.1461,N,12215.7839,W,0.16,188.88,101120,,,A*71
$GPVTG,188.88,T,,M,0.16,N,0.29,K,A*30
$GPGGA,233841.750,4730.1460,N,12215.7839,W,1,04,2.70,75.5,M,-17.4,M,,*69
$GPGSA,A,3,22,09,03,04,,,,,,,,,2.87,2.70,0.98*05
$GPRMC,233841.750,A,4730.1460,N,12215.7839,W,0.15,181.28,101120,,,A*77
$GPVTG,181.28,T,,M,0.15,N,0.28,K,A*31
$GPGGA,233842.000,4730.1460,N,12215.7839,W,1,04,2.69,75.5,M,-17.4,M,,*60
$GPGSA,A,3,22,09,03,04,,,,,,,,,2.87,2.69,0.98*0D
$GPRMC,233842.000,A,4730.1460,N,12215.7839,W,0.18,184.47,101120,,,A*77
$GPVTG,184.47,T,,M,0.18,N,0.33,K,A*3A
$GPGGA,233842.250,4730.1460,N,12215.7839,W,1,04,2.70,75.5,M,-17.4,M,,*6F
$GPGSA,A,3,22,09,03,04,,,,,,,,,2.87,2.70,0.98*05
$GPGSV,2,1,06,04,80,057,27,09,53,297,22,03,40,176,20,22,19,168,20*74
$GPGSV,2,2,06,46,,,30,16,,,23*78
$GPRMC,233842.250,A,4730.1460,N,12215.7839,W,0.18,183.26,101120,,,A*70
$GPVTG,183.26,T,,M,0.18,N,0.34,K,A*3D
$GPGGA,233842.500,4730.1460,N,12215.7839,W,1,04,2.69,75.5,M,-17.4,M,,*65
$GPGSA,A,3,22,09,03,04,,,,,,,,,2.87,2.69,0.98*0D
$GPRMC,233842.500,A,4730.1460,N,12215.7839,W,0.19,182.43,101120,,,A*71
$GPVTG,182.43,T,,M,0.19,N,0.35,K,A*3F
$GPGGA,233842.750,4730.1460,N,12215.7839,W,1,04,2.69,75.5,M,-17.4,M,,*62
$GPGSA,A,3,22,09,03,04,,,,,,,,,2.87,2.69,0.98*0D
$GPRMC,233842.750,A,4730.1460,N,12215.7839,W,0.18,179.03,101120,,,A*77
$GPVTG,179.03,T,,M,0.18,N,0.34,K,A*3F
$GPGGA,233843.000,4730.1460,N,12215.7839,W,1,04,2.69,75.5,M,-17.4,M,,*61
$GPGSA,A,3,22,09,03,04,,,,,,,,,2.87,2.69,0.98*0D
$GPRMC,233843.000,A,4730.1460,N,12215.7839,W,0.18,175.35,101120,,,A*7D
$GPVTG,175.35,T,,M,0.18,N,0.33,K,A*31
$GPGGA,233843.250,4730.1460,N,12215.7839,W,1,04,2.69,75.5,M,-17.4,M,,*66
$GPGSA,A,3,22,09,03,04,,,,,,,,,2.87,2.69,0.98*0D
$GPRMC,233843.250,A,4730.1460,N,12215.7839,W,0.17,168.63,101120,,,A*7A
$GPVTG,168.63,T,,M,0.17,N,0.32,K,A*30
$GPGGA,233843.500,4730.1460,N,12215.7839,W,1,04,2.69,75.5,M,-17.4,M,,*64
$GPGSA,A,3,22,09,03,04,,,,,,,,,2.87,2.69,0.98*0D
$GPGSV,2,1,06,04,80,057,27,09,53,297,22,03,40,176,20,22,19,168,21*75
$GPGSV,2,2,06,46,,,30,16,,,22*79
